[{"type":"farm","street":"9160 Ford Circle","city":"Fishers","state":"IN","zip":"46038","longitude":"-86.007339","latitude":"39.973794","name":"Aggressively Fresh Fishers Market","website":"https://aggressivelyfresh.com/","facebook":"https://www.facebook.com/AggressivelyFresh","twitter":"","tags":"bedding plants herbs fresh-vegetables grains flour mushrooms nursery-stock soap body-care"},{"type":"farm","street":"10262 S 800 E","city":"Amboy ","state":"IN","zip":"46911","longitude":"-85.9205480","latitude":"40.6195200","name":"Amboy Honey Creek Farms","website":"","facebook":"","twitter":"","tags":"honey"},{"type":"farm","street":"129 W 1800 S","city":"Clinton","state":"IN","zip":"47842","longitude":"-87.466855","latitude":"39.621846","name":"Aris Farm Alpacas","website":"www.ArisFarmAlpacas.com","facebook":"https://www.facebook.com/ArisFarmAlpacas","twitter":"","tags":"crafts woodworking soap body-care"},{"type":"farm","street":"9240 n co rd 30 w","city":"North vernon ","state":"IN","zip":"47265","longitude":"-85.619821","latitude":"39.120663","name":"Armand Family Farms","website":"","facebook":"","twitter":"","tags":"eggs fresh-vegetables red-meat non-poultry-meat"},{"type":"farm","street":"6066 South State Road 61","city":"Monroe City","state":"IN","zip":"47557","longitude":"-87.3339600","latitude":"38.5897750","name":"Brads Berry and Peach","website":"","facebook":"","twitter":"","tags":"fresh-fruits fresh-vegetables honey"},{"type":"farm","street":"12818 Edgerton Road","city":"New Haven","state":"IN","zip":"46774","longitude":"-84.9755830","latitude":"41.0761020","name":"Bruick Brothers Produce INC","website":"www.advancedtree.com","facebook":"https://www.facebook.com/AdvancedTreeTechnology","twitter":"","tags":""},{"type":"farm","street":"6900 Oak Park Road NE","city":"New Salisbury","state":"IN","zip":"47161","longitude":"-86.088252","latitude":"38.300519","name":"Bryant's Blueberries","website":"www.bryantsblueberries.com","facebook":"https://www.facebook.com/pages/Bryants-Blueberries/296127074527","twitter":"","tags":""},{"type":"farm","street":"3301 S Weinbach Ave","city":"Evansville","state":"IN","zip":"47714","longitude":"-87.530205","latitude":"37.936180","name":"Bud's Farm Market","website":"budsfarm.com","facebook":"Facebook.com/budsfarmmarket","twitter":"","tags":"fresh-fruits fresh-vegetables"},{"type":"farm","street":"3501 S Weinbach Ave","city":"Evansville","state":"IN","zip":"47714","longitude":"-87.531956","latitude":"37.935357","name":"Bud's Farm Market","website":"Facebook.com/budsfarmmarket","facebook":"Facebook.com/budsfarmmarket","twitter":"","tags":"fresh-fruits fresh-vegetables"},{"type":"farm","street":"6371 COUNTY ROAD 29","city":"AUBURN","state":"IN","zip":"46706","longitude":"-85.048532","latitude":"41.301634","name":"Carter's Honey Farm","website":"www.cartershoneybees.com","facebook":"https://www.facebook.com/cartershoneybees","twitter":"","tags":"honey"},{"type":"farm","street":"14118 Peach Road","city":"Plymouth","state":"IN","zip":"46563","longitude":"-86.3612930","latitude":"41.2724336","name":"Childs' Farm","website":"www.childsfarm.net","facebook":"www.facebook.com/pages/Childs-Farm/104283862951552","twitter":"","tags":"bedding plants crafts woodworking dry beans eggs herbs fresh-vegetables poultry fowl soap body-care"},{"type":"farm","street":"8905 West 350 South","city":"North Vernon","state":"IN","zip":"47265","longitude":"-85.7760690","latitude":"38.9290890","name":"Clarks Berry Farm","website":"","facebook":"https://www.facebook.com/clarkberryfarm","twitter":"","tags":"fresh-fruits"},{"type":"farm","street":"10128 E CR 650 S","city":"Cloverdale","state":"IN","zip":"46120","longitude":"-86.6671388","latitude":"39.5658168","name":"Clifford Feed & Straight From the Farm Market","website":"","facebook":"www.facebook.com/Cliffordfeed","twitter":"","tags":"bedding plants crafts woodworking herbs fresh-fruits fresh-vegetables red-meat non-poultry-meat soap body-care"},{"type":"farm","street":"1565 Saint Johns Church Road NE","city":"Lanesville","state":"IN","zip":"47136","longitude":"-85.9694093","latitude":"38.2233474","name":"Deere Farms Corn Maze and Pumpkin Patch","website":"www.deerefarms.com","facebook":"https://www.facebook.com/DeereFarmsCornMaze","twitter":"","tags":"baked-goods bedding plants"},{"type":"farm","street":"7480 W River Road","city":"South Whitley","state":"IN","zip":"46787","longitude":"-85.634680","latitude":"41.073939","name":"Eel River Bison Ranch","website":"www.eelriverbisonranch.com","facebook":"facebook.com\\eelriverbison","twitter":"","tags":""},{"type":"farm","street":"1 Sisters of Providence","city":"St Mary of the Woods","state":"IN","zip":"47876","longitude":"-87.454521","latitude":"39.512245","name":"Farm Store at White Violet Center","website":"https://farm-store-at-white-violet-center.mybigcommerce.com/","facebook":"@WhiteVioletCenter","twitter":"@wvcecojustice","tags":"baked-goods bedding plants canned preserved coffee tea crafts woodworking cut-flowers dairy products eggs herbs fresh-fruits fresh-vegetables honey juices ciders maple-products nuts pet-food poultry fowl prepared-foods red-meat non-poultry-meat soap body-care"},{"type":"farm","street":"8495 E CR 900 N","city":"Sunman","state":"IN","zip":"47041","longitude":"-85.103989","latitude":"39.203497","name":"Fork Right Farm","website":"www.forkrightfarm.com","facebook":"https://www.facebook.com/ForkRightFarm","twitter":"","tags":"red-meat non-poultry-meat"},{"type":"farm","street":"684N County Rd 950W","city":"Richland","state":"IN","zip":"47634","longitude":"-87.235132","latitude":"37.897433","name":"Forston Farms LLC","website":"forstonfarm.com","facebook":"Forston Farms LLC ","twitter":"","tags":"crafts woodworking honey soap body-care"},{"type":"farm","street":"206 N 46 W Hamilton Co","city":"Sheridan","state":"IN","zip":"46069","longitude":"-86.240938","latitude":"40.083722","name":"Garden of Good","website":"","facebook":"","twitter":"","tags":"fresh-fruits fresh-vegetables"},{"type":"farm","street":"6613 w. jacksom","city":"Muncie ","state":"IN","zip":"47304","longitude":"-85.463899","latitude":"40.205468","name":"Gary's Gardens","website":"garystevenprater@gmail.net","facebook":"","twitter":"","tags":"bedding plants fresh-fruits fresh-vegetables"},{"type":"farm","street":"15606 Oriole Road","city":"Leopold","state":"IN","zip":"47551","longitude":"-86.522822","latitude":"38.165649","name":"Grass Corp.","website":"https://grasscorp.net/","facebook":"https://www.facebook.com/Grasscorp.net/","twitter":"","tags":"dairy products eggs pet-food poultry fowl red-meat non-poultry-meat soap body-care"},{"type":"farm","street":"5975e 500n","city":"Leesburg","state":"IN","zip":"46538","longitude":"-85.7299150","latitude":"41.3068150","name":"Green Acres produce, LLC","website":"","facebook":"","twitter":"","tags":"fresh-vegetables"},{"type":"farm","street":"6501 W Honey Ln","city":"Martinsville","state":"IN","zip":"46151","longitude":"-86.552612","latitude":"39.487286","name":"Hunter's Honey Farm","website":"HuntersHoneyFarm.com","facebook":"Hunter's Honey Farm","twitter":"Hunter's Honey Farm","tags":"canned preserved eggs honey prepared-foods soap body-care"},{"type":"farm","street":"10373 N 300 E","city":"North Manchester","state":"IN","zip":"46962","longitude":"-85.738850","latitude":"40.977922","name":"J.L. Hawkins Family Farm L.P.","website":"www.hawkinsfamilyfarm.com","facebook":"https://www.facebook.com/hawkinsfamilyfarm","twitter":"https://www.twitter.com/hawkinsfarm","tags":"eggs honey maple-products poultry fowl red-meat non-poultry-meat"},{"type":"farm","street":"4879 E ST. RD 58","city":"Bloomfield","state":"IN","zip":"47424","longitude":"-86.9375068","latitude":"39.0269903","name":"Jones 5 Star Ranch & Country Store","website":"","facebook":"https://www.facebook.com/pages/Jones-5-Star-Ranch/623618880995653","twitter":"","tags":""},{"type":"farm","street":"4683 S. St. Rd. 135","city":"Vallonia","state":"IN","zip":"47281","longitude":"-86.101735","latitude":"38.810188","name":"Kamman's Greenhouses & Farm Market","website":"www.kammansfarmmarket.com","facebook":"https://www.facebook.com/kammansfarmmarket","twitter":"https://twitter.com/KammansFarms","tags":""},{"type":"farm","street":"19498 County Road 38","city":"Goshen","state":"IN","zip":"46526","longitude":"-85.838435","latitude":"41.549790","name":"Kercher's Sunrise Orchards","website":"","facebook":"https://www.facebook.com/pages/Kerchers-Sunrise-Orchards/140862185948471","twitter":"","tags":""},{"type":"farm","street":"4874 E 1400 N","city":"North Manchester","state":"IN","zip":"46962","longitude":"-85.705937","latitude":"41.031582","name":"Kindys' Organically Grown Produce","website":"","facebook":"","twitter":"","tags":"cut-flowers eggs herbs fresh-fruits fresh-vegetables"},{"type":"farm","street":"6403 Loi Road","city":"Floyds Knobs","state":"IN","zip":"47119","longitude":"-85.874050","latitude":"38.366417","name":"Kruer Family Farm Poultry & Fowl ","website":"","facebook":"Kruer Family Farm Poultry & Fowl ","twitter":"","tags":"bedding plants eggs herbs fresh-vegetables poultry fowl"},{"type":"farm","street":"14212 State Road 37E","city":"New Haven","state":"IN","zip":"46774","longitude":"-84.9603735","latitude":"41.1697509","name":"Kurtz Produce","website":"","facebook":"https://www.facebook.com/kurtzproduce/","twitter":"","tags":"fresh-vegetables"},{"type":"farm","street":"5165 E US Highway 40","city":"Plainfield ","state":"IN","zip":"46168","longitude":"-86.434469","latitude":"39.691679","name":"Lazy A Ranch","website":"","facebook":"","twitter":"","tags":"cut-flowers eggs herbs fresh-vegetables honey"},{"type":"farm","street":"4499 north 400 east","city":"Greenfield ","state":"IN","zip":"46140","longitude":"-85.726028","latitude":"39.856038","name":"lost forty tree farm","website":"lostfortytreefarm.com","facebook":"lostfortytreefarm.com","twitter":"none","tags":"canned preserved cut-flowers fresh-fruits fresh-vegetables honey mushrooms nursery-stock wild-harvested forest-products"},{"type":"farm","street":"6655 N 550 E","city":"Lebanon","state":"IN","zip":"46052","longitude":"-86.365920","latitude":"40.135876","name":"Magnanimous Farms","website":"https://www.magnanimousfarms.com/","facebook":"https://www.facebook.com/magnanimousfarms/","twitter":"","tags":"eggs honey maple-products poultry fowl prepared-foods red-meat non-poultry-meat"},{"type":"farm","street":"8101 S. Victor Pike","city":"Bloomington","state":"IN","zip":"47403","longitude":"-86.603126","latitude":"39.052321","name":"Marble Hill Farm","website":"","facebook":"","twitter":"","tags":"eggs red-meat non-poultry-meat"},{"type":"farm","street":"88 E. County Road 1000 S. Providence Church Road","city":"Paoli","state":"IN","zip":"47454","longitude":"-86.454737","latitude":"38.412000","name":"Maria Louisa Vineyard","website":"","facebook":"","twitter":"","tags":"fresh-fruits"},{"type":"farm","street":"57754 Crumstown Hwy","city":"South Bend","state":"IN","zip":"46619","longitude":"-86.3533214","latitude":"41.6567535","name":"Matthys Farm Market","website":"www.matthysfarmmarket.com","facebook":"","twitter":"","tags":"bedding plants fresh-fruits fresh-vegetables honey juices ciders pet-food"},{"type":"farm","street":"5450 North Us 31","city":"Peru","state":"IN","zip":"46970","longitude":"-86.131347","latitude":"40.837522","name":"McClures Orchard/Winery","website":"http://www.mccluresorchard.com/","facebook":"https://www.facebook.com/mcclures.orchard","twitter":"https://twitter.com/mccluresorchard","tags":"baked-goods canned preserved fresh-fruits fresh-vegetables honey juices ciders maple-products nursery-stock prepared-foods wine spirits beer hard-cider"},{"type":"farm","street":"6601 West 500 South","city":"Morgantown","state":"IN","zip":"46160","longitude":"-86.226373","latitude":"39.400957","name":"Nature's Gift","website":"www.NaturesGiftIndianaGrown.com","facebook":"Nature's Gift Organics","twitter":"","tags":"fresh-fruits fresh-vegetables"},{"type":"farm","street":"780N 500W","city":"Huntington","state":"IN","zip":"46750","longitude":"-85.549335","latitude":"40.839561","name":"Phils UPickIt","website":"","facebook":"","twitter":"","tags":""},{"type":"farm","street":"7000 N Stuthard Street","city":"Terre haute","state":"IN","zip":"47805","longitude":"-87.2668939","latitude":"39.5511985","name":"Pounds Farms","website":"","facebook":"","twitter":"","tags":""},{"type":"farm","street":"3271 E 500 S","city":"Cutler","state":"IN","zip":"46920","longitude":"-86.465291","latitude":"40.477947","name":"Prime Valley Farms LLC","website":"www.primevalleyfarms.com","facebook":"","twitter":"","tags":"red-meat non-poultry-meat"},{"type":"farm","street":"24611 Van Wedding Road","city":"Sunman","state":"IN","zip":"47041","longitude":"-85.0582890","latitude":"39.2256440","name":"Quarter Amish","website":"","facebook":"www.facebook.com/pages/Quarteramish-by-Life-Simple-Pleasure/150748645024012?focus_composer=true&ref_type=bookmark","twitter":"","tags":"canned preserved herbs fresh-vegetables soap body-care"},{"type":"farm","street":"8999 W. 200 N.","city":"Michigan City","state":"IN","zip":"46360","longitude":"-86.8734209","latitude":"41.6369600","name":"Radke Orchards","website":"www.radkeorchards.com","facebook":"","twitter":"","tags":"canned preserved fresh-fruits fresh-vegetables honey juices ciders nuts"},{"type":"farm","street":"8531 N 650 E","city":"New Carlisle","state":"IN","zip":"46552","longitude":"-86.565215","latitude":"41.732297","name":"Rainfield Farm","website":"www.rainfieldfarm.com","facebook":"https://www.facebook.com/rainfieldfarm","twitter":"","tags":"eggs herbs fresh-fruits fresh-vegetables honey maple-products"},{"type":"farm","street":"10131 S Edison Place","city":"Terre Haute","state":"IN","zip":"47802","longitude":"-87.469610","latitude":"39.343476","name":"Richmond Acres","website":"www.richmondacres.weebly.com","facebook":"https://www.facebook.com/richmondacres","twitter":"","tags":"eggs poultry fowl red-meat non-poultry-meat"},{"type":"farm","street":"67625 Mulberry Rd","city":"Lakeville","state":"IN","zip":"46536","longitude":"-86.314816","latitude":"41.514460","name":"Rock Icelandics","website":"","facebook":"Rock Icelandics and Suffolks","twitter":"","tags":"red-meat non-poultry-meat"},{"type":"farm","street":"7059 North County Road 600 West","city":"Michigan City","state":"IN","zip":"46360","longitude":"-86.816333","latitude":"41.710214","name":"Scherf Farms Dairy & Creamery","website":"www.scherffarms.com","facebook":"","twitter":"","tags":"dairy products"},{"type":"farm","street":"7784 N Sanctuary Ln","city":"Mooresville","state":"IN","zip":"46158","longitude":"-86.312305","latitude":"39.541648","name":"Seib's Hoosier Honey","website":"https://www.seibshoosierhoney.com","facebook":"https://www.facebook.com/SeibsHoosierHoney/","twitter":"","tags":"honey pet-food soap body-care"},{"type":"farm","street":"4781 N MOUNT GILEAD RD","city":"BLOOMINGTON","state":"IN","zip":"47408","longitude":"-86.425687","latitude":"39.222604","name":"Sobremesa Farm Market","website":"www.sobremesafarm.com","facebook":"facebook.com/sobremesafarm","twitter":"","tags":"canned preserved crafts woodworking cut-flowers herbs fresh-fruits fresh-vegetables honey wild-harvested forest-products"},{"type":"farm","street":"1288 S. County Rd. 600 West","city":"Danville ","state":"IN","zip":"46122","longitude":"-86.6328900","latitude":"39.7418369","name":"Stamper Farms & Gardens","website":"","facebook":"www.facebook.com/StamperFarmsAndGardens","twitter":"","tags":"canned preserved herbs fresh-fruits fresh-vegetables"},{"type":"farm","street":"21477 North CR 600 East","city":"Dale","state":"IN","zip":"47523","longitude":"-86.939880","latitude":"38.198899","name":"Steckler Grassfed LLC","website":"www.StecklerGrassfed.com","facebook":"https://www.facebook.com/pages/Steckler-Grassfed/123392397746374","twitter":"","tags":"dairy products eggs red-meat non-poultry-meat"},{"type":"farm","street":"8204 E State Rd 46","city":"Bloomington","state":"IN","zip":"47401","longitude":"-86.414401","latitude":"39.162236","name":"Stobo Farm, LLC","website":"stobofarm.com","facebook":"https://www.facebook.com/stobofarm","twitter":"","tags":"baked-goods bedding plants canned preserved cut-flowers dry beans eggs herbs fresh-fruits fresh-vegetables honey maple-products mushrooms"},{"type":"farm","street":"5285 E. State Rd. 45","city":"Bloomington","state":"IN","zip":"47408","longitude":"-86.468346","latitude":"39.198114","name":"Sunny Branch Farm","website":"http://www.sunnybranchfarm.com","facebook":"https://www.facebook.com/SunnyBranchFarm","twitter":"https://www.twitter.com/sunnybranchfarm","tags":"bedding plants canned preserved coffee tea cut-flowers eggs herbs fresh-fruits fresh-vegetables honey nursery-stock soap body-care"},{"type":"farm","street":"8171 W 300 N","city":"Etna Green ","state":"IN","zip":"46524","longitude":"-86.0018429","latitude":"41.2730940","name":"The Berry Patch","website":"","facebook":"https://www.facebook.com/pages/The-Berry-Patch/260825307322692","twitter":"","tags":"fresh-fruits"},{"type":"farm","street":"0540 County Road 5","city":"Corunna","state":"IN","zip":"46730","longitude":"-85.170414","latitude":"41.510023","name":"The Blueberry Patch","website":"","facebook":"","twitter":"","tags":""},{"type":"farm","street":"1704 S. Weimer Rd.","city":"Bloomington","state":"IN","zip":"47403","longitude":"-86.5654450","latitude":"39.1471130","name":"The Chile Woman","website":"www.thechilewoman.com","facebook":"https://www.facebook.com/TheChileWoman","twitter":"https://www.twitter.com/TheChileWoman","tags":"bedding plants canned preserved fresh-vegetables"},{"type":"farm","street":"18707 Clark Rd","city":"Lowell","state":"IN","zip":"46356","longitude":"-87.390456","latitude":"41.278842","name":"This Here Farm ","website":"www.etsy.com/shop/ThisHereFarm","facebook":"www.facebook.com/ThisHereFarm ","twitter":"","tags":"crafts woodworking honey soap body-care"},{"type":"farm","street":"","city":"Clay City","state":"IN","zip":"47841","longitude":"-87.110518","latitude":"39.304845","name":"Tucker Farms Produce","website":"","facebook":"","twitter":"","tags":"canned preserved fresh-fruits fresh-vegetables honey"},{"type":"farm","street":"404 Olive St.","city":"Goshen","state":"IN","zip":"46528","longitude":"-85.824658","latitude":"41.591367","name":"Uncle Paul's Gardens","website":"","facebook":"https:///www.facebook.com/pages/Uncle-Pauls-Gardens/136825963012535","twitter":"","tags":"bedding plants canned preserved dry beans herbs fresh-vegetables"},{"type":"farm","street":"5618 South County Road 200 East","city":"Lafayette","state":"IN","zip":"47909","longitude":"-86.861472","latitude":"40.336633","name":"Wea Creek Orchard","website":"www.weacreekorchard.com","facebook":"https://www.facebook.com/WeaCreekOrchard?ref=hl","twitter":"","tags":"baked-goods canned preserved fresh-fruits honey maple-products"},{"type":"farm","street":"5559 N Graham Rd","city":"Whiteland","state":"IN","zip":"46184","longitude":"-86.057032","latitude":"39.557765","name":"Whiteland Orchard","website":"whitelandorchard.com","facebook":"","twitter":"","tags":"bedding plants canned preserved herbs fresh-fruits fresh-vegetables honey juices ciders prepared-foods"},{"type":"market","name":"Albany IN Farmers Market","website":"","facebook":"https://www.facebook.com/Albany-IN-Farmers-Market-405175829889200/?modal=admin_todo_tour","twitter":"","street":"208 E. State Street","city":"Albany","state":"IN","zip":"47320","longitude":"-85.235831","latitude":"40.299191","tags":"baked goods cheese crafts flowers eggs herbs vegetables honey jams meat plants prepared-foods soap fruits"},{"type":"market","name":"Avon Farmers Market","website":"http://www.avongov.org/category/subcategory.php?categoryid=28","facebook":"http://facebook.com/avonfarmersmarket","twitter":"","street":"8190 E US Highway 36","city":"Avon","state":"IN","zip":"","longitude":"-86.38263","latitude":"39.765279","tags":"baked goods crafts flowers eggs honey jams meat prepared-foods soap"},{"type":"market","name":"Bainbridge Farm Market","website":"","facebook":"bainbridgefarmmarket","twitter":"","street":"201 Grant Ave","city":"bainbridge","state":"IN","zip":"46105","longitude":"-86.8176960","latitude":"39.7622329","tags":"organic baked goods cheese crafts flowers eggs herbs vegetables honey jams meat plants poultry prepared-foods soap fruits wild"},{"type":"market","name":"Batesville Farmers Market","website":"http://Www.Batesvillefarmersmarket.com","facebook":"Batesville Farmers Market","twitter":"","street":"Main and Boehringer Street","city":"Batesville ","state":"IN","zip":"47006","longitude":"-85.221859","latitude":"39.298852","tags":"baked goods cheese crafts flowers eggs herbs vegetables honey jams maple plants soap wine fruits mushrooms"},{"type":"market","name":"Bloomington Community Farmers' Market","website":"http://bloomington.in.gov/farmersmarket","facebook":"https://www.facebook.com/pages/Bloomington-Community-Farmers-Market/130635957114110","twitter":"","street":"401 N MortonSt","city":"Bloomington, IN ","state":"IN","zip":"47404","longitude":"-86.5369425","latitude":"39.1703084","tags":"organic baked goods cheese crafts flowers eggs seafood herbs vegetables honey jams maple meat nuts plants poultry prepared-foods soap trees coffee beans fruits grains pet food wild"},{"type":"market","name":"Bloomington Winter Farmers' Market","website":"http://bloomingtonwinterfarmersmarket.com","facebook":"https://www.facebook.com/Bloomington-Winter-Farmers-Market-205299875349/","twitter":"","street":"1601 S Rogers St","city":"Bloomington","state":"IN","zip":"47403","longitude":"-86.539649","latitude":"39.149906","tags":"organic baked goods cheese crafts flowers eggs seafood herbs vegetables honey jams maple meat poultry prepared-foods soap coffee beans fruits grains mushrooms wild"},{"type":"market","name":"Bluffton Farmers' & Artisans' Market","website":"","facebook":"https://www.facebook.com/BlufftonIndianaFarmersMarket/","twitter":"","street":"360 N Main St","city":"Bluffton","state":"IN","zip":"46714","longitude":"-85.172111","latitude":"40.743479","tags":"baked goods crafts flowers eggs vegetables honey jams plants soap fruits"},{"type":"market","name":"Brookville Farmer's Market","website":"","facebook":"","twitter":"","street":"116 Main Street","city":"BROOKVILLE","state":"IN","zip":"47012","longitude":"-85.012083","latitude":"39.412804","tags":"baked goods flowers eggs vegetables honey jams fruits"},{"type":"market","name":"Brownsburg Farmers Market","website":"https://www.brownsburg.org/category/subcategory.php?categoryid=8","facebook":"https://www.facebook.com/BrownsburgFarmersMarket/","twitter":"https://twitter.com/home","street":"61 N. Green Street","city":"Brownsburg","state":"IN","zip":"46112","longitude":"-86.396445","latitude":"39.844272","tags":"baked goods cheese crafts flowers herbs vegetables honey jams meat prepared-foods soap trees coffee fruits pet food"},{"type":"market","name":"Crawfordsville Farmers Market","website":"https://www.crawfordsville.net/topic/index.php?topicid=160&structureid=13","facebook":"https://www.facebook.com/crawfordsvillefarmersmarket","twitter":"","street":"100 W Pike St.","city":"Crawfordsville","state":"IN","zip":"47933","longitude":"-86.903732","latitude":"40.040652","tags":"baked goods crafts flowers eggs herbs vegetables honey jams maple meat nuts plants poultry prepared-foods soap coffee fruits"},{"type":"market","name":"Crawfordsville Winter Market","website":"https://www.crawfordsville.net/topic/index.php?topicid=160&structureid=13","facebook":"https://www.facebook.com/crawfordsvillefarmersmarket","twitter":"","street":"400 Parke Avenue","city":"Crawfordsville","state":"IN","zip":"47933","longitude":"-86.896007","latitude":"40.046040","tags":"baked goods crafts eggs herbs vegetables honey jams maple meat nuts poultry prepared-foods soap coffee fruits juices"},{"type":"market","name":"Culver Farmers' Market","website":"","facebook":"@culverfarmersmarket","twitter":"","street":"819 E. Lake Shore Drive","city":"Culver","state":"IN","zip":"46511","longitude":"-86.419302","latitude":"41.218494","tags":"organic baked goods crafts flowers eggs herbs vegetables honey jams maple meat nuts plants poultry prepared-foods soap fruits wild"},{"type":"market","name":"Culver Farmers' Market","website":"","facebook":"@culverfarmersmarket","twitter":"","street":"107 N Main Street","city":"Culver","state":"IN","zip":"46511","longitude":"-86.422907","latitude":"41.216815","tags":"organic baked goods crafts flowers eggs herbs vegetables honey jams maple meat nuts poultry prepared-foods soap fruits"},{"type":"market","name":"Cumberland Farmers Market","website":"http://www.town.cumberland.in.us/government/departments/farmers_market/index.php","facebook":"https://www.facebook.com/CumberlandINFM","twitter":"","street":"11501 E Washington Street","city":"Cumberland","state":"IN","zip":"46229","longitude":"-85.961539","latitude":"39.775860","tags":"baked goods cheese crafts flowers eggs herbs vegetables honey jams maple meat plants soap fruits mushrooms pet food"},{"type":"market","name":"Dillsboro Farmers Market","website":"","facebook":"https://www.facebook.com/Dillsboro-Farmers-Market-1682514815354955/","twitter":"","street":"12921 North Street","city":"Dillsboro","state":"IN","zip":"47018","longitude":"-85.059414","latitude":"39.018037","tags":"soap"},{"type":"market","name":"DOWNTOWN EVANSVILLE FARMERS MARKET","website":"http://www.downtownevansvillefarmersmarket.com","facebook":"downtown evansvillefarmersmarket.com","twitter":"","street":"3rd, 4th and Bond Sts.","city":"Evansville,IN","state":"IN","zip":"47708","longitude":"-87.586443","latitude":"37.993544","tags":"baked goods crafts flowers herbs vegetables honey jams meat plants poultry prepared-foods soap coffee fruits juices mushrooms wild"},{"type":"market","name":"Downtown Lawrenceburg Farmer's Market","website":"https://www.thinklawrenceburg.com/event/downtown-lawrenceburg-farmers-market-13/","facebook":"https://www.facebook.com/lawrenceburgfarmersmarket/?ref=br_rs","twitter":"","street":"US 50 and Park Streets","city":"Lawrenceburg","state":"IN","zip":"47025","longitude":"-84.857359","latitude":"39.095734","tags":"baked goods crafts flowers eggs herbs vegetables honey jams maple meat plants poultry prepared-foods soap coffee fruits wild"},{"type":"market","name":"Downtown Madison Farmers Market","website":"http://www.farmersmarketmadison.com","facebook":"https://www.facebook.com/madison.farmers.market/","twitter":"","street":"Broadway Street near the Broadway Fountain","city":"Madison","state":"IN","zip":"47250","longitude":"-85.382973","latitude":"38.738245","tags":"organic baked goods flowers eggs herbs vegetables honey jams meat nuts poultry prepared-foods soap trees beans fruits mushrooms pet food wild"},{"type":"market","name":"Farm to Fork Farmers Market at Normandy Farms","website":"","facebook":"Lineage the Market","twitter":"","street":"7802 Marsh Road","city":"Indianapolis","state":"IN","zip":"46278","longitude":"-86.274997","latitude":"39.894467","tags":"organic cheese eggs vegetables honey meat poultry soap coffee fruits"},{"type":"market","name":"Farmers Market at the Fairgrounds","website":"","facebook":"https://www.facebook.com/FarmersMarketAtTheFairgrounds","twitter":"https://twitter.com/AtTheFairground","street":"620 N Apple Street","city":"Greenfield","state":"IN","zip":"46140","longitude":"-85.756240","latitude":"39.791832","tags":"baked goods cheese crafts flowers eggs herbs vegetables honey jams maple meat plants poultry prepared-foods soap coffee fruits mushrooms pet food"},{"type":"market","name":"Fayette County Farmers' Market","website":"","facebook":"https://www.facebook.com/FayettecountyfarmersmarketIN/?ref=bookmarks","twitter":"","street":"401 N Central Ave","city":"Connersville","state":"IN","zip":"47331","longitude":"-85.139738","latitude":"39.641132","tags":"baked goods cheese crafts flowers eggs herbs vegetables honey jams maple meat plants poultry soap coffee fruits"},{"type":"market","name":"Floyd County Farmers Market (Floyds Knobs)","website":"","facebook":"","twitter":"","street":"400 Block Lafollette Station","city":"floyds knobs","state":"IN","zip":"47119","longitude":"-85.896109","latitude":"38.315002","tags":"baked goods cheese crafts flowers herbs vegetables honey jams maple meat plants coffee fruits pet food"},{"type":"market","name":"Fort Ben Farmers Market","website":"http://www.cityoflawrence.org/fortbenfarmersmarket","facebook":"https://www.facebook.com/FortBenFarmersMarket/","twitter":"","street":"","city":"Lawrence","state":"IN","zip":"","longitude":"-85.989646","latitude":"39.865956","tags":"organic baked goods crafts flowers eggs seafood vegetables honey jams maple meat plants poultry prepared-foods soap coffee fruits mushrooms tofu"},{"type":"market","name":"Franklin Farmers Market","website":"http://discoverdowntownfranklin.com","facebook":"https://www.facebook.com/DiscoverDowntownFranklin/","twitter":"","street":"Parking Lot 2 Blocks West of the Courthouse","city":"Franklin","state":"IN","zip":"46131","longitude":"-86.057680","latitude":"39.479799","tags":"organic baked goods cheese crafts flowers eggs herbs vegetables jams meat nuts plants poultry prepared-foods soap coffee fruits juices wild"},{"type":"market","name":"Franklin Street Bazaar","website":"","facebook":"https://www.facebook.com/Franklin-Street-Bazaar-2296932127209023/","twitter":"","street":"2000 W. Franklin Street","city":"Evansville","state":"IN","zip":"47710","longitude":"-87.594742","latitude":"37.980191","tags":"baked goods cheese crafts flowers eggs herbs vegetables jams maple meat plants poultry prepared-foods soap coffee fruits grains juices pet food wild"},{"type":"market","name":"Ft. Wayne's Farmers Market - Summer","website":"https://ftwaynesfarmersmarket.com/","facebook":"https://www.facebook.com/ftwaynesfm/","twitter":"https://twitter.com/FtWaynesFM","street":"301 E Wayne Street","city":"Fort Wayne","state":"IN","zip":"46802","longitude":"-85.136155","latitude":"41.078388","tags":"organic baked goods cheese crafts flowers eggs herbs vegetables honey maple meat plants poultry prepared-foods soap wine coffee fruits grains juices mushrooms pet food wild"},{"type":"market","name":"Ft. Wayne's Farmers Market-Winter Market","website":"https://ftwaynesfarmersmarket.com/","facebook":"https://www.facebook.com/ftwaynesfm/","twitter":"@FtwaynesFM","street":"216 W Douglas Ave","city":"FORT WAYNE","state":"IN","zip":"46802","longitude":"-85.140411","latitude":"41.074494","tags":"organic baked goods cheese crafts flowers eggs herbs vegetables honey jams maple meat plants poultry prepared-foods soap trees wine coffee fruits grains juices mushrooms pet food"},{"type":"market","name":"Fulton County Farmers Market","website":"","facebook":"","twitter":"","street":"","city":"Rochester","state":"IN","zip":"46975","longitude":"-86.2158331","latitude":"41.0647645","tags":"organic baked goods flowers eggs herbs vegetables honey jams meat nuts plants prepared-foods fruits"},{"type":"market","name":"Garfield Park Farmers Market","website":"","facebook":"https://www.facebook.com/GarfieldParkFarmersMarket/","twitter":"","street":"2345 Pagoda Dr","city":"Indianapolis","state":"IN","zip":"46225","longitude":"-86.141830","latitude":"39.731109","tags":"organic baked goods cheese crafts flowers eggs herbs vegetables honey jams maple meat nuts plants poultry prepared-foods soap trees coffee beans fruits grains juices mushrooms pet food tofu wild"},{"type":"market","name":"Gas City, IN Farmers Market ","website":"","facebook":"https://m.facebook.com/FarmersMarketsinGasCityIndiana/?ref=bookmarks","twitter":"","street":"1028 E Main Street","city":"Gas City","state":"IN","zip":"46933","longitude":"-85.598506","latitude":"40.489812","tags":"baked goods crafts flowers vegetables jams meat prepared-foods fruits"},{"type":"market","name":"Hardy’s Farm Market","website":"","facebook":"Hardy’s Farm Market","twitter":"","street":"4525 Knoll Rd","city":"Fort Wayne","state":"IN","zip":"46809","longitude":"-85.2011808","latitude":"41.0359345","tags":"baked goods crafts flowers eggs vegetables honey jams plants fruits"},{"type":"market","name":"Healthway Park Farmers Market","website":"","facebook":"https://www.facebook.com/HealthwayParkFarmersMarket","twitter":"","street":"4055 South Roy Wilson Way","city":"New Palestine","state":"IN","zip":"46163","longitude":"-85.917230","latitude":"39.726276","tags":"baked goods cheese flowers eggs herbs vegetables honey jams maple meat poultry soap coffee fruits pet food"},{"type":"market","name":"Historic Newburgh Farmers Market","website":"http://newburghfarmersmarket.org","facebook":"facebook.com/newburghfarmersmarket","twitter":"@marketnewburgh","street":"1 E Water St","city":"Newburgh","state":"IN","zip":"47630","longitude":"-87.405321","latitude":"37.944042","tags":"baked goods cheese crafts flowers eggs herbs vegetables honey jams meat plants poultry prepared-foods soap coffee fruits pet food"},{"type":"market","name":"Lebanon City Market","website":"","facebook":"www.facebook.com/lebanoncitymarket","twitter":"https://twitter.com/lebanoncitymkt","street":"309 S Lebanon St.","city":"Lebanon ","state":"IN","zip":"46052","longitude":"-86.4690470","latitude":"40.0456714","tags":"baked goods cheese crafts flowers eggs herbs vegetables honey jams maple plants poultry prepared-foods soap wine coffee fruits mushrooms"},{"type":"market","name":"Linton Farmers' Market","website":"http://www.lintonfarmersmarket.com","facebook":"@lintonfarmersmarket","twitter":"","street":"","city":"Linton","state":"IN","zip":"47441","longitude":"-87.149098","latitude":"39.039325","tags":"baked goods crafts flowers eggs herbs vegetables honey jams maple meat nuts plants poultry prepared-foods soap wine coffee fruits mushrooms wild"},{"type":"market","name":"Market of Life","website":"","facebook":"","twitter":"","street":"3510 W 15th Ave","city":"Gary","state":"IN","zip":"46404","longitude":"-87.344853","latitude":"41.595883","tags":"flowers eggs herbs vegetables jams plants"},{"type":"market","name":"Market on Main ","website":"http://www.marketonmainevv.com","facebook":"https://www.facebook.com/MarketonMainEVV/","twitter":"","street":"Ford Center Plaza 6th and Main St","city":"Evansville","state":"IN","zip":"47715","longitude":"-87.568349","latitude":"37.972884","tags":"baked goods cheese crafts flowers eggs vegetables honey jams meat poultry prepared-foods soap coffee fruits pet food"},{"type":"market","name":"Matthys Farm Market","website":"http://www.matthysfarmmarket.com","facebook":"Matthys Farm Market","twitter":"","street":"57754 Crumstown Hwy","city":"South Bend","state":"IN","zip":"46619","longitude":"-86.35873","latitude":"41.65516","tags":"crafts vegetables honey jams maple plants trees fruits pet food"},{"type":"market","name":"Miami County Farmers Market","website":"","facebook":"Miami County Farmers' Market","twitter":"","street":"North Broadway and East 5th Street","city":"Peru","state":"IN","zip":"46970","longitude":"-86.069521","latitude":"40.755229","tags":"baked goods crafts flowers eggs herbs vegetables honey plants soap fruits mushrooms"},{"type":"market","name":"Minnetrista Farmers Market","website":"https://minnetrista.net/home/things-to-do/farmers-market2/","facebook":"https://www.facebook.com/minnetrista","twitter":"","street":"1200 North Minnetrista Pkwy","city":"Muncie ","state":"IN","zip":"47303","longitude":"-85.393346","latitude":"40.198978","tags":"organic baked goods cheese crafts flowers eggs herbs vegetables honey jams maple meat plants poultry prepared-foods soap coffee fruits grains juices"},{"type":"market","name":"Morgan County Farmers' Market Association","website":"http://www.info@mcfarmers.org","facebook":"Morgan County Farmers Market","twitter":"","street":"Main St. & Indiana St.","city":"Martinsville ","state":"IN","zip":"46151","longitude":"-86.428695","latitude":"39.423392","tags":"baked goods cheese crafts flowers eggs herbs vegetables honey jams maple meat plants poultry prepared-foods soap trees coffee fruits grains"},{"type":"market","name":"Morgan County Farmers' Market Association","website":"http://www.info@mcfarmers.org","facebook":"Morgan County Farmers Market","twitter":"","street":"Monroe & Main St.","city":"Mooresville ","state":"IN","zip":"46158","longitude":"-86.3796098","latitude":"39.6128060","tags":"baked goods cheese crafts flowers eggs herbs vegetables honey jams maple meat plants poultry prepared-foods soap coffee fruits grains pet food"},{"type":"market","name":"Morgan County Winter Farmers' Market Association","website":"http://www.info@mcfarmers.org","facebook":"Morgan County Farmers Market","twitter":"","street":"240 E Washington St.","city":"Martinsville","state":"IN","zip":"46151","longitude":"-86.420904","latitude":"39.422141","tags":"baked goods crafts eggs herbs vegetables honey jams maple meat poultry prepared-foods soap coffee grains pet food"},{"type":"market","name":"Muncie Makers Market ","website":"","facebook":"https://www.facebook.com/groups/1627047027524961/","twitter":"","street":"Outside at Books & Brews, 2100 West White River Boulevard","city":"Muncie","state":"IN","zip":"47303","longitude":"-85.4106750","latitude":"40.1883942","tags":"organic baked goods crafts flowers eggs herbs vegetables honey jams plants prepared-foods soap trees coffee fruits mushrooms pet food"},{"type":"market","name":"Owen County Farmers Market","website":"https://owencountyfarmersmarket.com/","facebook":"https://www.facebook.com/owencountyfarmersmarket","twitter":"","street":"459 W. Morgan Street (SR46)","city":"Spencer","state":"IN","zip":"47460","longitude":"-86.769484","latitude":"39.286121","tags":"organic baked goods crafts flowers eggs herbs vegetables honey jams maple plants poultry prepared-foods soap fruits mushrooms pet food wild"},{"type":"market","name":"Plymouth Farmers Market","website":"http://www.plymouthfarmersmarket.com","facebook":"https://www.facebook.com/pages/Plymouth-Farmers-Market-Inc/136145306459265","twitter":"","street":"Garro St.","city":"Plymouth","state":"IN","zip":"46563","longitude":"-86.307641","latitude":"41.340650","tags":"organic baked goods cheese flowers eggs herbs vegetables honey jams maple meat plants poultry soap trees fruits"},{"type":"market","name":"Rensselaer Farmers Market","website":"","facebook":"https://www.facebook.com/pages/Rensselaer-Farmers-Market/120400308005878","twitter":"","street":"110 W Harrison St.","city":"Rensselaer","state":"IN","zip":"47978","longitude":"-87.1501069","latitude":"40.9356403","tags":"baked goods crafts flowers eggs herbs vegetables honey jams meat plants prepared-foods soap coffee fruits"},{"type":"market","name":"Richmond Farmers Market - Summer Season (May-October)","website":"https://www.richmondindiana.gov/resources/farmers-market","facebook":"https://www.facebook.com/RichmondFarmersMarketIN/","twitter":"","street":"47 N 6th St","city":"Richmond","state":"IN","zip":"47374","longitude":"-84.893377","latitude":"39.829996","tags":"baked goods cheese crafts flowers eggs herbs vegetables honey jams maple meat plants poultry prepared-foods soap coffee fruits pet food"},{"type":"market","name":"Richmond Winter Farmers Market - Winter Season (November - April)","website":"https://www.richmondindiana.gov/resources/farmers-market","facebook":"https://www.facebook.com/RichmondFarmersMarketIN/","twitter":"","street":"204 S Second St","city":"Richmond","state":"IN","zip":"47374","longitude":"-84.900398","latitude":"39.825813","tags":"baked goods cheese crafts flowers eggs vegetables honey jams maple meat poultry soap coffee beans mushrooms pet food wild"},{"type":"market","name":"Riverside Farmers Market","website":"","facebook":"","twitter":"","street":"2800 Riverside Drive","city":"indianapolis","state":"IN","zip":"46208","longitude":"-86.192041","latitude":"39.806671","tags":"baked goods cheese flowers vegetables jams plants soap fruits"},{"type":"market","name":"Roanoke Farmer's Market","website":"http://discoverroanoke.org/events/farmers-market","facebook":"https://www.facebook.com/RoanokeFarmersMarket/","twitter":"","street":"Main Street","city":"Roanoke","state":"IN","zip":"46783","longitude":"-85.373322","latitude":"40.961979","tags":"baked goods crafts flowers vegetables meat plants prepared-foods soap coffee"},{"type":"market","name":"Russiaville Farmers Market","website":"","facebook":"https://www.facebook.com/RussiavilleFM","twitter":"","street":"250 N Union St","city":"Russiaville","state":"IN","zip":"46979","longitude":"-86.270804","latitude":"40.419151","tags":"baked goods crafts flowers eggs herbs vegetables honey jams meat plants prepared-foods soap fruits pet food"},{"type":"market","name":"Salomon Farm Park Farmers' Market ","website":"http://www.fortwayneparks.org","facebook":"https://www.facebook.com/Salomon-Farm-Park-134187289927760/","twitter":"","street":"817 West Dupont Road","city":"Fort Wayne","state":"IN","zip":"46825","longitude":"-85.152678","latitude":"41.175641","tags":"organic baked goods crafts flowers eggs herbs vegetables honey jams maple poultry coffee fruits"},{"type":"market","name":"Shelby County Farmers Market","website":"https://www.mainstreetshelbyville.org/mainstreet-farmers-market/","facebook":"https://www.facebook.com/shelbycofarmersmarket","twitter":"","street":"151 W Washington Street","city":"SHELBYVILLE","state":"IN","zip":"46176","longitude":"-85.780478","latitude":"39.524220","tags":"baked goods crafts eggs vegetables honey jams meat plants prepared-foods soap coffee fruits juices"},{"type":"market","name":"Speedway Farmers Market","website":"","facebook":"Speedway Farmers Market","twitter":"","street":"1068 Main Street","city":"Speedway","state":"IN","zip":"46224","longitude":"-86.247542","latitude":"39.793698","tags":"organic baked goods cheese crafts flowers eggs herbs vegetables honey jams maple meat plants poultry prepared-foods soap coffee fruits juices mushrooms wild"},{"type":"market","name":"Terre Haute Farmers Market","website":"http://www.terrehautefarmersmarket.com","facebook":"https://www.facebook.com/Terrehautedowntownfarmersmarket","twitter":"","street":"2800 Poplar Street","city":"Terre Haute","state":"IN","zip":"47803","longitude":"-87.376070","latitude":"39.464145","tags":"organic baked goods cheese crafts flowers eggs herbs vegetables honey jams maple meat nuts plants poultry prepared-foods soap trees coffee beans fruits grains juices mushrooms pet food wild"},{"type":"market","name":"The People’s Market","website":"http://www.peoplesmarketbtown.org","facebook":"The People’s Market","twitter":"","street":"3220 E 3rd St.","city":"Bloomington ","state":"IN","zip":"47403","longitude":"-86.491053","latitude":"39.164192","tags":"baked goods cheese crafts flowers eggs herbs vegetables honey jams meat plants poultry soap coffee beans fruits mushrooms"},{"type":"market","name":"Tuesday Market at Bloomington Community Farmers Market","website":"http://bloomington.in.gov/farmersmarket","facebook":"https://www.facebook.com/pages/Bloomington-Community-Farmers-Market/130635957114110","twitter":"","street":"6th and Madison Streets ","city":"Bloomington","state":"IN","zip":"47404","longitude":"-86.537883","latitude":"39.167687","tags":"organic baked goods cheese crafts flowers eggs seafood herbs vegetables honey jams maple meat nuts plants poultry prepared-foods soap trees coffee beans fruits grains pet food wild"},{"type":"market","name":"Vincennes Historic Farmers Market","website":"http://www.vincennes.org","facebook":"Vincennes Historic Farmers Market","twitter":"","street":"102 N. Second St.","city":"Vincennes","state":"IN","zip":"47591","longitude":"-87.531359","latitude":"38.680610","tags":"baked goods cheese crafts flowers eggs seafood herbs vegetables honey jams maple meat plants prepared-foods soap trees coffee fruits grains mushrooms wild"},{"type":"market","name":"West Lafayette Farmers Market","website":"http://wlfarmersmarket.com/","facebook":"www.facebook.com/westlafayettefarmersmarket","twitter":"@WLFarmersMkt","street":"3065 N Salisbury St","city":"West Lafayette","state":"IN","zip":"47906","longitude":"-86.915836","latitude":"40.461469","tags":"organic baked goods cheese crafts flowers eggs herbs vegetables honey jams maple meat nuts plants poultry prepared-foods soap wine coffee beans fruits grains juices mushrooms pet food wild"},{"type":"market","name":"Winchester Farmers' Market","website":"https://winchesterinfarmersmarket.blogspot.com/","facebook":"WinchesterMainStreet","twitter":"","street":"Meridian & Washington St.","city":"Winchester ","state":"IN","zip":"47394","longitude":"-84.977051","latitude":"40.1721","tags":"organic baked goods crafts flowers eggs herbs vegetables honey nuts plants prepared-foods soap trees fruits juices"},{"type":"market","name":"Woolery Farmers' Market","website":"https://bloomingtonwinterfarmersmarket.com/bwfm-in-the-summer/about/","facebook":"https://www.facebook.com/wooleryfarmersmarket/","twitter":"","street":"2250 W Sunstone Dr","city":"Bloomington","state":"IN","zip":"47403","longitude":"-86.559788","latitude":"39.138753","tags":"organic baked goods cheese flowers eggs seafood herbs vegetables honey jams maple meat poultry soap coffee beans fruits grains mushrooms wild"},{"type":"market","name":"Yorktown Farmers Marketplace","website":"","facebook":"https://www.facebook.com/yorktownfarmersmarketplace","twitter":"","street":"1901 South Tiger Drive","city":"Yorktown","state":"IN","zip":"47396","longitude":"-85.495124","latitude":"40.177147","tags":"baked goods crafts flowers eggs vegetables honey jams meat nuts plants prepared-foods soap coffee fruits juices mushrooms"}]
