[{"Type":"farmers market","ModifyDate":"Jun 15th, 2021","Image":"default-farmersmarket-4-3.jpg","ListingID":"301536","Name":"Burke Area Farmers Market","Description":null,"ContactName":"Kelsea Sutton","ContactEmail":"burkeareafarmersmarket@gmail.com","ContactPhone":"6058305039","Website":"www.burkeareafarmersmarket.com","Facebook":"Burke Area Farmers Market","Twitter":null,"Instagram":null,"Pinterest":null,"Youtube":null,"Blog":null,"Address":"626 County Road, Burke, South Dakota 57523","State":"South Dakota","City":"Burke","Street":"626 County Road","Zip":"57523","Longitude":"-99.299066","Latitude":"43.185042","Dates":"July to September","Products":"Fresh fruits, Fresh vegetables, Baked goods, Canned or preserved fruits\/vegetables, Coffee\/tea, Crafts\/woodworking items, Cut flowers, Eggs, Fresh\/dried herbs, Honey, Poultry\/fowl meat and products, Prepared foods, Red\/other non-poultry meat and products, Soap\/body care products"},{"Type":"farmers market","ModifyDate":"Mar 27th, 2023","Image":"default-farmersmarket-4-3.jpg","ListingID":"312741","Name":"Aberdeen Farmers' Market","Description":null,"ContactName":null,"ContactEmail":"aberdeenfarmersmarket@yahoo.com","ContactPhone":"605-225-9704","Website":"http:\/\/www.aberdeendowntown.org\/index.aspx?nid=249","Facebook":"https:\/\/www.facebook.com\/pages\/Aberdeen-Farmers-Market\/328864940497596","Twitter":null,"Instagram":null,"Pinterest":null,"Youtube":null,"Blog":null,"Address":"315 2nd Ave. SE, Central Park, Aberdeen, SD, 57401","State":"South Dakota","City":"Aberdeen","Street":"315 2nd Ave. SE","Zip":"57401","Longitude":"-98.48330727510057","Latitude":"45.46309463092055","Dates":null,"Products":""},{"Type":"farmers market","ModifyDate":"Mar 27th, 2023","Image":"default-farmersmarket-4-3.jpg","ListingID":"312742","Name":"Black Hills Farmers Market","Description":null,"ContactName":null,"ContactEmail":null,"ContactPhone":"605-646-0976","Website":"http:\/\/www.blackhillsfarmersmarket.org\/","Facebook":"http:\/\/www.facebook.com\/Blackhillsfarmersmarket","Twitter":null,"Instagram":null,"Pinterest":null,"Youtube":null,"Blog":null,"Address":"245 East Omaha St Rapid City, SD 57701","State":"South Dakota","City":"RAPID CITY","Street":"245 E OMAHA ST","Zip":"57701","Longitude":"-103.20879799647663","Latitude":"44.08143717473823","Dates":null,"Products":""},{"Type":"farmers market","ModifyDate":"Mar 27th, 2023","Image":"default-farmersmarket-4-3.jpg","ListingID":"312743","Name":"Brookings Farmers' Market","Description":null,"ContactName":null,"ContactEmail":null,"ContactPhone":"605-690-4364","Website":"http:\/\/www.brookingsfarmersmarket.com\/","Facebook":"https:\/\/www.facebook.com\/Brookings-Farmers-Market-117737541579595\/","Twitter":null,"Instagram":null,"Pinterest":null,"Youtube":null,"Blog":null,"Address":"320 6th St., Brookings, SD, 57006","State":"South Dakota","City":"Brookings","Street":"320 6th St.","Zip":"57006","Longitude":"-96.79988361868924","Latitude":"44.31150449410911","Dates":null,"Products":""},{"Type":"farmers market","ModifyDate":"Mar 27th, 2023","Image":"default-farmersmarket-4-3.jpg","ListingID":"312744","Name":"Callaway's Farmers Market","Description":null,"ContactName":null,"ContactEmail":null,"ContactPhone":"712-472-3347","Website":"http:\/\/callawaysfarmersmarket.com","Facebook":null,"Twitter":null,"Instagram":null,"Pinterest":null,"Youtube":null,"Blog":null,"Address":"500 East 69th Street Sioux Falls, SD 57108","State":"South Dakota","City":"SIOUX FALLS","Street":"500 W 69TH ST","Zip":"57108","Longitude":"-96.73326210096177","Latitude":"43.489592697225504","Dates":null,"Products":""},{"Type":"farmers market","ModifyDate":"Mar 27th, 2023","Image":"default-farmersmarket-4-3.jpg","ListingID":"312745","Name":"Country Farmers' Market","Description":null,"ContactName":null,"ContactEmail":"springerridge@yahoo.com","ContactPhone":"605-769-0269","Website":"http:\/\/www.countrymarketpierre.com\/","Facebook":"https:\/\/www.facebook.com\/countryfarmersmarket","Twitter":null,"Instagram":null,"Pinterest":null,"Youtube":null,"Blog":null,"Address":"1615 N. Harrison Ave., At Pierre Mall Upper Deck Parking Lot, Pierre, SD, 57501","State":"South Dakota","City":"Pierre","Street":"1615 N. Harrison Ave.","Zip":"57501","Longitude":"-100.31758758747443","Latitude":"44.37774003896799","Dates":null,"Products":""},{"Type":"farmers market","ModifyDate":"Mar 27th, 2023","Image":"default-farmersmarket-4-3.jpg","ListingID":"312746","Name":"Deadwood Street Market","Description":null,"ContactName":null,"ContactEmail":null,"ContactPhone":null,"Website":"http:\/\/deadwoodstreetmarket.com","Facebook":null,"Twitter":null,"Instagram":null,"Pinterest":null,"Youtube":null,"Blog":null,"Address":"71 Sherman Street Deadwood, SD 57732","State":"South Dakota","City":"DEADWOOD","Street":"71 SHERMAN ST","Zip":"57732","Longitude":"-103.72905902642471","Latitude":"44.37481347854722","Dates":null,"Products":""},{"Type":"farmers market","ModifyDate":"Mar 27th, 2023","Image":"default-farmersmarket-4-3.jpg","ListingID":"312747","Name":"Elk Point Farmers' Market","Description":null,"ContactName":null,"ContactEmail":"jammerthal@gmail.com","ContactPhone":"605-356-3180","Website":null,"Facebook":null,"Twitter":null,"Instagram":null,"Pinterest":null,"Youtube":null,"Blog":null,"Address":"106 W. Pleasant St., Elk Point, SD, 57025","State":"South Dakota","City":"Elk Point","Street":"106 W. Pleasant St.","Zip":"57025","Longitude":"-96.68423065242563","Latitude":"42.687187460026635","Dates":null,"Products":""},{"Type":"farmers market","ModifyDate":"Mar 27th, 2023","Image":"default-farmersmarket-4-3.jpg","ListingID":"312748","Name":"Freeman Farmers' Market","Description":null,"ContactName":null,"ContactEmail":"bobw@gwte.net","ContactPhone":"605-925-7135","Website":null,"Facebook":null,"Twitter":null,"Instagram":null,"Pinterest":null,"Youtube":null,"Blog":null,"Address":"748 S. Main St., Parking Lot of Pioneer Hall at Freeman Academy, Freeman, SD, 57029","State":"South Dakota","City":"Freeman","Street":"748 S. Main St.","Zip":"57029","Longitude":"-97.43729884191256","Latitude":"43.34765160081549","Dates":null,"Products":""},{"Type":"farmers market","ModifyDate":"Mar 27th, 2023","Image":"default-farmersmarket-4-3.jpg","ListingID":"312749","Name":"Gages Gardens & Greenhouses Farmers Market","Description":null,"ContactName":null,"ContactEmail":null,"ContactPhone":"605-642-5438","Website":null,"Facebook":null,"Twitter":null,"Instagram":null,"Pinterest":null,"Youtube":null,"Blog":null,"Address":"379 Evans Lane Spearfish, SD 57783","State":"South Dakota","City":"SPEARFISH","Street":"379 EVANS LN","Zip":"57783","Longitude":"-103.86993177686269","Latitude":"44.5167375304399","Dates":null,"Products":""},{"Type":"farmers market","ModifyDate":"Mar 27th, 2023","Image":"default-farmersmarket-4-3.jpg","ListingID":"312750","Name":"Huron Farmers' Market","Description":null,"ContactName":null,"ContactEmail":"huronfarmersmarket@gmail.com","ContactPhone":"352-5574x605","Website":null,"Facebook":"www.facebook.com\/Huron-Farmers-Market-162801030450226","Twitter":null,"Instagram":null,"Pinterest":null,"Youtube":null,"Blog":null,"Address":"1110 3rd St. SW, Huron, SD, 57350","State":"South Dakota","City":"Huron","Street":"1110 3rd St. SW","Zip":"57350","Longitude":"-98.23273606232355","Latitude":"44.36330813850614","Dates":null,"Products":""},{"Type":"farmers market","ModifyDate":"Mar 27th, 2023","Image":"default-farmersmarket-4-3.jpg","ListingID":"312751","Name":"Hyde County Farmers' Market","Description":null,"ContactName":null,"ContactEmail":null,"ContactPhone":"605-852-2254","Website":null,"Facebook":null,"Twitter":null,"Instagram":null,"Pinterest":null,"Youtube":null,"Blog":null,"Address":"34175 205th St., Highmore, SD, 57345","State":"South Dakota","City":"Highmore","Street":"34175 205th St.","Zip":"57345","Longitude":"-99.34273272547625","Latitude":"44.4119813780739","Dates":null,"Products":""},{"Type":"farmers market","ModifyDate":"Mar 27th, 2023","Image":"default-farmersmarket-4-3.jpg","ListingID":"312752","Name":"Madison Farmers' Market","Description":null,"ContactName":null,"ContactEmail":null,"ContactPhone":"605-651-3624","Website":null,"Facebook":null,"Twitter":null,"Instagram":null,"Pinterest":null,"Youtube":null,"Blog":null,"Address":"208 Center St. E., Madison Public Library, Madison, SD, 57042","State":"South Dakota","City":"Madison","Street":"208 Center St. E.","Zip":"57042","Longitude":"-97.11558530069479","Latitude":"44.00506062927794","Dates":null,"Products":""},{"Type":"farmers market","ModifyDate":"Mar 27th, 2023","Image":"default-farmersmarket-4-3.jpg","ListingID":"312753","Name":"Sioux Empire Farmers' Market","Description":null,"ContactName":null,"ContactEmail":"siouxempiremarket@yahoo.com","ContactPhone":"605-651-3624","Website":"http:\/\/www.siouxempirefarmersmarket.com","Facebook":"https:\/\/www.facebook.com\/Sioux-Empire-Farmers-Market-208744942655","Twitter":null,"Instagram":null,"Pinterest":null,"Youtube":null,"Blog":null,"Address":"401 E. 8th St., Sioux Falls, SD, 57103","State":"South Dakota","City":"Sioux Falls","Street":"401 E. 8th St.","Zip":"57103","Longitude":"-96.72291188189634","Latitude":"43.54862405425529","Dates":null,"Products":""},{"Type":"farmers market","ModifyDate":"Mar 27th, 2023","Image":"default-farmersmarket-4-3.jpg","ListingID":"312754","Name":"The Prairie Farmers' Market","Description":null,"ContactName":null,"ContactEmail":"theprairiefarmersmarket@gmail.com","ContactPhone":null,"Website":"http:\/\/theprairiefarmersmarket.com\/","Facebook":"https:\/\/www.facebook.com\/theprairiefarmersmarket","Twitter":null,"Instagram":null,"Pinterest":null,"Youtube":null,"Blog":null,"Address":"300 N. Cherapa Pl., Cherapa Place, Sioux Falls, SD, 57103","State":"South Dakota","City":"Sioux Falls","Street":"300 N. Cherapa Pl.","Zip":"57103","Longitude":"-96.7238530692717","Latitude":"43.54911628163366","Dates":null,"Products":""},{"Type":"farmers market","ModifyDate":"Mar 27th, 2023","Image":"default-farmersmarket-4-3.jpg","ListingID":"312755","Name":"Watertown Farmers' Market","Description":null,"ContactName":null,"ContactEmail":null,"ContactPhone":"605-882-8900","Website":null,"Facebook":"https:\/\/www.facebook.com\/Farmers-Market-Watertown-SD-312755785472162","Twitter":null,"Instagram":null,"Pinterest":null,"Youtube":null,"Blog":null,"Address":"1701 9th Ave. SE, Watertown, SD, 57201","State":"South Dakota","City":"Watertown","Street":"1701 9th Ave. SE","Zip":"57201","Longitude":"-97.09305708063359","Latitude":"44.890063709297905","Dates":null,"Products":""},{"Type":"on-farm market","ModifyDate":"Aug 1st, 2014","Image":"default-onfarmmarket-4-3.jpg","ListingID":"700057","Name":"Purity Seeds","Description":null,"ContactName":"Wanda Bethke","ContactEmail":"puritysd@itctel.com","ContactPhone":"605-532-7333","Website":"www.purityseedsUSA.com","Facebook":"https:\/\/www.facebook.com\/purityseeds","Twitter":null,"Instagram":null,"Pinterest":null,"Youtube":null,"Blog":null,"Address":"41247 178th St, Raymond, South Dakota 57258","State":"South Dakota","City":"Raymond","Street":"41247 178th St","Zip":"57258","Longitude":"-97.964041","Latitude":"44.828767","Dates":null,"Products":""},{"Type":"on-farm market","ModifyDate":"Dec 19th, 2016","Image":"default-onfarmmarket-4-3.jpg","ListingID":"701379","Name":"Sunset Gardens, LLC","Description":null,"ContactName":"Beverly Lamers","ContactEmail":"sunsetgardens2013@gmail.com","ContactPhone":"605-742-4174","Website":null,"Facebook":null,"Twitter":null,"Instagram":null,"Pinterest":null,"Youtube":null,"Blog":null,"Address":"12871 467th Ave, Browns  Valley, South Dakota 56219","State":"South Dakota","City":"Browns  Valley","Street":"12871 467th Ave","Zip":"56219","Longitude":"-96.861851","Latitude":"45.518557","Dates":null,"Products":""},{"Type":"on-farm market","ModifyDate":"Jan 31st, 2020","Image":"default-onfarmmarket-4-3.jpg","ListingID":"701500","Name":"Haroldson Farms","Description":null,"ContactName":"Kyle Haroldson","ContactEmail":"kyle@haroldsonfarms.com","ContactPhone":"832-942-2820","Website":"https:\/\/hardsonfarms.com\/","Facebook":"https:\/\/www.facebook.com\/HaroldsonFarms\/","Twitter":null,"Instagram":null,"Pinterest":null,"Youtube":null,"Blog":null,"Address":"20044 464th Ave., Bruce, South Dakota 57220","State":"South Dakota","City":"Bruce","Street":"20044 464th Ave.","Zip":"57220","Longitude":"-96.889634","Latitude":"44.437716","Dates":null,"Products":""},{"Type":"on-farm market","ModifyDate":"Jul 26th, 2014","Image":"default-onfarmmarket-4-3.jpg","ListingID":"700479","Name":"Springerridge","Description":null,"ContactName":"Terry Lehmkuhl","ContactEmail":"springerridge@yahoo.com","ContactPhone":"605-769-0269","Website":"www.facebook.com\/Springerridge%20Barnyard%20Products","Facebook":"https:\/\/www.facebook.com\/pages\/Springerridge-Barnyard-Products\/139944099427072","Twitter":null,"Instagram":null,"Pinterest":null,"Youtube":null,"Blog":"www.countrymarketpierre.com","Address":"8 Miles SW, Gettysburg, South Dakota 57442","State":"South Dakota","City":"Gettysburg","Street":"8 Miles SW","Zip":"57442","Longitude":"-100.02100","Latitude":"44.940829","Dates":null,"Products":""},{"Type":"on-farm market","ModifyDate":"Jul 4th, 2018","Image":"default-onfarmmarket-4-3.jpg","ListingID":"701455","Name":"Better Roots Farm, LLC","Description":null,"ContactName":"Vaughn Reints","ContactEmail":"contactus@betterrootsfarm.com","ContactPhone":"6053605792","Website":"www.betterrootsfarm.com","Facebook":"https:\/\/www.facebook.com\/betterrootsfarm\/","Twitter":null,"Instagram":null,"Pinterest":null,"Youtube":null,"Blog":null,"Address":"41885 130th St., Pierpont, South Dakota 57468","State":"South Dakota","City":"Pierpont","Street":"41885 130th St.","Zip":"57468","Longitude":"-97.840340","Latitude":"45.500131","Dates":null,"Products":""},{"Type":"on-farm market","ModifyDate":"Nov 27th, 2014","Image":"default-onfarmmarket-4-3.jpg","ListingID":"700448","Name":"Ufford Hills Pumpkin Patch and Corn Maze","Description":null,"ContactName":"Alex Ufford","ContactEmail":"uffordhills@hotmail.com","ContactPhone":"605-677-8775","Website":"uffordhills.net","Facebook":"Uffordhills","Twitter":null,"Instagram":null,"Pinterest":null,"Youtube":null,"Blog":null,"Address":"3691 East Main Street, Vermillion, South Dakota 57069","State":"South Dakota","City":"Vermillion","Street":"3691 East Main Street","Zip":"57069","Longitude":"-96.877792","Latitude":"42.779161","Dates":null,"Products":""},{"Type":"on-farm market","ModifyDate":"Oct 28th, 2016","Image":"default-onfarmmarket-4-3.jpg","ListingID":"701374","Name":"Fruit of the Coop","Description":null,"ContactName":"Stephanie Peterson","ContactEmail":"s.peterson@fruitofthecoop.com","ContactPhone":"605-366-1219","Website":"www.fruitofthecoop.com","Facebook":"www.facebook.com\/fruitofthecoop","Twitter":null,"Instagram":null,"Pinterest":null,"Youtube":null,"Blog":null,"Address":"8700 E Sunset Circle, Brandon, South Dakota 57005","State":"South Dakota","City":"Brandon","Street":"8700 E Sunset Circle","Zip":"57005","Longitude":"-96.618427","Latitude":"43.578181","Dates":null,"Products":""},{"Type":"on-farm market","ModifyDate":"Sep 16th, 2014","Image":"default-onfarmmarket-4-3.jpg","ListingID":"700432","Name":"Berrybrook Organics & U-Pick","Description":null,"ContactName":"Sherilyn Ortman","ContactEmail":"sherilynortman@gmail.com","ContactPhone":"605-925-7038","Website":"www.berrybrookorganics.com","Facebook":"https:\/\/www.facebook.com\/pages\/Berrybrook-Organics\/576031785742694","Twitter":null,"Instagram":null,"Pinterest":null,"Youtube":null,"Blog":null,"Address":"44578 280th Street, Marion, South Dakota 57043","State":"South Dakota","City":"Marion","Street":"44578 280th Street","Zip":"57043","Longitude":"-97.284107","Latitude":"43.3287083","Dates":null,"Products":""}]