[{"Type":"on-farm market","ModifyDate":"Apr 13th, 2019","Image":"default-onfarmmarket-4-3.jpg","ListingID":"701476","Name":"Boru Farms","Description":null,"ContactName":"Jeanne Radke","ContactEmail":"naimhe1@gmail.com","ContactPhone":"8152919766","Website":"naimhe8.wix.com\/borufarm","Facebook":null,"Twitter":null,"Instagram":null,"Pinterest":null,"Youtube":null,"Blog":null,"Address":"8225 Rte 26 N, Freeport, Illinois 61032","State":"Illinois","City":"Freeport","Street":"8225 Rte 26 N","Zip":"61032","Longitude":"-89.634796","Latitude":"42.420707","Dates":null,"Products":""},{"Type":"on-farm market","ModifyDate":"Apr 22nd, 2020","Image":"default-onfarmmarket-4-3.jpg","ListingID":"701518","Name":"AMERICAN INDIAN Jone's Applebee's Farming Conglomerate","Description":null,"ContactName":"Jim Brown","ContactEmail":"JBrown1979@yahoo.com","ContactPhone":"202-735-8300","Website":null,"Facebook":null,"Twitter":null,"Instagram":null,"Pinterest":null,"Youtube":null,"Blog":null,"Address":"5555 Main Street , Chicago , Illinois 60448","State":"Illinois","City":"Chicago","Street":"5555 Main Street","Zip":"60448","Longitude":"-87.681844","Latitude":"41.837551","Dates":null,"Products":""},{"Type":"on-farm market","ModifyDate":"Apr 23rd, 2022","Image":"onfarmmarket_701636_12482_20220424021341.png","ListingID":"701636","Name":"Dugosh Farms","Description":null,"ContactName":"CurtDugosh","ContactEmail":"dugoshfarms@gmail.com","ContactPhone":"815-878-2381","Website":null,"Facebook":"https:\/\/www.facebook.com\/DugoshFarms1966","Twitter":null,"Instagram":null,"Pinterest":null,"Youtube":null,"Blog":null,"Address":"1149 1950 East Street, Tiskilwa, Illinois 61368","State":"Illinois","City":"Tiskilwa","Street":"1149 1950 East Street","Zip":"61368","Longitude":"-89.478628","Latitude":"41.313412","Dates":null,"Products":""},{"Type":"on-farm market","ModifyDate":"Apr 28th, 2016","Image":"default-onfarmmarket-4-3.jpg","ListingID":"701332","Name":"Gail's Pumpkin Patch","Description":null,"ContactName":"Gail Apel-Sasse","ContactEmail":"gail@gailspumpkinpatch.com","ContactPhone":"217-447-3409","Website":"www.gailspumpkinpatch.com","Facebook":"Gail\\'s Pumpkin Patch","Twitter":null,"Instagram":null,"Pinterest":null,"Youtube":null,"Blog":null,"Address":"1709 2000th Avenue, Beason, Illinois 62512","State":"Illinois","City":"Beason","Street":"1709 2000th Avenue","Zip":"62512","Longitude":"-89.222534","Latitude":"40.1649484","Dates":null,"Products":""},{"Type":"on-farm market","ModifyDate":"Apr 5th, 2017","Image":"default-onfarmmarket-4-3.jpg","ListingID":"701401","Name":"Willies Honey Company","Description":null,"ContactName":"Wil Pilipauskas","ContactEmail":"Wpilipauskas@gmail.com","ContactPhone":"1-847-373-9148","Website":"www.willieshoneyco.com","Facebook":"www.facebook.com\/willieshoneycompany","Twitter":null,"Instagram":null,"Pinterest":null,"Youtube":null,"Blog":null,"Address":", Mchenry, Illinois 60050","State":"Illinois","City":"Mchenry","Street":null,"Zip":"60050","Longitude":"-88.266753","Latitude":"42.3333550","Dates":null,"Products":""},{"Type":"on-farm market","ModifyDate":"Aug 13th, 2014","Image":"default-onfarmmarket-4-3.jpg","ListingID":"700221","Name":"Stone Home Farm","Description":null,"ContactName":"Jane Biddle","ContactEmail":"stonehomefarm@gmail.com","ContactPhone":"815-440-5556","Website":"www.stonehomefarm.com","Facebook":null,"Twitter":null,"Instagram":null,"Pinterest":null,"Youtube":null,"Blog":null,"Address":"1125 Inlet Road, Lee Center, Illinois 61331","State":"Illinois","City":"Lee Center","Street":"1125 Inlet Road","Zip":"61331","Longitude":"-89.276791","Latitude":"41.749031","Dates":null,"Products":""},{"Type":"on-farm market","ModifyDate":"Aug 13th, 2014","Image":"default-onfarmmarket-4-3.jpg","ListingID":"700339","Name":"Mulberry Lane Farm","Description":null,"ContactName":"Helen Aardsma","ContactEmail":"helen@mulberrylanefarm.com","ContactPhone":"217-386-2690","Website":"www.MulberryLaneFarm.com","Facebook":null,"Twitter":null,"Instagram":null,"Pinterest":null,"Youtube":null,"Blog":"http:\/\/www.mulberrylanefarm.com\/journal\/index.php","Address":"414 N. Mulberry, Loda, Illinois 60948","State":"Illinois","City":"Loda","Street":"414 N. Mulberry","Zip":"60948","Longitude":"-88.074761","Latitude":"40.524431","Dates":null,"Products":""},{"Type":"on-farm market","ModifyDate":"Aug 17th, 2016","Image":"default-onfarmmarket-4-3.jpg","ListingID":"701368","Name":"L&A Family Farms","Description":null,"ContactName":"Brian Lau","ContactEmail":"lafamilyfarms@gmail.com","ContactPhone":"2172753491","Website":"www.lafamilyfarms.com","Facebook":"https:\/\/www.facebook.com\/LAFamilyFarms","Twitter":"https:\/\/twitter.com\/LAFamilyFarms","Instagram":null,"Pinterest":null,"Youtube":null,"Blog":null,"Address":"21661 Staley Rd, Paris, Illinois 61944","State":"Illinois","City":"Paris","Street":"21661 Staley Rd","Zip":"61944","Longitude":"-87.561520","Latitude":"39.512282","Dates":null,"Products":""},{"Type":"on-farm market","ModifyDate":"Aug 1st, 2014","Image":"default-onfarmmarket-4-3.jpg","ListingID":"700782","Name":"Country Pond Gardens","Description":null,"ContactName":"Andy Anderson","ContactEmail":"garden.countryponds@gmail.com","ContactPhone":"815-495-9200","Website":null,"Facebook":"https:\/\/www.facebook.com\/CountryPondGardens","Twitter":null,"Instagram":null,"Pinterest":null,"Youtube":null,"Blog":null,"Address":"2190 North 45th Road, Leland, Illinois 60531","State":"Illinois","City":"Leland","Street":"2190 North 45th Road","Zip":"60531","Longitude":"-88.752615","Latitude":"41.587240","Dates":null,"Products":""},{"Type":"on-farm market","ModifyDate":"Aug 21st, 2014","Image":"default-onfarmmarket-4-3.jpg","ListingID":"700869","Name":"Lazy J Ranch","Description":null,"ContactName":"Marianne Jackson","ContactEmail":"marianne.jackson@usbank.com","ContactPhone":"2177250414","Website":null,"Facebook":"https:\/\/www.facebook.com\/pages\/Lazy-J-Ranch-Rochester-IL\/170348153012473","Twitter":null,"Instagram":null,"Pinterest":null,"Youtube":null,"Blog":null,"Address":"9000 Cascade Road, Rochester, Illinois 62563","State":"Illinois","City":"Rochester","Street":"9000 Cascade Road","Zip":"62563","Longitude":"-89.491729","Latitude":"39.6698487","Dates":null,"Products":""},{"Type":"on-farm market","ModifyDate":"Aug 22nd, 2014","Image":"default-onfarmmarket-4-3.jpg","ListingID":"700882","Name":"Wolfe Orchard","Description":null,"ContactName":"RONALD WOLFE","ContactEmail":"RWOLFE1199@AOL.COM","ContactPhone":"217-762-8029","Website":null,"Facebook":"https:\/\/www.facebook.com\/pages\/Wolfe-orchard\/199022633503818","Twitter":null,"Instagram":null,"Pinterest":null,"Youtube":null,"Blog":null,"Address":"1657N 1125E ROAD, MONTICELLO, Illinois 61856","State":"Illinois","City":"MONTICELLO","Street":"1657N 1125E ROAD","Zip":"61856","Longitude":"-88.533594","Latitude":"40.033451","Dates":null,"Products":""},{"Type":"on-farm market","ModifyDate":"Aug 24th, 2014","Image":"default-onfarmmarket-4-3.jpg","ListingID":"700915","Name":"Edwards Apple Orchard West","Description":null,"ContactName":"Kristin Edwards","ContactEmail":"Kristin@edwardsorchardwest.com","ContactPhone":"(815)963-2261","Website":"http:\/\/www.edwardsorchardwest.com\/","Facebook":"https:\/\/www.facebook.com\/EdwardsOrchardWest","Twitter":null,"Instagram":null,"Pinterest":null,"Youtube":null,"Blog":null,"Address":"8218 Cemetery Rd., Winnebago, Illinois 61088","State":"Illinois","City":"Winnebago","Street":"8218 Cemetery Rd.","Zip":"61088","Longitude":"-89.198967","Latitude":"42.3611260","Dates":null,"Products":""},{"Type":"on-farm market","ModifyDate":"Aug 25th, 2014","Image":"default-onfarmmarket-4-3.jpg","ListingID":"700920","Name":"Valley of Beruch","Description":null,"ContactName":"Christine Mize","ContactEmail":"imreborn@outlook.com","ContactPhone":"618-684-2686","Website":null,"Facebook":null,"Twitter":null,"Instagram":null,"Pinterest":null,"Youtube":null,"Blog":null,"Address":"456 S. Jungle Rd. , Murphysboro, Illinois 62966","State":"Illinois","City":"Murphysboro","Street":"456 S. Jungle Rd.","Zip":"62966","Longitude":"-89.358362","Latitude":"37.7079127","Dates":null,"Products":""},{"Type":"on-farm market","ModifyDate":"Aug 26th, 2014","Image":"default-onfarmmarket-4-3.jpg","ListingID":"700234","Name":"Raines Honey Farm","Description":null,"ContactName":"Phillip Raines","ContactEmail":"Sales@raineshoneyfarm.com","ContactPhone":"815-248-3321","Website":"www.raineshoneyfarm.com","Facebook":null,"Twitter":null,"Instagram":null,"Pinterest":null,"Youtube":null,"Blog":null,"Address":"16566 BEST ROAD, DAVIS, Illinois 61019","State":"Illinois","City":"DAVIS","Street":"16566 BEST ROAD","Zip":"61019","Longitude":"-89.385226","Latitude":"42.4921300","Dates":null,"Products":""},{"Type":"on-farm market","ModifyDate":"Aug 26th, 2014","Image":"default-onfarmmarket-4-3.jpg","ListingID":"700945","Name":"Prairie Sky Orchard","Description":null,"ContactName":"SueEllen Arndt","ContactEmail":"r.arndt@sbcglobal.net","ContactPhone":"815-923-4834","Website":"www.prairieskyorchard.com","Facebook":"https:\/\/www.facebook.com\/prairieskyorchard","Twitter":null,"Instagram":null,"Pinterest":null,"Youtube":null,"Blog":null,"Address":"4914 N. Union Rd., Union, Illinois 60180","State":"Illinois","City":"Union","Street":"4914 N. Union Rd.","Zip":"60180","Longitude":"-88.539540","Latitude":"42.2576023","Dates":null,"Products":""},{"Type":"on-farm market","ModifyDate":"Aug 29th, 2014","Image":"default-onfarmmarket-4-3.jpg","ListingID":"700568","Name":"Country Corner Farm Market & Pumpkin Patch","Description":null,"ContactName":"Bruce Curry \/ Owner","ContactEmail":"info@countrycornerfarm.com","ContactPhone":"309-629-2359","Website":"http:\/\/www.country-corner.com","Facebook":"http:\/\/wwwfacebook.com\/country.corner.pumpkins","Twitter":null,"Instagram":null,"Pinterest":null,"Youtube":null,"Blog":null,"Address":"5333 U. S. highway 150, Alpha, Illinois 61413","State":"Illinois","City":"Alpha","Street":"5333 U. S. highway 150","Zip":"61413","Longitude":"-90.379105","Latitude":"41.229078","Dates":null,"Products":""},{"Type":"on-farm market","ModifyDate":"Aug 3rd, 2014","Image":"default-onfarmmarket-4-3.jpg","ListingID":"700209","Name":"Thornpaw Lea Farm","Description":null,"ContactName":"Therese Ortloff","ContactEmail":"Thornpawleafarm@att.net","ContactPhone":"224 587 8832. or  84","Website":"thornpawleafarm.com","Facebook":null,"Twitter":null,"Instagram":null,"Pinterest":null,"Youtube":null,"Blog":null,"Address":"Menge Rd, Marengo, Illinois 60152","State":"Illinois","City":"Marengo","Street":"Menge Rd","Zip":"60152","Longitude":"-88.588697","Latitude":"42.335052","Dates":null,"Products":""},{"Type":"on-farm market","ModifyDate":"Aug 3rd, 2016","Image":"default-onfarmmarket-4-3.jpg","ListingID":"701366","Name":"UR Foods Farm","Description":null,"ContactName":"Danielle Jeter","ContactEmail":"Urfoodsfarm@gmail.com","ContactPhone":"815-429-3220","Website":null,"Facebook":"@urfoodsfarm","Twitter":null,"Instagram":null,"Pinterest":null,"Youtube":null,"Blog":null,"Address":"2844 US Hwy 24, Sheldon, Illinois 60966","State":"Illinois","City":"Sheldon","Street":"2844 US Hwy 24","Zip":"60966","Longitude":"-87.585997","Latitude":"40.776353","Dates":null,"Products":""},{"Type":"on-farm market","ModifyDate":"Aug 6th, 2014","Image":"default-onfarmmarket-4-3.jpg","ListingID":"700817","Name":"Four Sisters Organic Farm","Description":null,"ContactName":"Richard Kanak","ContactEmail":"nakr@aol.com","ContactPhone":"815-505-9962","Website":null,"Facebook":"https:\/\/www.facebook.com\/FourSistersOrganicFarm","Twitter":null,"Instagram":null,"Pinterest":null,"Youtube":null,"Blog":null,"Address":"719 East State Street, Cherry Valley, Illinois 61016","State":"Illinois","City":"Cherry Valley","Street":"719 East State Street","Zip":"61016","Longitude":"-88.946474","Latitude":"42.234871","Dates":null,"Products":""},{"Type":"on-farm market","ModifyDate":"Dec 28th, 2018","Image":"default-onfarmmarket-4-3.jpg","ListingID":"701466","Name":"Big Muddy Hogs","Description":null,"ContactName":"Roger Schuttek","ContactEmail":"Bigmuddyhogs@gmail.com","ContactPhone":"618-922-8724","Website":"bigmuddyhogs.com","Facebook":"facebook.com\/bigmuddyhogs","Twitter":null,"Instagram":null,"Pinterest":null,"Youtube":null,"Blog":null,"Address":"300 Adams street , Hurst , Illinois 62949","State":"Illinois","City":"Hurst","Street":"300 Adams street","Zip":"62949","Longitude":"-89.141034","Latitude":"37.842598","Dates":null,"Products":""},{"Type":"on-farm market","ModifyDate":"Feb 12th, 2022","Image":"default-onfarmmarket-4-3.jpg","ListingID":"701633","Name":"Rancho Los Nunez","Description":null,"ContactName":"Lorena Isais","ContactEmail":"lorena.isais@yahoo.com","ContactPhone":"7082504143","Website":"13218 E 2260 S Rd Pembroke Township, IL","Facebook":"https:\/\/www.facebook.com\/ElRanchoLosNunez\/","Twitter":null,"Instagram":null,"Pinterest":null,"Youtube":null,"Blog":null,"Address":"13218 E 2260 S Rd Pembroke Township, IL, Pembroke Township, Illinois 60958","State":"Illinois","City":"Pembroke Township","Street":"13218 E 2260 S Rd Pembroke Township, IL","Zip":"60958","Longitude":"-87.615118","Latitude":"41.093034","Dates":null,"Products":""},{"Type":"on-farm market","ModifyDate":"Feb 23rd, 2022","Image":"default-onfarmmarket-4-3.jpg","ListingID":"701639","Name":"Navarro Farm","Description":null,"ContactName":"Damion Navarro","ContactEmail":"hello@navarrofarm.org","ContactPhone":"8152702010","Website":"https:\/\/www.navarrofarm.org\/","Facebook":"https:\/\/www.facebook.com\/navarrofarm.org\/","Twitter":null,"Instagram":null,"Pinterest":null,"Youtube":null,"Blog":null,"Address":"22155 S.104th Ave., Frankfort, Illinois 60423","State":"Illinois","City":"Frankfort","Street":"22155 S.104th Ave.","Zip":"60423","Longitude":"-87.867562","Latitude":"41.487597","Dates":null,"Products":""},{"Type":"on-farm market","ModifyDate":"Feb 6th, 2015","Image":"default-onfarmmarket-4-3.jpg","ListingID":"701206","Name":"Larson's Country Market, Inc.","Description":null,"ContactName":"Brenda Larson","ContactEmail":"brenda@larsonscountrymarket.com","ContactPhone":"815-495-2500","Website":"www.larsonscountrymarket.com","Facebook":null,"Twitter":null,"Instagram":null,"Pinterest":null,"Youtube":null,"Blog":null,"Address":"1968 E. U.S. Route 34, Leland, Illinois 60531","State":"Illinois","City":"Leland","Street":"1968 E. U.S. Route 34","Zip":"60531","Longitude":"-88.794440","Latitude":"41.5901247","Dates":null,"Products":""},{"Type":"on-farm market","ModifyDate":"Jan 16th, 2020","Image":"default-onfarmmarket-4-3.jpg","ListingID":"701498","Name":"3 Winds Farm","Description":null,"ContactName":"Nicoele Arseneau and Bill Belluso","ContactEmail":"3windsfarm@gmail.com","ContactPhone":"815-616-9786","Website":"www.3windsfarm.com","Facebook":"http:\/\/facebook.com\/3windsfarm\/","Twitter":null,"Instagram":null,"Pinterest":null,"Youtube":null,"Blog":null,"Address":"10769 N 1500W Rd, Manteno, Illinois 60950","State":"Illinois","City":"Manteno","Street":"10769 N 1500W Rd","Zip":"60950","Longitude":"-87.906847","Latitude":"41.276258","Dates":null,"Products":""},{"Type":"on-farm market","ModifyDate":"Jan 25th, 2015","Image":"default-onfarmmarket-4-3.jpg","ListingID":"701198","Name":"Radical Root Organic Farm","Description":null,"ContactName":"Alex Needham","ContactEmail":"radicalrootfarm@gmail.com","ContactPhone":"8153265857","Website":"radicalrootfarm@gmail.com","Facebook":null,"Twitter":null,"Instagram":null,"Pinterest":null,"Youtube":null,"Blog":null,"Address":"31330 N IL RT 21, Libertyville, Illinois 60048","State":"Illinois","City":"Libertyville","Street":"31330 N IL RT 21","Zip":"60048","Longitude":"-87.963093","Latitude":"42.317570","Dates":null,"Products":""},{"Type":"on-farm market","ModifyDate":"Jul 23rd, 2014","Image":"default-onfarmmarket-4-3.jpg","ListingID":"700250","Name":"Crandall Farms","Description":null,"ContactName":"Phil Crandall","ContactEmail":"pcrandall@crandallfarms.com","ContactPhone":"309-799-7420","Website":"www.crandallfarms.com","Facebook":"www.facebook.com\/crandallfarms","Twitter":"www.twitter.com\/crandallfarms","Instagram":null,"Pinterest":null,"Youtube":null,"Blog":null,"Address":"10905 104th Street, Coal Valley, Illinois 61240","State":"Illinois","City":"Coal Valley","Street":"10905 104th Street","Zip":"61240","Longitude":"-90.467718","Latitude":"41.4102820","Dates":null,"Products":""},{"Type":"on-farm market","ModifyDate":"Jul 26th, 2014","Image":"default-onfarmmarket-4-3.jpg","ListingID":"700254","Name":"Grace Farm Studios","Description":null,"ContactName":"Mike Owney","ContactEmail":"owney@gracefarmstudios.com","ContactPhone":"815-790-8895","Website":"http:\/\/gracefarmstudios.com","Facebook":null,"Twitter":null,"Instagram":null,"Pinterest":null,"Youtube":null,"Blog":null,"Address":"2719 Franklinville Rd., Woodstock, Illinois 60098","State":"Illinois","City":"Woodstock","Street":"2719 Franklinville Rd.","Zip":"60098","Longitude":"-88.511932","Latitude":"42.2887090","Dates":null,"Products":""},{"Type":"on-farm market","ModifyDate":"Jul 26th, 2014","Image":"default-onfarmmarket-4-3.jpg","ListingID":"700427","Name":"Wishful Acres Farm","Description":null,"ContactName":null,"ContactEmail":"wishfulacres@gmail.com","ContactPhone":"815-990-2380","Website":null,"Facebook":null,"Twitter":null,"Instagram":null,"Pinterest":null,"Youtube":null,"Blog":null,"Address":"4679 N Flansburg Rd, Lena, Illinois 61032","State":"Illinois","City":"Lena","Street":"4679 N Flansburg Rd","Zip":"61032","Longitude":"-89.729949","Latitude":"42.3677057","Dates":null,"Products":""},{"Type":"on-farm market","ModifyDate":"Jul 26th, 2014","Image":"default-onfarmmarket-4-3.jpg","ListingID":"700555","Name":"Royal Oak Farm Orchard","Description":null,"ContactName":"Dennis Norton","ContactEmail":"service@royaloakfarmorchard.com","ContactPhone":"815-648-4141","Website":"http:\/\/www.royaloakfarmorchard.com\/","Facebook":"https:\/\/www.facebook.com\/royaloakfarmorchard","Twitter":"https:\/\/twitter.com\/RoyalOakFarmIL","Instagram":null,"Pinterest":null,"Youtube":null,"Blog":"http:\/\/www.royaloakfarmorchard.blogspot.com\/","Address":"15908 Hebron Road, Harvard, Illinois 60033","State":"Illinois","City":"Harvard","Street":"15908 Hebron Road","Zip":"60033","Longitude":"-88.507943","Latitude":"42.4795576","Dates":null,"Products":""},{"Type":"on-farm market","ModifyDate":"Jul 26th, 2014","Image":"default-onfarmmarket-4-3.jpg","ListingID":"700739","Name":"Curtis Orchard & Pumpkin Patch","Description":null,"ContactName":null,"ContactEmail":"info@curtisorchard.com","ContactPhone":"217-359-5565","Website":"www.curtisorchard.com","Facebook":"www.facebook.com\/curtisorchard","Twitter":"www.twitter.com\/curtisorchard","Instagram":null,"Pinterest":null,"Youtube":null,"Blog":null,"Address":"3902 S Duncan Rd, Champaign, Illinois 61822","State":"Illinois","City":"Champaign","Street":"3902 S Duncan Rd","Zip":"61822","Longitude":"-88.294979","Latitude":"40.0639050","Dates":null,"Products":""},{"Type":"on-farm market","ModifyDate":"Jul 30th, 2014","Image":"default-onfarmmarket-4-3.jpg","ListingID":"700666","Name":"McNitt Growers","Description":null,"ContactName":"Andy McNitt","ContactEmail":"mcnittgrowers@gmail.com","ContactPhone":"618 687 3563","Website":"www.mcnittgrowers.com","Facebook":"https:\/\/www.facebook.com\/pages\/McNitt-Growers\/142603839118969","Twitter":"https:\/\/twitter.com\/AndyMcNitt","Instagram":null,"Pinterest":null,"Youtube":null,"Blog":null,"Address":"78 Oak Ridge Lane, Carbondale, Illinois 62903","State":"Illinois","City":"Carbondale","Street":"78 Oak Ridge Lane","Zip":"62903","Longitude":"-89.312474","Latitude":"37.683242","Dates":null,"Products":""},{"Type":"on-farm market","ModifyDate":"Jul 6th, 2020","Image":"default-onfarmmarket-4-3.jpg","ListingID":"701535","Name":"Berkowski Family Farm LLC","Description":null,"ContactName":"Sarah Berkowski","ContactEmail":"bffpoultry@gmail.com","ContactPhone":"8152164125","Website":"www.bffpoultry.com","Facebook":"facebook.com\/bffpoultry","Twitter":"twitter.com\/bffpoultry","Instagram":null,"Pinterest":null,"Youtube":null,"Blog":null,"Address":"9432 E Scott Rd, Stillman Valley, Illinois 61084","State":"Illinois","City":"Stillman Valley","Street":"9432 E Scott Rd","Zip":"61084","Longitude":"-89.159240","Latitude":"42.137549","Dates":null,"Products":""},{"Type":"on-farm market","ModifyDate":"Jun 10th, 2020","Image":"default-onfarmmarket-4-3.jpg","ListingID":"701525","Name":"Hilton Farms Rooted","Description":null,"ContactName":"Lisa Hilton","ContactEmail":"lnhilton89@gmail.com","ContactPhone":"8159852186","Website":"https:\/\/hiltonrooted.com\/","Facebook":"Www.facebook.com\/HiltonFarms5","Twitter":null,"Instagram":null,"Pinterest":null,"Youtube":null,"Blog":null,"Address":"2620 s spielman rd, Pecatonica, Illinois 61063","State":"Illinois","City":"Pecatonica","Street":"2620 s spielman rd","Zip":"61063","Longitude":"-89.357212","Latitude":"42.309059","Dates":null,"Products":""},{"Type":"on-farm market","ModifyDate":"Mar 19th, 2015","Image":"default-onfarmmarket-4-3.jpg","ListingID":"701164","Name":"Sunrise Market Farm, Inc.","Description":null,"ContactName":"Jan Thornton","ContactEmail":"thornton.sunrisemarket@gmail.com","ContactPhone":"815-334-0332","Website":"http:\/\/sunrisemarketfarm.com\/index.html","Facebook":"https:\/\/www.facebook.com\/pages\/Sunrise-Market-Farm\/240248702703552","Twitter":null,"Instagram":null,"Pinterest":null,"Youtube":null,"Blog":null,"Address":"2820 Yale Bridge Road, South Beloit, Illinois 61080","State":"Illinois","City":"South Beloit","Street":"2820 Yale Bridge Road","Zip":"61080","Longitude":"-89.095039","Latitude":"42.4763920","Dates":null,"Products":""},{"Type":"on-farm market","ModifyDate":"Mar 23rd, 2015","Image":"default-onfarmmarket-4-3.jpg","ListingID":"700531","Name":"Tammen Treeberry Farm","Description":null,"ContactName":"Bruce Tammen","ContactEmail":"btammen@tammentreeberryfarm.net","ContactPhone":"815-458-6264","Website":"www.tammentreeberryfarm.net","Facebook":"www.facebook.com\/tammentreeberryfarm","Twitter":null,"Instagram":null,"Pinterest":null,"Youtube":null,"Blog":null,"Address":"37131 Essex Road, Wilmington, Illinois 60481","State":"Illinois","City":"Wilmington","Street":"37131 Essex Road","Zip":"60481","Longitude":"-88.199733","Latitude":"41.207105","Dates":null,"Products":""},{"Type":"on-farm market","ModifyDate":"Mar 23rd, 2015","Image":"default-onfarmmarket-4-3.jpg","ListingID":"700749","Name":"All Seasons Orchard","Description":null,"ContactName":"Esther hong","ContactEmail":"info@allseasonsorchard.com","ContactPhone":"815-338-5637","Website":"www.allseasonsorchard.com","Facebook":null,"Twitter":null,"Instagram":null,"Pinterest":null,"Youtube":null,"Blog":null,"Address":"14510 Il Route 176, Woodstock, Illinois 60098","State":"Illinois","City":"Woodstock","Street":"14510 Il Route 176","Zip":"60098","Longitude":"-88.478504","Latitude":"42.255422","Dates":null,"Products":""},{"Type":"on-farm market","ModifyDate":"Mar 23rd, 2015","Image":"default-onfarmmarket-4-3.jpg","ListingID":"700860","Name":"Voss Pecans","Description":null,"ContactName":"Voss Pecans","ContactEmail":"vosspecans@hotmail.com","ContactPhone":"618-594-4122","Website":"www.vosspecans","Facebook":null,"Twitter":null,"Instagram":null,"Pinterest":null,"Youtube":null,"Blog":null,"Address":"10101 Slant Road, Carlyle, Illinois 62231","State":"Illinois","City":"Carlyle","Street":"10101 Slant Road","Zip":"62231","Longitude":"-89.418563","Latitude":"38.564629","Dates":null,"Products":""},{"Type":"on-farm market","ModifyDate":"Mar 23rd, 2015","Image":"default-onfarmmarket-4-3.jpg","ListingID":"701227","Name":"Gorman Farm Fresh Produce","Description":null,"ContactName":"Molly Gorman","ContactEmail":"info@gormanFarmfreshproduce.com","ContactPhone":"708.534.2375","Website":"www.gormanfarmfreshproduce.com","Facebook":"Gorman Farm Fresh Produce","Twitter":null,"Instagram":null,"Pinterest":null,"Youtube":null,"Blog":null,"Address":"6607 West Bruns Road, Monee, Illinois 60449","State":"Illinois","City":"Monee","Street":"6607 West Bruns Road","Zip":"60449","Longitude":"-87.771681","Latitude":"41.412203","Dates":null,"Products":""},{"Type":"on-farm market","ModifyDate":"Mar 24th, 2015","Image":"default-onfarmmarket-4-3.jpg","ListingID":"700493","Name":"Didier Farms","Description":null,"ContactName":"Barbara Didier","ContactEmail":"didierfarms@didierfarms.com","ContactPhone":"847-634-3291","Website":"www.didierfarms.com","Facebook":"https:\/\/www.facebook.com\/pages\/Didier-Farms\/120890817921408","Twitter":null,"Instagram":null,"Pinterest":null,"Youtube":null,"Blog":null,"Address":"16678 West Aptakisic Road, Prairie View-Lincolnshire, Illinois 60069","State":"Illinois","City":"Prairie View-Lincolnshire","Street":"16678 West Aptakisic Road","Zip":"60069","Longitude":"-87.961392","Latitude":"42.182538","Dates":null,"Products":""},{"Type":"on-farm market","ModifyDate":"Mar 25th, 2015","Image":"default-onfarmmarket-4-3.jpg","ListingID":"700716","Name":"Liberty Apple Orchard","Description":null,"ContactName":"Stephen L. Miller","ContactEmail":"j5fourj@att.net","ContactPhone":"618-659-9217","Website":"www.libertyappleorchard.com","Facebook":"libertyappleorchard","Twitter":null,"Instagram":null,"Pinterest":null,"Youtube":null,"Blog":null,"Address":"8308 Kuhn Station Road, Edwardsville, Illinois 62025","State":"Illinois","City":"Edwardsville","Street":"8308 Kuhn Station Road","Zip":"62025","Longitude":"-89.878831","Latitude":"38.781031","Dates":null,"Products":""},{"Type":"on-farm market","ModifyDate":"Mar 28th, 2017","Image":"default-onfarmmarket-4-3.jpg","ListingID":"701400","Name":"PCC Austin Farm","Description":null,"ContactName":"Lucia Flores","ContactEmail":"LFlores@pccwellness.org","ContactPhone":"708-524-7685","Website":"http:\/\/www.pccwellness.org\/produce-market","Facebook":null,"Twitter":null,"Instagram":null,"Pinterest":null,"Youtube":null,"Blog":null,"Address":"330 N. Lotus, Chicago, Illinois 60644","State":"Illinois","City":"Chicago","Street":"330 N. Lotus","Zip":"60644","Longitude":"-87.762193","Latitude":"41.8867310","Dates":null,"Products":""},{"Type":"on-farm market","ModifyDate":"Mar 5th, 2016","Image":"default-onfarmmarket-4-3.jpg","ListingID":"701319","Name":"Madoli Farms","Description":null,"ContactName":"Keith Roth","ContactEmail":"madolifarms@gmail.com","ContactPhone":"815-353-7949","Website":"http:\/\/www.madolifarms.com\/","Facebook":"https:\/\/www.facebook.com\/Madoli-Farms-1627836294122004\/","Twitter":null,"Instagram":null,"Pinterest":null,"Youtube":null,"Blog":null,"Address":"2109 S. Country Club Rd, Woodstock, Illinois 60098","State":"Illinois","City":"Woodstock","Street":"2109 S. Country Club Rd","Zip":"60098","Longitude":"-88.374208","Latitude":"42.2981305","Dates":null,"Products":""},{"Type":"on-farm market","ModifyDate":"May 31st, 2018","Image":"default-onfarmmarket-4-3.jpg","ListingID":"701453","Name":"Growing Home Inc","Description":null,"ContactName":"Growing Home","ContactEmail":"rhowarth@growinghomeinc.org","ContactPhone":"7734347144","Website":"http:\/\/growinghomeinc.org\/","Facebook":"https:\/\/www.facebook.com\/growinghomeinc","Twitter":"https:\/\/twitter.com\/growinghome","Instagram":null,"Pinterest":null,"Youtube":null,"Blog":null,"Address":"5814 S Wood St, Chicago, Illinois 60636","State":"Illinois","City":"Chicago","Street":"5814 S Wood St","Zip":"60636","Longitude":"-87.669498","Latitude":"41.7880123","Dates":null,"Products":""},{"Type":"on-farm market","ModifyDate":"May 4th, 2016","Image":"default-onfarmmarket-4-3.jpg","ListingID":"701335","Name":"Natural Environments Greenhouses and Nursery","Description":null,"ContactName":"Robert Boyce","ContactEmail":"natural1960@msn.com","ContactPhone":"847-438-5315","Website":"www.robertcboyce.com","Facebook":"https:\/\/www.facebook.com\/naturalenvironments\/","Twitter":null,"Instagram":null,"Pinterest":null,"Youtube":null,"Blog":null,"Address":"23520 Old McHenry Road, Lake Zurich, Illinois 60047","State":"Illinois","City":"Lake Zurich","Street":"23520 Old McHenry Road","Zip":"60047","Longitude":"-88.027481","Latitude":"42.204813","Dates":null,"Products":""},{"Type":"on-farm market","ModifyDate":"May 5th, 2018","Image":"default-onfarmmarket-4-3.jpg","ListingID":"701452","Name":"Eden Place Farms","Description":null,"ContactName":"Michael Howard","ContactEmail":"Michaelhow@msn.com","ContactPhone":"7736248222","Website":"www.edenplacefarms.org","Facebook":null,"Twitter":null,"Instagram":null,"Pinterest":null,"Youtube":null,"Blog":null,"Address":"4911 S Shields Ave, Chicago, Illinois 60609","State":"Illinois","City":"Chicago","Street":"4911 S Shields Ave","Zip":"60609","Longitude":"-87.634211","Latitude":"41.804878","Dates":null,"Products":""},{"Type":"on-farm market","ModifyDate":"Nov 10th, 2017","Image":"default-onfarmmarket-4-3.jpg","ListingID":"701432","Name":"Mills Apple Farm","Description":null,"ContactName":"Sherry Chase","ContactEmail":"sherry@millsapplefarm.com","ContactPhone":"618-887-4732","Website":"www.millsapplefarm.com","Facebook":"https:\/\/www.facebook.com\/millsapplefarm","Twitter":null,"Instagram":null,"Pinterest":null,"Youtube":null,"Blog":null,"Address":"11477 Pocahontas Road, Marine, Illinois 62061","State":"Illinois","City":"Marine","Street":"11477 Pocahontas Road","Zip":"62061","Longitude":"-89.732850","Latitude":"38.816176","Dates":null,"Products":""},{"Type":"on-farm market","ModifyDate":"Nov 21st, 2018","Image":"default-onfarmmarket-4-3.jpg","ListingID":"701463","Name":"Northland Farms","Description":null,"ContactName":"Jay Book","ContactEmail":"northland.book@gmail.com","ContactPhone":"(815) 564-8546","Website":"https:\/\/www.northlandfarms.net\/","Facebook":"https:\/\/www.facebook.com\/Northland-Farms-285324654864419\/","Twitter":"https:\/\/twitter.com\/NorthlandFarms","Instagram":null,"Pinterest":null,"Youtube":null,"Blog":null,"Address":"31095 Penrose Rd., Sterling, Illinois 61081","State":"Illinois","City":"Sterling","Street":"31095 Penrose Rd.","Zip":"61081","Longitude":"-89.645912","Latitude":"41.887211","Dates":null,"Products":""},{"Type":"on-farm market","ModifyDate":"Nov 23rd, 2018","Image":"default-onfarmmarket-4-3.jpg","ListingID":"701465","Name":"J N' J Cattle Co.","Description":null,"ContactName":"Joseph Wieseman","ContactEmail":"jnjcattle@live.com","ContactPhone":"(618)779-2741","Website":null,"Facebook":"www.facebook.com\/jnjcattle","Twitter":null,"Instagram":null,"Pinterest":null,"Youtube":null,"Blog":null,"Address":"8354 DUSTMAN RD, WORDEN, Illinois 62097","State":"Illinois","City":"WORDEN","Street":"8354 DUSTMAN RD","Zip":"62097","Longitude":"-89.881669","Latitude":"38.960479","Dates":null,"Products":""},{"Type":"on-farm market","ModifyDate":"Nov 28th, 2021","Image":"default-onfarmmarket-4-3.jpg","ListingID":"701623","Name":"Hempstock Pharms","Description":null,"ContactName":"Stacy McCaskill","ContactEmail":"stacy@hempstockpharms.com","ContactPhone":"630-301-2010","Website":"www.hempstockpharms.com","Facebook":null,"Twitter":null,"Instagram":null,"Pinterest":null,"Youtube":null,"Blog":null,"Address":"14023 West South Street Rd., Woodstock , Illinois 60098","State":"Illinois","City":"Woodstock","Street":"14023 West South Street Rd.","Zip":"60098","Longitude":"-88.471650","Latitude":"42.302592","Dates":null,"Products":""},{"Type":"on-farm market","ModifyDate":"Oct 1st, 2014","Image":"default-onfarmmarket-4-3.jpg","ListingID":"701115","Name":"Cow Creek Farm","Description":null,"ContactName":"Rita Glazik","ContactEmail":"cowcreekfarm@gmail.com","ContactPhone":"217-841-4466","Website":"http:\/\/www.cowcreekorganicfarm.com\/","Facebook":"https:\/\/www.facebook.com\/cowcreekorganics","Twitter":null,"Instagram":null,"Pinterest":null,"Youtube":null,"Blog":null,"Address":"2112 E 100 N Rd, Paxton, Illinois 60957","State":"Illinois","City":"Paxton","Street":"2112 E 100 N Rd","Zip":"60957","Longitude":"-88.057094","Latitude":"40.414803","Dates":null,"Products":""},{"Type":"on-farm market","ModifyDate":"Oct 21st, 2014","Image":"default-onfarmmarket-4-3.jpg","ListingID":"700441","Name":"Hazel Creek Vineyard","Description":null,"ContactName":"Vonda Miller","ContactEmail":"vonda.miller1@gmail.com","ContactPhone":"815-499-5229","Website":null,"Facebook":"Hazel Creek Vineyard","Twitter":null,"Instagram":null,"Pinterest":null,"Youtube":null,"Blog":null,"Address":"23060 Hazel Road, Sterling, Illinois 61081","State":"Illinois","City":"Sterling","Street":"23060 Hazel Road","Zip":"61081","Longitude":"-89.815149","Latitude":"41.816303","Dates":null,"Products":""},{"Type":"on-farm market","ModifyDate":"Sep 10th, 2014","Image":"default-onfarmmarket-4-3.jpg","ListingID":"701051","Name":"Fox River Farm, LLC","Description":null,"ContactName":"F. W. Lutz","ContactEmail":"fwlutz@foxriverfarm.net","ContactPhone":"6187809484","Website":"www.foxriverfarm.net","Facebook":"facebook.com\/foxriverfarm","Twitter":"https:\/\/www.twitter.com\/foxriverfarm","Instagram":null,"Pinterest":null,"Youtube":null,"Blog":null,"Address":"6091 Pope Road, Sandoval, Illinois 62882","State":"Illinois","City":"Sandoval","Street":"6091 Pope Road","Zip":"62882","Longitude":"-89.123443","Latitude":"38.6931883","Dates":null,"Products":""},{"Type":"on-farm market","ModifyDate":"Sep 29th, 2014","Image":"default-onfarmmarket-4-3.jpg","ListingID":"701106","Name":"Homestead Harvests LLC","Description":null,"ContactName":"Eric Marshall","ContactEmail":"eric5899@yahoo.com","ContactPhone":"3092877933","Website":null,"Facebook":"https:\/\/www.facebook.com\/HomesteadHarvests","Twitter":null,"Instagram":null,"Pinterest":null,"Youtube":null,"Blog":null,"Address":"14861 Enterprise Road, Heyworth, Illinois 61745","State":"Illinois","City":"Heyworth","Street":"14861 Enterprise Road","Zip":"61745","Longitude":"-88.901989","Latitude":"40.265904","Dates":null,"Products":""},{"Type":"on-farm market","ModifyDate":"Sep 3rd, 2014","Image":"default-onfarmmarket-4-3.jpg","ListingID":"700443","Name":"Bronkberry Farms","Description":null,"ContactName":null,"ContactEmail":"veen77@sbcglobal.net","ContactPhone":"815-436-6967","Website":"www.bronkberryfarms.com","Facebook":"Bronkberry Farms","Twitter":null,"Instagram":null,"Pinterest":null,"Youtube":null,"Blog":null,"Address":"18061 S. Bronk Road, Plainfield, Illinois 60586","State":"Illinois","City":"Plainfield","Street":"18061 S. Bronk Road","Zip":"60586","Longitude":"-88.189393","Latitude":"41.554524","Dates":null,"Products":""},{"Type":"on-farm market","ModifyDate":"Sep 5th, 2014","Image":"default-onfarmmarket-4-3.jpg","ListingID":"700726","Name":"Rendleman Orchards Farm Market","Description":null,"ContactName":"Betty Sirles","ContactEmail":"info@rendlemanorchards.com","ContactPhone":"618-893-2771","Website":"www.rendlemanorchards.com","Facebook":"RendlemanOrchards","Twitter":null,"Instagram":null,"Pinterest":null,"Youtube":null,"Blog":null,"Address":"9680 State Route 127 North P. O. Box 159, Alto Pass, Illinois 62905","State":"Illinois","City":"Alto Pass","Street":"9680 State Route 127 North P. O. Box 159","Zip":"62905","Longitude":"-89.321599","Latitude":"37.5963693","Dates":null,"Products":""}]