[{"Type":"farmers market","ModifyDate":"Apr 17th, 2022","Image":"farmersmarket_301704_14104_20220417202440.png","ListingID":"301704","Name":"Grove Street farmers Market","Description":"","ContactName":"Monica Albert","ContactEmail":"grovestreetfarmersmarket@gmail.com","ContactPhone":"352-514-4140","Website":"https:\/\/www.grovestreetfarmersmarket.com","Facebook":"https:\/\/www.facebook.com\/grovestreetfarmersmarket\/","Twitter":"","Instagram":"  https:\/\/www.instagram.com \u203a grovestreetfarmersmarket","Pinterest":"","Youtube":"","Blog":"","Address":"1001 Northwest 4th Street, Gainesville, FL, USA 32601","State":"Florida","City":"Gainesville","Street":"1001 Northwest 4th Street","Zip":"32601","Longitude":"-82.3284448","Latitude":"29.6613472","Dates":"Year-round","Products":"Fresh fruits, Fresh vegetables, Baked goods, Bedding plants, Canned or preserved fruits\/vegetables, Coffee\/tea, Crafts\/woodworking items, Cut flowers, Dairy products., Eggs, Fish\/seafood, Fresh\/dried herbs, Honey, Juices\/non-alcoholic ciders, Mushrooms, Nursery stock (trees), Nuts, Pet food, Poultry\/fowl meat and products, Prepared foods, Red\/other non-poultry meat and products, Soap\/body care products, Tofu\/non-animal protein"},{"Type":"farmers market","ModifyDate":"Aug 25th, 2020","Image":"default-farmersmarket-4-3.jpg","ListingID":"301316","Name":"Delray GreenMarket","Description":null,"ContactName":"Lori Nolan","ContactEmail":"nolan@mydelraybeach.com","ContactPhone":"5612767511","Website":"delraycra.org","Facebook":"Delray Beach GreenMarket","Twitter":null,"Instagram":null,"Pinterest":null,"Youtube":null,"Blog":null,"Address":"NE 2nd Avenue, half block east of Atlantic Avenue, Delray Beach, Florida 33444","State":"Florida","City":"Delray Beach","Street":"NE 2nd Avenue, half block east of Atlantic Avenue","Zip":"33444","Longitude":"-80.071595","Latitude":"26.462365","Dates":"","Products":"Fresh fruits, Fresh vegetables, Baked goods, Canned or preserved fruits\/vegetables, Coffee\/tea, Cut flowers, Dairy products., Eggs, Fish\/seafood, Fresh\/dried herbs, Honey, Juices\/non-alcoholic ciders, Mushrooms, Pet food, Poultry\/fowl meat and products, Prepared foods, Red\/other non-poultry meat and products, Soap\/body care products, Wild harvested forest products"},{"Type":"farmers market","ModifyDate":"Aug 31st, 2020","Image":"default-farmersmarket-4-3.jpg","ListingID":"301324","Name":"Main Street DeFuniak Farmer's Market","Description":null,"ContactName":"Chelsea Blaich","ContactEmail":"Director@Mainstreetdfs.org","ContactPhone":"8502969051","Website":"http:\/\/www.mainstreetdfs.org\/farmers-market\/","Facebook":"https:\/\/www.facebook.com\/MainStreetDFS\/","Twitter":null,"Instagram":null,"Pinterest":null,"Youtube":null,"Blog":null,"Address":"Baldwin Avenue between 7th and 8th St., DeFuniak Springs, Florida 32435","State":"Florida","City":"DeFuniak Springs","Street":"Baldwin Avenue between 7th and 8th St.","Zip":"32435","Longitude":"-86.113700","Latitude":"30.720266","Dates":"July to September","Products":"Fresh fruits, Fresh vegetables, Baked goods, Bedding plants, Canned or preserved fruits\/vegetables, Crafts\/woodworking items, Dairy products., Dry beans, Eggs, Fish\/seafood, Fresh\/dried herbs, Honey, Maple products, Nursery stock, Pet food, Soap\/body care products"},{"Type":"farmers market","ModifyDate":"Aug 3rd, 2020","Image":"default-farmersmarket-4-3.jpg","ListingID":"300063","Name":"Yellow Green Farmers Market","Description":null,"ContactName":"Mark Menagh","ContactEmail":"info@ygfarmersmarket.com","ContactPhone":"954-513-3990","Website":"www.ygfarmersmarket.com","Facebook":"https:\/\/www.facebook.com\/YGFarmersMarket","Twitter":"https:\/\/twitter.com\/ygfarmersmarket","Instagram":null,"Pinterest":null,"Youtube":"https:\/\/www.youtube.com\/channel\/UCvxcGswgI6TnAvlu3nSqB1g?","Blog":null,"Address":"1940 North 30th Road, Hollywood, Florida 33021","State":"Florida","City":"Hollywood","Street":"1940 North 30th Road","Zip":"33021","Longitude":"-80.169243","Latitude":"26.030260","Dates":"Year-round","Products":"Fresh fruits, Fresh vegetables, Baked goods, Bedding plants, Canned or preserved fruits\/vegetables, Coffee\/tea, Crafts\/woodworking items, Cut flowers, Dairy products., Dry beans, Eggs, Fish\/seafood, Fresh\/dried herbs, Grains\/flour, Honey, Juices\/non-alcoholic ciders, Maple products, Mushrooms, Nursery stock, Nuts, Pet food, Poultry\/fowl meat and products, Prepared foods, Red\/other non-poultry meat and products, Soap\/body care products, Tofu\/non-animal protein, Wine, spirits, beer, hard cider"},{"Type":"farmers market","ModifyDate":"Dec 28th, 2020","Image":"default-farmersmarket-4-3.jpg","ListingID":"300219","Name":"Legion Park Farmers Market","Description":null,"ContactName":"Arthur R Friedrich","ContactEmail":"art@urbanoasisproject.org","ContactPhone":"7864274698","Website":"urbanoasisproject.org","Facebook":"https:\/\/www.facebook.com\/LegionParkFarmersMarket\/","Twitter":"https:\/\/twitter.com\/urbanoasisproj","Instagram":null,"Pinterest":null,"Youtube":null,"Blog":null,"Address":"6601 Biscayne Blvd, Miami, Florida 33138","State":"Florida","City":"Miami","Street":"6601 Biscayne Blvd","Zip":"33138","Longitude":"-80.183684","Latitude":"25.836451","Dates":"Year-round","Products":"Fresh fruits, Fresh vegetables, Baked goods, Bedding plants, Canned or preserved fruits\/vegetables, Coffee\/tea, Crafts\/woodworking items, Cut flowers, Eggs, Fish\/seafood, Fresh\/dried herbs, Grains\/flour, Honey, Juices\/non-alcoholic ciders, Mushrooms, Pet food, Prepared foods, Red\/other non-poultry meat and products, Soap\/body care products"},{"Type":"farmers market","ModifyDate":"Dec 28th, 2020","Image":"default-farmersmarket-4-3.jpg","ListingID":"300335","Name":"South Miami Farmers Market","Description":null,"ContactName":"Arthur R Friedrich","ContactEmail":"art@urbanoasisproject.org","ContactPhone":"7864274698","Website":"http:\/\/www.urbanoasisproject.org\/farmers-markets.html","Facebook":null,"Twitter":null,"Instagram":null,"Pinterest":null,"Youtube":null,"Blog":null,"Address":"6130 Sunset Dr, Miami, Florida 33143","State":"Florida","City":"Miami","Street":"6130 Sunset Dr","Zip":"33143","Longitude":"-80.291066","Latitude":"25.704072","Dates":"Year-round","Products":"Fresh fruits, Fresh vegetables, Baked goods, Canned or preserved fruits\/vegetables, Coffee\/tea, Crafts\/woodworking items, Cut flowers, Eggs, Fish\/seafood, Fresh\/dried herbs, Grains\/flour, Honey, Juices\/non-alcoholic ciders, Mushrooms, Nuts, Prepared foods, Red\/other non-poultry meat and products, Soap\/body care products"},{"Type":"farmers market","ModifyDate":"Dec 28th, 2020","Image":"default-farmersmarket-4-3.jpg","ListingID":"300740","Name":"Market Mondays at the Arsht Center","Description":null,"ContactName":"Arthur R Friedrich","ContactEmail":"art@urbanoasisproject.org","ContactPhone":"7864274698","Website":"urbanoasisproject.org","Facebook":"https:\/\/www.facebook.com\/urbanoasisproject","Twitter":null,"Instagram":null,"Pinterest":null,"Youtube":null,"Blog":null,"Address":"1301 Biscayne Blvd, Miami, Florida 33132","State":"Florida","City":"Miami","Street":"1301 Biscayne Blvd","Zip":"33132","Longitude":"-80.189855","Latitude":"25.787138","Dates":"Year-round","Products":"Fresh fruits, Fresh vegetables, Baked goods, Canned or preserved fruits\/vegetables, Coffee\/tea, Dairy products., Eggs, Fresh\/dried herbs, Honey, Juices\/non-alcoholic ciders, Mushrooms, Pet food, Prepared foods, Red\/other non-poultry meat and products, Soap\/body care products, Tofu\/non-animal protein"},{"Type":"farmers market","ModifyDate":"Dec 28th, 2020","Image":"default-farmersmarket-4-3.jpg","ListingID":"301361","Name":"Vizcaya Village Farmers Market","Description":null,"ContactName":"Arthur R Friedrich","ContactEmail":"art@urbanoasisproject.org","ContactPhone":"7864274698","Website":"urbanoasisproject.org","Facebook":"https:\/\/www.facebook.com\/urbanoasisproject","Twitter":null,"Instagram":null,"Pinterest":null,"Youtube":null,"Blog":null,"Address":"3250 S. Miami Ave, Miami, Florida 33129","State":"Florida","City":"Miami","Street":"3250 S. Miami Ave","Zip":"33129","Longitude":"-80.212735","Latitude":"25.747026","Dates":"Year-round","Products":"Fresh fruits, Fresh vegetables, Baked goods, Coffee\/tea, Eggs, Fish\/seafood, Honey, Juices\/non-alcoholic ciders, Mushrooms, Pet food, Prepared foods, Red\/other non-poultry meat and products, Soap\/body care products, Tofu\/non-animal protein"},{"Type":"farmers market","ModifyDate":"Feb 17th, 2021","Image":"default-farmersmarket-4-3.jpg","ListingID":"300608","Name":"Orange Park Farmer's & Arts Market","Description":null,"ContactName":"Emily Dockery","ContactEmail":"edockery@townop.com","ContactPhone":"9042783043","Website":"www.OrangeParkMarket.com","Facebook":"@OrangeParkMarket","Twitter":null,"Instagram":null,"Pinterest":null,"Youtube":null,"Blog":null,"Address":"2042 Park Ave, Orange Park, Florida 32073","State":"Florida","City":"Orange Park","Street":"2042 Park Ave","Zip":"32073","Longitude":"-81.701664","Latitude":"30.165484","Dates":"September to June","Products":"Fresh fruits, Fresh vegetables, Baked goods, Bedding plants, Canned or preserved fruits\/vegetables, Coffee\/tea, Crafts\/woodworking items, Eggs, Fish\/seafood, Fresh\/dried herbs, Honey, Maple products, Mushrooms, Pet food, Poultry\/fowl meat and products, Prepared foods, Red\/other non-poultry meat and products, Soap\/body care products"},{"Type":"farmers market","ModifyDate":"Feb 9th, 2022","Image":"default-farmersmarket-4-3.jpg","ListingID":"301651","Name":"South Collier Farmer's Market","Description":null,"ContactName":"Russ Underwood","ContactEmail":"info@southcollierfarmersmarket.com","ContactPhone":"2399892319","Website":"https:\/\/SouthCollierFarmersMarket.com","Facebook":"https:\/\/www.facebook.com\/SouthCollierFarmersMarket","Twitter":"https:\/\/twitter.com\/southcollierfm","Instagram":null,"Pinterest":null,"Youtube":"https:\/\/www.youtube.com\/channel\/UCkpRnTwmz-Ioac8TrDURbvw","Blog":null,"Address":"6060 Collier Blvd, Naples, Florida 34114","State":"Florida","City":"Naples","Street":"6060 Collier Blvd","Zip":"34114","Longitude":"-81.698398","Latitude":"26.045266","Dates":"December to April","Products":"Fresh fruits, Fresh vegetables, Baked goods, Bedding plants, Canned or preserved fruits\/vegetables, Coffee\/tea, Crafts\/woodworking items, Cut flowers, Dairy products., Fish\/seafood, Honey, Mushrooms, Nuts, Pet food, Prepared foods, Soap\/body care products, Wild harvested forest products"},{"Type":"farmers market","ModifyDate":"Jan 25th, 2021","Image":"default-farmersmarket-4-3.jpg","ListingID":"300318","Name":"Pinecrest Farmers Market","Description":null,"ContactName":"Green Market Co-op","ContactEmail":"Info@greenmarketco-op.org","ContactPhone":"786-667-6992","Website":"www.greenmarketco-op.org","Facebook":"https:\/\/www.facebook.com\/greenmarketco.op\/","Twitter":"https:\/\/twitter.com\/GreenMarket_FL","Instagram":null,"Pinterest":null,"Youtube":"https:\/\/www.youtube.com\/channel\/UC-evWnGLPGDR9y-HNqku7yQ","Blog":null,"Address":"11000 S. Red Road, Pinecrest, Florida 33156","State":"Florida","City":"Pinecrest","Street":"11000 S. Red Road","Zip":"33156","Longitude":"-80.285895","Latitude":"25.669124","Dates":"Year-round","Products":"Fresh fruits, Fresh vegetables, Baked goods, Bedding plants, Canned or preserved fruits\/vegetables, Coffee\/tea, Crafts\/woodworking items, Cut flowers, Dairy products., Dry beans, Eggs, Fish\/seafood, Fresh\/dried herbs, Honey, Juices\/non-alcoholic ciders, Mushrooms, Nursery stock, Nuts, Pet food, Poultry\/fowl meat and products, Prepared foods, Red\/other non-poultry meat and products, Soap\/body care products, Tofu\/non-animal protein"},{"Type":"farmers market","ModifyDate":"Jan 25th, 2021","Image":"default-farmersmarket-4-3.jpg","ListingID":"301389","Name":"Cape Coral Farmers Market","Description":null,"ContactName":"Claudia St. Onge","ContactEmail":"cso@capecoralchamber.com","ContactPhone":"2395496900","Website":"2051 Cape Coral Pkwy. E.","Facebook":"Cape Coral Farmers Market","Twitter":null,"Instagram":null,"Pinterest":null,"Youtube":null,"Blog":null,"Address":"SE 47th Terrace & SE 10th Place, Cape Coral, Florida 33904","State":"Florida","City":"Cape Coral","Street":"SE 47th Terrace & SE 10th Place","Zip":"33904","Longitude":"-81.954459","Latitude":"26.564457","Dates":"Year-round","Products":"Fresh fruits, Fresh vegetables, Baked goods, Bedding plants, Canned or preserved fruits\/vegetables, Coffee\/tea, Crafts\/woodworking items, Cut flowers, Dairy products., Dry beans, Eggs, Fish\/seafood, Fresh\/dried herbs, Honey, Juices\/non-alcoholic ciders, Maple products, Mushrooms, Nursery stock, Pet food, Poultry\/fowl meat and products, Prepared foods, Red\/other non-poultry meat and products, Soap\/body care products, Tofu\/non-animal protein, Wild harvested forest products"},{"Type":"farmers market","ModifyDate":"Jan 4th, 2022","Image":"default-farmersmarket-4-3.jpg","ListingID":"301625","Name":"Circle Square Commons Farmers Market","Description":null,"ContactName":"Gary Pierre","ContactEmail":"info@CircleSquareCommonsFarmersMarket.com","ContactPhone":"3528543670","Website":"www.circlesquarecommons.com","Facebook":"https:\/\/www.facebook.com\/csctownsquare","Twitter":null,"Instagram":null,"Pinterest":null,"Youtube":null,"Blog":null,"Address":"8445 SW 80th Street, Ocala, Florida 34481","State":"Florida","City":"Ocala","Street":"8445 SW 80th Street","Zip":"34481","Longitude":"-82.257895","Latitude":"29.106489","Dates":"Year-round","Products":"Fresh fruits, Fresh vegetables, Baked goods, Canned or preserved fruits\/vegetables, Crafts\/woodworking items, Dairy products., Eggs, Honey, Poultry\/fowl meat and products, Red\/other non-poultry meat and products, Soap\/body care products"},{"Type":"farmers market","ModifyDate":"Jan 5th, 2021","Image":"default-farmersmarket-4-3.jpg","ListingID":"300570","Name":"Union Street Farmers Market @ Celebration Pointe","Description":null,"ContactName":"Charles Lybrand","ContactEmail":"charlielf@msn.com","ContactPhone":"3864623192","Website":"unionstreetfarmersmkt.com","Facebook":"Union Street Farmers Market","Twitter":null,"Instagram":null,"Pinterest":null,"Youtube":null,"Blog":null,"Address":"4949 Celebration Pointe Ave, Gainesville , Florida 32608","State":"Florida","City":"Gainesville","Street":"4949 Celebration Pointe Ave","Zip":"32608","Longitude":"-82.395520","Latitude":"29.625490","Dates":"Year-round","Products":"Fresh fruits, Fresh vegetables, Baked goods, Bedding plants, Canned or preserved fruits\/vegetables, Coffee\/tea, Crafts\/woodworking items, Cut flowers, Dairy products., Eggs, Fish\/seafood, Fresh\/dried herbs, Honey, Juices\/non-alcoholic ciders, Mushrooms, Nuts, Pet food, Poultry\/fowl meat and products, Prepared foods, Red\/other non-poultry meat and products"},{"Type":"farmers market","ModifyDate":"Mar 20th, 2020","Image":"default-farmersmarket-4-3.jpg","ListingID":"301060","Name":"Soutel Community Market","Description":null,"ContactName":"Samuel Phillips","ContactEmail":"support@soutelcommunitymarket.com","ContactPhone":"904-290-1766","Website":"4750 Soutel Dr","Facebook":"https:\/\/www.facebook.com\/SoutelCommunityMarket\/","Twitter":"https:\/\/twitter.com\/SoutelM","Instagram":null,"Pinterest":null,"Youtube":null,"Blog":null,"Address":"4750 Soutel Dr, Jacksonville, Florida 32208","State":"Florida","City":"Jacksonville","Street":"4750 Soutel Dr","Zip":"32208","Longitude":"-81.720010","Latitude":"30.403740","Dates":"April to October","Products":"Fresh fruits, Fresh vegetables, Canned or preserved fruits\/vegetables, Coffee\/tea, Prepared foods, Soap\/body care products"},{"Type":"farmers market","ModifyDate":"Mar 20th, 2023","Image":"default-farmersmarket-4-3.jpg","ListingID":"309274","Name":"Apollo Beach Outdoor Market","Description":null,"ContactName":null,"ContactEmail":null,"ContactPhone":null,"Website":"http:\/\/www.jens-market.com\/market-locations.html","Facebook":null,"Twitter":null,"Instagram":null,"Pinterest":null,"Youtube":null,"Blog":null,"Address":"6176 N. US Hwy. 41 , Apollo Beach, FL, 33572","State":"Florida","City":"Apollo Beach","Street":"6176 N. US Hwy. 41","Zip":"33572","Longitude":"-82.39256931557465","Latitude":"27.76790617617301","Dates":null,"Products":""},{"Type":"farmers market","ModifyDate":"Mar 20th, 2023","Image":"default-farmersmarket-4-3.jpg","ListingID":"309275","Name":"Abacoa Town Center Green Market","Description":null,"ContactName":null,"ContactEmail":null,"ContactPhone":"561-756-3600","Website":"https:\/\/www.slowfoodgtc.com\/","Facebook":null,"Twitter":null,"Instagram":null,"Pinterest":null,"Youtube":null,"Blog":null,"Address":"Town Center Drive Jupiter, FL 33458","State":"Florida","City":"Jupiter","Street":"Town Center Drive","Zip":"33458","Longitude":"-80.11462126032335","Latitude":"26.889722300597697","Dates":null,"Products":""},{"Type":"farmers market","ModifyDate":"Mar 20th, 2023","Image":"default-farmersmarket-4-3.jpg","ListingID":"309276","Name":"Alachua Farmers Market","Description":null,"ContactName":null,"ContactEmail":null,"ContactPhone":"386-462-3333","Website":"http:\/\/alachuafarmersmarket.com","Facebook":"http:\/\/www.facebook.com\/alachuafarmersmarket","Twitter":null,"Instagram":null,"Pinterest":null,"Youtube":null,"Blog":null,"Address":"14801 Main Street Alachua, FL 32615 Just 2 blocks from 441. The market is located behind the Chamber of Commerce office at 14801 Main Street Alachua, FL 32615. Parking is right in front of the market","State":"Florida","City":"ALACHUA","Street":"14801 MAIN ST","Zip":"32615","Longitude":"-82.49566620554452","Latitude":"29.790725267553626","Dates":null,"Products":""},{"Type":"farmers market","ModifyDate":"Mar 20th, 2023","Image":"default-farmersmarket-4-3.jpg","ListingID":"309277","Name":"Alico Crossing Market","Description":null,"ContactName":null,"ContactEmail":null,"ContactPhone":"239-333-9906","Website":"http:\/\/www.getucooking.com","Facebook":"http:\/\/www.facebook.com\/AlicoCrossingMarket","Twitter":null,"Instagram":null,"Pinterest":null,"Youtube":null,"Blog":null,"Address":"17051 Jean St. #7 Fort Myers, FL 33967 Corner of Alico Road and Jean St. Alico Road exit 128 off I75 turn west and travel about 1 mile. Market is located on the south side of Alico Road in a Terracott","State":"Florida","City":"FORT MYERS","Street":"17051 JEAN ST","Zip":"33967","Longitude":"-81.82901615376133","Latitude":"26.49186352001724","Dates":null,"Products":""},{"Type":"farmers market","ModifyDate":"Mar 20th, 2023","Image":"default-farmersmarket-4-3.jpg","ListingID":"309278","Name":"Alliance for the Arts Green Market","Description":null,"ContactName":null,"ContactEmail":"greenmarket@artinlee.org","ContactPhone":"239-939-2787","Website":"http:\/\/www.artinlee.org\/visit\/greenmarket\/","Facebook":"https:\/\/www.facebook.com\/AllianceGreenMarket","Twitter":null,"Instagram":null,"Pinterest":null,"Youtube":null,"Blog":null,"Address":"10091 McGregor Blvd., Fort Myers, FL, 33919","State":"Florida","City":"Fort Myers","Street":"10091 McGregor Blvd.","Zip":"33919","Longitude":"-81.89123918376251","Latitude":"26.595347476469303","Dates":null,"Products":""},{"Type":"farmers market","ModifyDate":"Mar 20th, 2023","Image":"default-farmersmarket-4-3.jpg","ListingID":"309279","Name":"Aventura Farmers Market","Description":null,"ContactName":null,"ContactEmail":null,"ContactPhone":null,"Website":"http:\/\/aventuramall.com\/aventura-market\/","Facebook":null,"Twitter":null,"Instagram":null,"Pinterest":null,"Youtube":null,"Blog":null,"Address":"19501 Biscayne Blvd. Aventura, FL 33180 Located on the Lower Level","State":"Florida","City":"AVENTURA","Street":"19501 BISCAYNE BLVD","Zip":"33160","Longitude":"-80.14689529519562","Latitude":"25.95706230064707","Dates":null,"Products":""},{"Type":"farmers market","ModifyDate":"Mar 20th, 2023","Image":"default-farmersmarket-4-3.jpg","ListingID":"309280","Name":"Baker County Farmers' Market, Inc.","Description":null,"ContactName":null,"ContactEmail":null,"ContactPhone":"904-259-6433","Website":null,"Facebook":null,"Twitter":null,"Instagram":null,"Pinterest":null,"Youtube":null,"Blog":null,"Address":"160 West Blvd. Beside Football Stadium Macclenny, FL 32063","State":"Florida","City":"Macclenny","Street":"160 West Blvd.","Zip":"32063","Longitude":"-82.12806300359222","Latitude":"30.28319901334271","Dates":null,"Products":""},{"Type":"farmers market","ModifyDate":"Mar 20th, 2023","Image":"default-farmersmarket-4-3.jpg","ListingID":"309281","Name":"Battens Farmers Market","Description":null,"ContactName":null,"ContactEmail":null,"ContactPhone":"954-990-7820","Website":"https:\/\/www.newbattensfarmersmarket.com\/","Facebook":"https:\/\/www.facebook.com\/#!\/pages\/Battens-Farmers-Market\/100985683329500","Twitter":null,"Instagram":null,"Pinterest":null,"Youtube":null,"Blog":null,"Address":"5151 SW 64th Avenue Davie, FL 33314","State":"Florida","City":"Davie","Street":"5151 SW 64th Avenue","Zip":"33314","Longitude":"-80.23182771193216","Latitude":"26.056719764991787","Dates":null,"Products":""},{"Type":"farmers market","ModifyDate":"Mar 20th, 2023","Image":"default-farmersmarket-4-3.jpg","ListingID":"309282","Name":"Beach Baptist Farmers Market Fort Myers Beach","Description":null,"ContactName":null,"ContactEmail":null,"ContactPhone":null,"Website":"http:\/\/41markets.com","Facebook":"http:\/\/www.facebook.com\/beachbaptistfarmersmarket","Twitter":null,"Instagram":null,"Pinterest":null,"Youtube":null,"Blog":null,"Address":"130 Connecticut Street Fort Myers Beach, FL 33931 Go to the middle of the island on Estero Blvd until you come to Connecticut Street. We are at the First Baptist Church on the corner of both streets.","State":"Florida","City":"FORT MYERS BEACH","Street":"130 CONNECTICUT ST","Zip":"33931","Longitude":"-81.9304132323569","Latitude":"26.443105674275674","Dates":null,"Products":""},{"Type":"farmers market","ModifyDate":"Mar 20th, 2023","Image":"default-farmersmarket-4-3.jpg","ListingID":"309283","Name":"Beaches Green Market","Description":null,"ContactName":null,"ContactEmail":"martin@beacheslocalfoodnetwork.org","ContactPhone":"904-270-0273","Website":"https:\/\/www.beacheslocalfoodnetwork.org\/","Facebook":null,"Twitter":null,"Instagram":null,"Pinterest":null,"Youtube":null,"Blog":null,"Address":"A1A and Florida Boulevard Neptune Beach, FL 32266","State":"Florida","City":"Neptune Beach","Street":"A1A and Florida Boulevard","Zip":"32266","Longitude":"-81.4140849213024","Latitude":"30.31786298465329","Dates":null,"Products":""},{"Type":"farmers market","ModifyDate":"Mar 20th, 2023","Image":"default-farmersmarket-4-3.jpg","ListingID":"309284","Name":"Beaches Green Market","Description":null,"ContactName":null,"ContactEmail":"martin@beacheslocalfoodnetwork.org","ContactPhone":"904-270-0273","Website":"https:\/\/www.beacheslocalfoodnetwork.org\/","Facebook":"https:\/\/www.facebook.com\/beacheslocalfoodnetwork#!\/pages\/Neptune-Beach-FL\/Beaches-Local-Food-Network\/","Twitter":null,"Instagram":null,"Pinterest":null,"Youtube":null,"Blog":null,"Address":"1166 3rd Ave. North Jacksonville Beach, FL 32250","State":"Florida","City":"Jacksonville Beach","Street":"1166 3rd Ave. North","Zip":"32250","Longitude":"-81.40196753258422","Latitude":"30.290634460734726","Dates":null,"Products":""},{"Type":"farmers market","ModifyDate":"Mar 20th, 2023","Image":"default-farmersmarket-4-3.jpg","ListingID":"309285","Name":"Boca Raton GreenMarket","Description":null,"ContactName":null,"ContactEmail":null,"ContactPhone":"561-299-8684","Website":null,"Facebook":null,"Twitter":null,"Instagram":null,"Pinterest":null,"Youtube":null,"Blog":null,"Address":"201 West Palmetto Park Rd (Adjacent to Boca Raton City Hall) Boca Raton, FL 33432","State":"Florida","City":"Boca Raton","Street":"201 West Palmetto Park Rd","Zip":"33432","Longitude":"-80.08994527641171","Latitude":"26.35047429910994","Dates":null,"Products":""},{"Type":"farmers market","ModifyDate":"Mar 20th, 2023","Image":"default-farmersmarket-4-3.jpg","ListingID":"309286","Name":"Bonita Shores Club Farmer's Market","Description":null,"ContactName":null,"ContactEmail":null,"ContactPhone":"239-980-4341","Website":"http:\/\/www.inyoniorganicfarm.store","Facebook":"http:\/\/www.facebook.com\/inyoniorganicfarm","Twitter":null,"Instagram":null,"Pinterest":null,"Youtube":null,"Blog":null,"Address":"315 West Avenue Bonita Springs, FL 34134 This market will begin Wednesday, November 18, 2020! The Bonita Shores Club Farmer's Market will be OUTSIDE in the parking lot of the Club. This market will h","State":"Florida","City":"BONITA SPGS","Street":"315 WEST AVE","Zip":"34134","Longitude":"-81.82713840991123","Latitude":"26.326702416617135","Dates":null,"Products":""},{"Type":"farmers market","ModifyDate":"Mar 20th, 2023","Image":"default-farmersmarket-4-3.jpg","ListingID":"309287","Name":"BTN Lake Nona Farmers' Market","Description":null,"ContactName":null,"ContactEmail":"lakenonafarmersmarket@gmail.com","ContactPhone":null,"Website":null,"Facebook":"https:\/\/www.facebook.com\/LakeNonaFarmersFreshMarket","Twitter":null,"Instagram":null,"Pinterest":null,"Youtube":null,"Blog":null,"Address":"12350 Narcoossee Rd., Valencia College, Orlando, FL, 32832","State":"Florida","City":"Orlando","Street":"12350 Narcoossee Rd","Zip":"32832","Longitude":"-81.24462581918476","Latitude":"28.38212585157524","Dates":null,"Products":""},{"Type":"farmers market","ModifyDate":"Mar 20th, 2023","Image":"default-farmersmarket-4-3.jpg","ListingID":"309288","Name":"Butler Plaza Satellite Market","Description":null,"ContactName":null,"ContactEmail":null,"ContactPhone":"352-371-8236","Website":null,"Facebook":null,"Twitter":null,"Instagram":null,"Pinterest":null,"Youtube":null,"Blog":null,"Address":"3736 SW Archer Road Gainesville, FL 32608","State":"Florida","City":"Gainesville","Street":"3736 SW Archer Road","Zip":"32608","Longitude":"-82.3796131029268","Latitude":"29.620884804703284","Dates":null,"Products":""},{"Type":"farmers market","ModifyDate":"Mar 20th, 2023","Image":"default-farmersmarket-4-3.jpg","ListingID":"309289","Name":"C & L Farms and Market","Description":null,"ContactName":null,"ContactEmail":null,"ContactPhone":"239-357-5952","Website":"https:\/\/www.leeclfarms.com\/","Facebook":"https:\/\/www.facebook.com\/#!\/pages\/C-L-Farms-and-Market\/289773682264","Twitter":null,"Instagram":null,"Pinterest":null,"Youtube":null,"Blog":null,"Address":"20290 Palm Beach Blvd Alva, FL 33920","State":"Florida","City":"Alva","Street":"20290 Palm Beach Blvd","Zip":"33920","Longitude":"-81.62702359334892","Latitude":"26.708485952908404","Dates":null,"Products":""},{"Type":"farmers market","ModifyDate":"Mar 20th, 2023","Image":"default-farmersmarket-4-3.jpg","ListingID":"309290","Name":"Celebration Sunday Farmers' Market","Description":null,"ContactName":null,"ContactEmail":null,"ContactPhone":"407-892-1135","Website":null,"Facebook":null,"Twitter":null,"Instagram":null,"Pinterest":null,"Youtube":null,"Blog":null,"Address":"690 Celebration Avenue Celebration, FL 34747","State":"Florida","City":"Celebration","Street":"690 Celebration Avenue","Zip":"34747","Longitude":"-81.54054171783335","Latitude":"28.31920743979159","Dates":null,"Products":""},{"Type":"farmers market","ModifyDate":"Mar 20th, 2023","Image":"default-farmersmarket-4-3.jpg","ListingID":"309291","Name":"Central Sarasota Farmers Market","Description":null,"ContactName":null,"ContactEmail":null,"ContactPhone":"941-677-0078","Website":"http:\/\/centralsarasotafarmersmarket.com","Facebook":"http:\/\/www.facebook.com\/CentralSarasotaFarmersMarket","Twitter":null,"Instagram":null,"Pinterest":null,"Youtube":null,"Blog":null,"Address":"4748 S Beneva Rd Sarasota, FL 34233","State":"Florida","City":"SARASOTA","Street":"4748 BENEVA RD","Zip":"34233","Longitude":"-82.49756602836854","Latitude":"27.28498972736178","Dates":null,"Products":""},{"Type":"farmers market","ModifyDate":"Mar 20th, 2023","Image":"default-farmersmarket-4-3.jpg","ListingID":"309292","Name":"CHC Farmer's Market","Description":null,"ContactName":null,"ContactEmail":null,"ContactPhone":"305-279-7999","Website":"http:\/\/chcmiami.org","Facebook":null,"Twitter":null,"Instagram":null,"Pinterest":null,"Youtube":null,"Blog":null,"Address":"7991 SW 117th Ave Miami Miami, FL 33183","State":"Florida","City":"MIAMI","Street":"7991 SW 117TH AVE","Zip":"33183","Longitude":"-80.38198768370931","Latitude":"25.693811354716328","Dates":null,"Products":""},{"Type":"farmers market","ModifyDate":"Mar 20th, 2023","Image":"default-farmersmarket-4-3.jpg","ListingID":"309293","Name":"Chiefland Farmer's Market","Description":null,"ContactName":null,"ContactEmail":null,"ContactPhone":"352-493-1849","Website":null,"Facebook":"http:\/\/www.facebook.com\/pages\/Chiefland-Farmers-Market\/1505265436358960?ref=hl","Twitter":null,"Instagram":null,"Pinterest":null,"Youtube":null,"Blog":null,"Address":"23 SE 2nd Avenue Chiefland, FL 32626","State":"Florida","City":"CHIEFLAND","Street":"23 SE 2 AVE, CHIEAND","Zip":"32626","Longitude":"-82.85934044156859","Latitude":"29.477014975285083","Dates":null,"Products":""},{"Type":"farmers market","ModifyDate":"Mar 20th, 2023","Image":"default-farmersmarket-4-3.jpg","ListingID":"309294","Name":"Citrus Hills Farmers Market","Description":null,"ContactName":null,"ContactEmail":null,"ContactPhone":null,"Website":"http:\/\/www.clubhappenings.com","Facebook":null,"Twitter":null,"Instagram":null,"Pinterest":null,"Youtube":null,"Blog":null,"Address":"240 W. Fenway Dr. Hernando, FL 34442","State":"Florida","City":"HERNANDO","Street":"240 W FENWAY DR","Zip":"34442","Longitude":"-82.4396616729325","Latitude":"28.891471198622448","Dates":null,"Products":""},{"Type":"farmers market","ModifyDate":"Mar 20th, 2023","Image":"default-farmersmarket-4-3.jpg","ListingID":"309295","Name":"City Island Farmers' Market","Description":null,"ContactName":null,"ContactEmail":"chamoiscat@msn.com","ContactPhone":"386-671-3272","Website":"http:\/\/www.see-daytonabeach.com\/shopping\/listings\/downtown-farmers-market-on-city-island\/#.Ve7smdLBwXA","Facebook":null,"Twitter":null,"Instagram":null,"Pinterest":null,"Youtube":null,"Blog":null,"Address":"105 E. Orange Ave., Jackie Robinson Stadium Parking Lot, Daytona Beach, FL, 32114","State":"Florida","City":"Daytona Beach","Street":"105 E. Orange Ave","Zip":"32114","Longitude":"-81.01825307148808","Latitude":"29.20806195574425","Dates":null,"Products":""},{"Type":"farmers market","ModifyDate":"Mar 20th, 2023","Image":"default-farmersmarket-4-3.jpg","ListingID":"309296","Name":"Clearwater Downtown Farmers' Market","Description":null,"ContactName":null,"ContactEmail":"pbjfernandez@gmail.com","ContactPhone":"727-461-7674","Website":"http:\/\/www.clearwaterfarmersmarketplace.com\/","Facebook":"https:\/\/www.facebook.com\/CWFarmersMarket","Twitter":null,"Instagram":null,"Pinterest":null,"Youtube":null,"Blog":null,"Address":"500 Block of Cleveland St., Clearwater, FL, 33755","State":"Florida","City":"Clearwater","Street":"500 Block of Cleveland St.","Zip":"33755","Longitude":"-82.79991310826598","Latitude":"27.965628020039613","Dates":null,"Products":""},{"Type":"farmers market","ModifyDate":"Mar 20th, 2023","Image":"default-farmersmarket-4-3.jpg","ListingID":"309297","Name":"Clearwater Gateway Farmers Market","Description":null,"ContactName":null,"ContactEmail":null,"ContactPhone":"727-776-7932","Website":"http:\/\/www.myclearwatermarket.com","Facebook":"http:\/\/www.facebook.com\/ClearwaterGatewayFarmersMarket","Twitter":null,"Instagram":null,"Pinterest":null,"Youtube":null,"Blog":null,"Address":"612 Franklin Street Clearwater, FL 33756","State":"Florida","City":"CLEARWATER","Street":"612 FRANKLIN ST","Zip":"33756","Longitude":"-82.7983628799782","Latitude":"27.962994913111856","Dates":null,"Products":""},{"Type":"farmers market","ModifyDate":"Mar 20th, 2023","Image":"default-farmersmarket-4-3.jpg","ListingID":"309298","Name":"Cocoa Farmers' Market","Description":null,"ContactName":null,"ContactEmail":null,"ContactPhone":"321-917-0721","Website":"https:\/\/www.cocoafarmersmarket.com\/","Facebook":null,"Twitter":null,"Instagram":null,"Pinterest":null,"Youtube":null,"Blog":null,"Address":"605 Florida Avenue Cocoa, FL 32922","State":"Florida","City":"Cocoa","Street":"605 Florida Avenue","Zip":"32922","Longitude":"-80.72776353582337","Latitude":"28.353427496504423","Dates":null,"Products":""},{"Type":"farmers market","ModifyDate":"Mar 20th, 2023","Image":"default-farmersmarket-4-3.jpg","ListingID":"309299","Name":"Coconut Grove Organic Market","Description":null,"ContactName":null,"ContactEmail":"Email not found","ContactPhone":"305-238-7747","Website":"https:\/\/www.glaserorganicfarms.com\/market.php","Facebook":null,"Twitter":null,"Instagram":null,"Pinterest":null,"Youtube":null,"Blog":null,"Address":"3300 Grand Ave., Miami, FL, 33231","State":"Florida","City":"Miami","Street":"3300 Grand Ave.","Zip":"33231","Longitude":"-80.2469014569701","Latitude":"25.727912551147227","Dates":null,"Products":""},{"Type":"farmers market","ModifyDate":"Mar 20th, 2023","Image":"default-farmersmarket-4-3.jpg","ListingID":"309300","Name":"Coconut Point Farmers Market","Description":null,"ContactName":null,"ContactEmail":"Betsy@BuyLocalLee.com","ContactPhone":"239-218-1055","Website":"http:\/\/buylocallee.com\/farmers-markets\/coconut-point\/","Facebook":"https:\/\/www.facebook.com\/CoconutPointFarmersMarket","Twitter":null,"Instagram":null,"Pinterest":null,"Youtube":null,"Blog":null,"Address":"23106 Fashion Dr., Estero, FL, 33928","State":"Florida","City":"Estero","Street":"23106 Fashion Dr.","Zip":"33928","Longitude":"-81.80727775402084","Latitude":"26.40447692527895","Dates":null,"Products":""},{"Type":"farmers market","ModifyDate":"Mar 20th, 2023","Image":"default-farmersmarket-4-3.jpg","ListingID":"309301","Name":"Collier County Government Complex Farmers' Market","Description":null,"ContactName":null,"ContactEmail":"deborah.chesna@flhealth.gov","ContactPhone":"239-252-2594","Website":"http:\/\/collier.ifas.ufl.edu\/Agriculture\/Farmers-Market.shtml","Facebook":null,"Twitter":null,"Instagram":null,"Pinterest":null,"Youtube":null,"Blog":null,"Address":"3335 U.S. 41 E., County Government Complex, (in parking garage), Naples, FL, 34112","State":"Florida","City":"Naples","Street":"3335 U.S. 41 E.","Zip":"34112","Longitude":"-81.76546620609207","Latitude":"26.126465710420366","Dates":null,"Products":""},{"Type":"farmers market","ModifyDate":"Mar 20th, 2023","Image":"default-farmersmarket-4-3.jpg","ListingID":"309302","Name":"Collins Park Sunday Market","Description":null,"ContactName":null,"ContactEmail":null,"ContactPhone":"305-531-0038","Website":"https:\/\/www.themarketcompany.org\/","Facebook":null,"Twitter":null,"Instagram":null,"Pinterest":null,"Youtube":null,"Blog":null,"Address":"Collins Avenue & 22nd Street Miami Beach, FL 33139","State":"Florida","City":"Miami Beach","Street":"Collins Avenue & 22nd Street","Zip":"33139","Longitude":"-80.1283300016673","Latitude":"25.797559994178613","Dates":null,"Products":""},{"Type":"farmers market","ModifyDate":"Mar 20th, 2023","Image":"default-farmersmarket-4-3.jpg","ListingID":"309303","Name":"Coral Gables Farmers Market","Description":null,"ContactName":null,"ContactEmail":null,"ContactPhone":"305-460-5607","Website":"http:\/\/www.coralgables.com","Facebook":null,"Twitter":null,"Instagram":null,"Pinterest":null,"Youtube":null,"Blog":null,"Address":"405 Biltmore Way Coral Gables, FL 33134","State":"Florida","City":"CORAL GABLES","Street":"405 BILTMORE WAY","Zip":"33134","Longitude":"-80.26400482766374","Latitude":"25.748346614139063","Dates":null,"Products":""},{"Type":"farmers market","ModifyDate":"Mar 20th, 2023","Image":"default-farmersmarket-4-3.jpg","ListingID":"309304","Name":"Delray Green Market in the Park","Description":null,"ContactName":null,"ContactEmail":null,"ContactPhone":"561-276-7511","Website":"https:\/\/www.delraycra.org\/","Facebook":null,"Twitter":null,"Instagram":null,"Pinterest":null,"Youtube":null,"Blog":null,"Address":"SE 4th Avenue & Atlantic Avenue Delray Beach, FL 33483","State":"Florida","City":"Delray Beach","Street":"SE 4th Avenue & Atlantic Avenue","Zip":"33483","Longitude":"-80.06905997175214","Latitude":"26.46165998487811","Dates":null,"Products":""},{"Type":"farmers market","ModifyDate":"Mar 20th, 2023","Image":"default-farmersmarket-4-3.jpg","ListingID":"309305","Name":"Doral Farmers' Market","Description":null,"ContactName":null,"ContactEmail":"farmersmarketdoral@gmail.com","ContactPhone":"786-553-6929","Website":"http:\/\/doralmarket.com\/","Facebook":"https:\/\/www.facebook.com\/DoralFarmersMarket","Twitter":null,"Instagram":null,"Pinterest":null,"Youtube":null,"Blog":null,"Address":"9659 NW 41st St., Miami, FL, 33178","State":"Florida","City":"Miami","Street":"9659 NW 41st St.","Zip":"33178","Longitude":"-80.35249082474041","Latitude":"25.811664817217107","Dates":null,"Products":""},{"Type":"farmers market","ModifyDate":"Mar 20th, 2023","Image":"default-farmersmarket-4-3.jpg","ListingID":"309306","Name":"Downtown Clearwater Farmers' Market","Description":null,"ContactName":null,"ContactEmail":"pbjfernandez@gmail.com","ContactPhone":"727-461-7674","Website":"http:\/\/www.clearwaterfarmersmarketplace.com\/","Facebook":"https:\/\/www.facebook.com\/CWFarmersMarket","Twitter":null,"Instagram":null,"Pinterest":null,"Youtube":null,"Blog":null,"Address":"500 Cleveland St., Downtown Clearwater, Clearwater, FL, 33755","State":"Florida","City":"Clearwater","Street":"500 Cleveland St., Downtown","Zip":"33755","Longitude":"-82.79991310826598","Latitude":"27.965628020039613","Dates":null,"Products":""},{"Type":"farmers market","ModifyDate":"Mar 20th, 2023","Image":"default-farmersmarket-4-3.jpg","ListingID":"309307","Name":"Downtown Dadeland Market","Description":null,"ContactName":null,"ContactEmail":null,"ContactPhone":"305-779-3173","Website":"http:\/\/downtowndadeland.com\/","Facebook":"http:\/\/www.facebook.com\/downtowndadelandretail","Twitter":null,"Instagram":null,"Pinterest":null,"Youtube":null,"Blog":null,"Address":"7250 N Kendall Dr Miami, FL 33156 Parking available in the underground parking garage. Three hour parking validation available upon request if you dine at any Downtown Dadeland restaurant.","State":"Florida","City":"MIAMI","Street":"7250 N KENDALL DR","Zip":"33156","Longitude":"-80.3127016432327","Latitude":"25.68872999490318","Dates":null,"Products":""},{"Type":"farmers market","ModifyDate":"Mar 20th, 2023","Image":"default-farmersmarket-4-3.jpg","ListingID":"309308","Name":"Downtown Daytona Beach Farmers' Market","Description":null,"ContactName":null,"ContactEmail":null,"ContactPhone":"386-258-8150","Website":"https:\/\/www.downtowndaytonabeach.com\/","Facebook":null,"Twitter":null,"Instagram":null,"Pinterest":null,"Youtube":null,"Blog":null,"Address":"105 E. Orange Ave Daytona Beach, FL 32114","State":"Florida","City":"Daytona Beach","Street":"105 E. Orange Ave","Zip":"32114","Longitude":"-81.01825307148808","Latitude":"29.20806195574425","Dates":null,"Products":""},{"Type":"farmers market","ModifyDate":"Mar 20th, 2023","Image":"default-farmersmarket-4-3.jpg","ListingID":"309309","Name":"Downtown Farmers' and Produce Market","Description":null,"ContactName":null,"ContactEmail":"allen@downtownmarket.com","ContactPhone":"850-224-3252","Website":"http:\/\/www.downtownmarket.com","Facebook":null,"Twitter":null,"Instagram":null,"Pinterest":null,"Youtube":null,"Blog":null,"Address":"115 E. Park Ave., Tallahassee, FL, 32301","State":"Florida","City":"Tallahassee","Street":"115 E. Park Ave.","Zip":"32301","Longitude":"-84.28172868384266","Latitude":"30.44187403142108","Dates":null,"Products":""},{"Type":"farmers market","ModifyDate":"Mar 20th, 2023","Image":"default-farmersmarket-4-3.jpg","ListingID":"309310","Name":"Downtown Farmers' Curb Market","Description":null,"ContactName":null,"ContactEmail":"DFCMmanager@gmail.com","ContactPhone":"863-944-7907","Website":"http:\/\/farm.lakelanddda.org\/","Facebook":"https:\/\/www.facebook.com\/FarmersCurbMarket","Twitter":null,"Instagram":null,"Pinterest":null,"Youtube":null,"Blog":null,"Address":"200 N. Kentucky Ave., Lakeland, FL, 33801","State":"Florida","City":"Lakeland","Street":"200 N. Kentucky Ave.","Zip":"33801","Longitude":"-81.95520118149612","Latitude":"28.045073498286044","Dates":null,"Products":""},{"Type":"farmers market","ModifyDate":"Mar 20th, 2023","Image":"default-farmersmarket-4-3.jpg","ListingID":"309311","Name":"Downtown Fernandina Beach Market Place","Description":null,"ContactName":null,"ContactEmail":null,"ContactPhone":"904-557-8229","Website":"http:\/\/www.FernandinaBeachMarketPlace.com","Facebook":"http:\/\/www.facebook.com\/FernandinaBeachMarketPlace","Twitter":null,"Instagram":null,"Pinterest":null,"Youtube":null,"Blog":null,"Address":"1 North 7th Street Fernandina Beach, FL 32034","State":"Florida","City":"FERNANDINA BCH","Street":"1 N 7TH ST","Zip":"32034","Longitude":"-81.45940927262336","Latitude":"30.67200651146228","Dates":null,"Products":""},{"Type":"farmers market","ModifyDate":"Mar 20th, 2023","Image":"default-farmersmarket-4-3.jpg","ListingID":"309312","Name":"Downtown Fort Walton Beach Farmers Market","Description":null,"ContactName":null,"ContactEmail":null,"ContactPhone":null,"Website":"http:\/\/www.downtownfwb.com","Facebook":"http:\/\/www.facebook.com\/DowntownFWB","Twitter":null,"Instagram":null,"Pinterest":null,"Youtube":null,"Blog":null,"Address":"201 Miracle Strip Parkway S.E Fort Walton Beach , FL 32548","State":"Florida","City":"FORT WALTON BEACH","Street":"201 MIRACLE STRIP PKWY","Zip":"32548","Longitude":"-86.6049860169203","Latitude":"30.403799009697423","Dates":null,"Products":""},{"Type":"farmers market","ModifyDate":"Mar 20th, 2023","Image":"default-farmersmarket-4-3.jpg","ListingID":"309313","Name":"Downtown Kissimmee Farmers' Market","Description":null,"ContactName":null,"ContactEmail":null,"ContactPhone":"407-892-1135","Website":null,"Facebook":null,"Twitter":null,"Instagram":null,"Pinterest":null,"Youtube":null,"Blog":null,"Address":"Darlington Avenue and Pleasant Street Kissimmee, FL 34741","State":"Florida","City":"Kissimmee","Street":"Darlington Avenue and Pleasant Street","Zip":"34741","Longitude":"-81.40656001000039","Latitude":"28.292180005597032","Dates":null,"Products":""},{"Type":"farmers market","ModifyDate":"Mar 20th, 2023","Image":"default-farmersmarket-4-3.jpg","ListingID":"309314","Name":"Downtown MarketPlace Tallahassee","Description":null,"ContactName":null,"ContactEmail":null,"ContactPhone":"850-224-3252","Website":"http:\/\/tallahasseedowntown.com","Facebook":null,"Twitter":null,"Instagram":null,"Pinterest":null,"Youtube":null,"Blog":null,"Address":"119 E Park Avenue Tallahassee, FL 32301 The Market located between two one-way streets in Downtown Tallahassee that cross Monroe Street. There are giant oak trees hanging over Monroe Street there so i","State":"Florida","City":"TALLAHASSEE","Street":"119 E PARK AVE","Zip":"32301","Longitude":"-84.28168211344772","Latitude":"30.44187262446051","Dates":null,"Products":""},{"Type":"farmers market","ModifyDate":"Mar 20th, 2023","Image":"default-farmersmarket-4-3.jpg","ListingID":"309315","Name":"Downtown Melbourne Farmers' Market","Description":null,"ContactName":null,"ContactEmail":"tcsfoods@yahoo.com","ContactPhone":"321-759-3713","Website":null,"Facebook":"https:\/\/www.facebook.com\/Downtown-Melbourne-Farmers-Market-297894340260585","Twitter":null,"Instagram":null,"Pinterest":null,"Youtube":null,"Blog":null,"Address":"1900 S. Harbor City Blvd., Melbourne, FL, 32901","State":"Florida","City":"Melbourne","Street":"1900 S. Harbor City Blvd.","Zip":"32901","Longitude":"-80.60344385698937","Latitude":"28.079843598479655","Dates":null,"Products":""},{"Type":"farmers market","ModifyDate":"Mar 20th, 2023","Image":"default-farmersmarket-4-3.jpg","ListingID":"309316","Name":"Downtown New Port Richey Market","Description":null,"ContactName":null,"ContactEmail":null,"ContactPhone":"727-842-8066","Website":"https:\/\/www.nprmainstreet.com\/","Facebook":null,"Twitter":null,"Instagram":null,"Pinterest":null,"Youtube":null,"Blog":null,"Address":"Nebraska Avenue & Adams Street New Port Richey, FL 34652","State":"Florida","City":"New Port Richey","Street":"Nebraska Avenue & Adams Street","Zip":"34652","Longitude":"-82.71821998186327","Latitude":"28.249720008228778","Dates":null,"Products":""},{"Type":"farmers market","ModifyDate":"Mar 20th, 2023","Image":"default-farmersmarket-4-3.jpg","ListingID":"309317","Name":"Downtown Vero Green Market","Description":null,"ContactName":null,"ContactEmail":null,"ContactPhone":"772-528-8900","Website":"https:\/\/www.mainstreetverobeach.org\/FarmersMarket.html","Facebook":null,"Twitter":null,"Instagram":null,"Pinterest":null,"Youtube":null,"Blog":null,"Address":"2140 14th Avenue Vero Beach, FL 32960","State":"Florida","City":"Vero Beach","Street":"2140 14th Avenue","Zip":"32960","Longitude":"-80.3993290477722","Latitude":"27.640279296688497","Dates":null,"Products":""},{"Type":"farmers market","ModifyDate":"Mar 20th, 2023","Image":"default-farmersmarket-4-3.jpg","ListingID":"309318","Name":"Dunedin Green Market","Description":null,"ContactName":null,"ContactEmail":null,"ContactPhone":"727-733-4215","Website":null,"Facebook":null,"Twitter":null,"Instagram":null,"Pinterest":null,"Youtube":null,"Blog":null,"Address":"Main Street and Douglas Avenue Dunedin, FL 34698","State":"Florida","City":"Dunedin","Street":"Main Street and Douglas Avenue","Zip":"34698","Longitude":"-82.78790997471097","Latitude":"28.011770014656605","Dates":null,"Products":""},{"Type":"farmers market","ModifyDate":"Mar 20th, 2023","Image":"default-farmersmarket-4-3.jpg","ListingID":"309319","Name":"Eastside Farmers' Market","Description":null,"ContactName":null,"ContactEmail":"eastsidefarmersmarkettlh@gmail.com","ContactPhone":"850-590-2277","Website":null,"Facebook":"https:\/\/www.facebook.com\/eastsidefarmersmarkettallahassee","Twitter":null,"Instagram":null,"Pinterest":null,"Youtube":null,"Blog":null,"Address":"3725 Apalachee Pkwy., Tallahassee, FL, 32311","State":"Florida","City":"Tallahassee","Street":"3725 Apalachee Pkwy.","Zip":"32311","Longitude":"-84.20865203449905","Latitude":"30.427863998537816","Dates":null,"Products":""},{"Type":"farmers market","ModifyDate":"Mar 20th, 2023","Image":"default-farmersmarket-4-3.jpg","ListingID":"309320","Name":"Eau Gallie Farmers' Market","Description":null,"ContactName":null,"ContactEmail":null,"ContactPhone":"321-917-0721","Website":"https:\/\/www.eaugalliefarmersmarket.com\/","Facebook":null,"Twitter":null,"Instagram":null,"Pinterest":null,"Youtube":null,"Blog":null,"Address":"Eau Gallie Boulevard and Highland Avenue Melbourne, FL 32935","State":"Florida","City":"Melbourne","Street":"Eau Gallie Boulevard and Highland Avenue","Zip":"32935","Longitude":"-80.62707997887725","Latitude":"28.13040998677276","Dates":null,"Products":""},{"Type":"farmers market","ModifyDate":"Mar 20th, 2023","Image":"default-farmersmarket-4-3.jpg","ListingID":"309321","Name":"Ellenville's Moonlit Farmers Market","Description":null,"ContactName":null,"ContactEmail":null,"ContactPhone":"561-245-7347","Website":null,"Facebook":null,"Twitter":null,"Instagram":null,"Pinterest":null,"Youtube":null,"Blog":null,"Address":"220 NE 11th St Boca Raton, FL 33432","State":"Florida","City":"BOCA RATON","Street":"220 NE 11TH ST","Zip":"33432","Longitude":"-80.08282663345304","Latitude":"26.360603098720848","Dates":null,"Products":""},{"Type":"farmers market","ModifyDate":"Mar 20th, 2023","Image":"default-farmersmarket-4-3.jpg","ListingID":"309322","Name":"Evans Center Farmers Market","Description":null,"ContactName":null,"ContactEmail":null,"ContactPhone":"562-234-2244","Website":"http:\/\/evanscenter.org\/?page_id=687","Facebook":"http:\/\/www.facebook.com\/EvansCenter\/","Twitter":null,"Instagram":null,"Pinterest":null,"Youtube":null,"Blog":null,"Address":"1361 Florida Ave. NE Palm bay, FL 32905 Across from LIPSCOMB PARK","State":"Florida","City":"PALM BAY","Street":"1361 ORIDA AVE NE","Zip":"32905","Longitude":"-80.59912079566811","Latitude":"28.05650534955593","Dates":null,"Products":""},{"Type":"farmers market","ModifyDate":"Mar 20th, 2023","Image":"default-farmersmarket-4-3.jpg","ListingID":"309323","Name":"Farmers' Market @ Hoover's Market","Description":null,"ContactName":null,"ContactEmail":null,"ContactPhone":"407-869-0000","Website":"http:\/\/www.hooversmarket.com\/","Facebook":null,"Twitter":null,"Instagram":null,"Pinterest":null,"Youtube":null,"Blog":null,"Address":"1035 Academy Dr., Hoover's Market, Altamonte Springs, FL, 32714","State":"Florida","City":"Altamonte Springs","Street":"1035 Academy Dr., Hoover's Market","Zip":"32714","Longitude":"-81.43101899019956","Latitude":"28.666051988800078","Dates":null,"Products":""},{"Type":"farmers market","ModifyDate":"Mar 20th, 2023","Image":"default-farmersmarket-4-3.jpg","ListingID":"309324","Name":"Farmers' Market Oceanside","Description":null,"ContactName":null,"ContactEmail":"info@verobeachoba.com","ContactPhone":"772-532-2455","Website":"http:\/\/www.verobeachoba.com\/#!farmers-market\/cev","Facebook":"https:\/\/www.facebook.com\/pages\/Farmers-Market-Oceanside-Vero-Beach\/152887738074704","Twitter":null,"Instagram":null,"Pinterest":null,"Youtube":null,"Blog":null,"Address":"Corner of Ocean Dr. and Dahlia Ln., Vero Beach, FL, 32963","State":"Florida","City":"Vero Beach","Street":"Ocean Dr. and Dahlia Ln.","Zip":"32963","Longitude":"-80.35547002235216","Latitude":"27.649650004529235","Dates":null,"Products":""},{"Type":"farmers market","ModifyDate":"Mar 20th, 2023","Image":"default-farmersmarket-4-3.jpg","ListingID":"309325","Name":"Farmers Market of San Marco","Description":null,"ContactName":null,"ContactEmail":null,"ContactPhone":null,"Website":null,"Facebook":"http:\/\/www.facebook.com\/pages\/Farmers-Market-of-San-Marco\/226953507362506","Twitter":null,"Instagram":null,"Pinterest":null,"Youtube":null,"Blog":null,"Address":"1620 Naldo Ave, Corner of LaSalle and Hendricks behind Regions Bank Jacksonville , FL 32207","State":"Florida","City":"JACKSONVILLE","Street":"1620 NALDO AVE","Zip":"32207","Longitude":"-81.65582116084995","Latitude":"30.30842535535048","Dates":null,"Products":""},{"Type":"farmers market","ModifyDate":"Mar 20th, 2023","Image":"default-farmersmarket-4-3.jpg","ListingID":"309326","Name":"Fatto a Mano ArtWalk Market","Description":null,"ContactName":null,"ContactEmail":null,"ContactPhone":"954-394-2970","Website":null,"Facebook":"http:\/\/www.facebook.com\/BrowardEventsInc","Twitter":null,"Instagram":null,"Pinterest":null,"Youtube":null,"Blog":null,"Address":"3355 NE 33rd St. Fort Lauderdale, FL 33308 Take Oakland Park Blvd East to A1A and make a left. Go about 1 block to 33rd St and make a left into the North Beach Restaurants & Shoppes Plaza. You have ar","State":"Florida","City":"FORT LAUDERDALE","Street":"3355 NE 33RD ST","Zip":"33308","Longitude":"-80.10104743198352","Latitude":"26.169076929253393","Dates":null,"Products":""},{"Type":"farmers market","ModifyDate":"Mar 20th, 2023","Image":"default-farmersmarket-4-3.jpg","ListingID":"309327","Name":"Fellsmere Farmers Market and Mercado","Description":null,"ContactName":null,"ContactEmail":null,"ContactPhone":"772-413-1784","Website":null,"Facebook":"http:\/\/www.facebook.com\/FellsmereFarmersMarketandMercado","Twitter":null,"Instagram":null,"Pinterest":null,"Youtube":null,"Blog":null,"Address":"22 S. Orange Street Fellsmere, FL 32948","State":"Florida","City":"FELLSMERE","Street":"22 S ORANGE ST","Zip":"32948","Longitude":"-80.60249267143398","Latitude":"27.765794937944207","Dates":null,"Products":""},{"Type":"farmers market","ModifyDate":"Mar 20th, 2023","Image":"default-farmersmarket-4-3.jpg","ListingID":"309328","Name":"Fellsmere Fresh Farmers' Market","Description":null,"ContactName":null,"ContactEmail":"info@fellsmerefreshmarket.com","ContactPhone":"772-925-8186","Website":"http:\/\/www.flaquaculture.com","Facebook":"http:\/\/www.facebook.com\/fellsmerefreshmarket","Twitter":null,"Instagram":null,"Pinterest":null,"Youtube":null,"Blog":null,"Address":"32 N. Broadway St., Fellsmere, FL, 32948","State":"Florida","City":"Fellsmere","Street":"32 N. Broadway St.","Zip":"32948","Longitude":"-80.6012132399274","Latitude":"27.770834174954548","Dates":null,"Products":""},{"Type":"farmers market","ModifyDate":"Mar 20th, 2023","Image":"default-farmersmarket-4-3.jpg","ListingID":"309329","Name":"Fernandina Beach Market Place","Description":null,"ContactName":null,"ContactEmail":"info@fernandinabeachmarketplace.com","ContactPhone":"904-557-8229","Website":"http:\/\/fernandinabeachmarketplace.com\/","Facebook":"https:\/\/www.facebook.com\/FernandinaBeachMarketPlace","Twitter":null,"Instagram":null,"Pinterest":null,"Youtube":null,"Blog":null,"Address":"N. 7th St., Fernandina Beach, FL, 32034","State":"Florida","City":"Fernandina Beach","Street":"N. 7th St.","Zip":"32034","Longitude":"-81.45942279611664","Latitude":"30.672093589892125","Dates":null,"Products":""},{"Type":"farmers market","ModifyDate":"Mar 20th, 2023","Image":"default-farmersmarket-4-3.jpg","ListingID":"309330","Name":"Festival Bay Farmers' Market","Description":null,"ContactName":null,"ContactEmail":null,"ContactPhone":"407-296-5882","Website":"https:\/\/www.festivalbayfarmersmarket.com\/","Facebook":null,"Twitter":null,"Instagram":null,"Pinterest":null,"Youtube":null,"Blog":null,"Address":"5260 International Drive Orlando, FL 32819","State":"Florida","City":"Orlando","Street":"5260 International Drive","Zip":"32819","Longitude":"-81.45040369329743","Latitude":"28.467039176914493","Dates":null,"Products":""},{"Type":"farmers market","ModifyDate":"Mar 20th, 2023","Image":"default-farmersmarket-4-3.jpg","ListingID":"309331","Name":"Flagler Beach Farmers' Market","Description":null,"ContactName":null,"ContactEmail":null,"ContactPhone":"386-439-2881","Website":"https:\/\/www.flaglerbeachfarmersmarket.com\/","Facebook":null,"Twitter":null,"Instagram":null,"Pinterest":null,"Youtube":null,"Blog":null,"Address":"111 South Central Avenue Flagler Beach, FL 32136","State":"Florida","City":"Flagler Beach","Street":"111 South Central Avenue","Zip":"32136","Longitude":"-81.12833150131569","Latitude":"29.480813034623008","Dates":null,"Products":""},{"Type":"farmers market","ModifyDate":"Mar 20th, 2023","Image":"default-farmersmarket-4-3.jpg","ListingID":"309332","Name":"Flamingo Road Nursery and Farmers Market","Description":null,"ContactName":null,"ContactEmail":null,"ContactPhone":"954-476-7878","Website":"http:\/\/flamingoroadnursery.com","Facebook":null,"Twitter":null,"Instagram":null,"Pinterest":null,"Youtube":null,"Blog":null,"Address":"1655 S. Flamingo Road Davie, FL 33325","State":"Florida","City":"DAVIE","Street":"1655 S AMINGO RD","Zip":"33325","Longitude":"-80.31382100019096","Latitude":"26.099327782881346","Dates":null,"Products":""},{"Type":"farmers market","ModifyDate":"Mar 20th, 2023","Image":"default-farmersmarket-4-3.jpg","ListingID":"309333","Name":"Florida City State Farmers' Market","Description":null,"ContactName":null,"ContactEmail":null,"ContactPhone":"305-246-6334","Website":null,"Facebook":null,"Twitter":null,"Instagram":null,"Pinterest":null,"Youtube":null,"Blog":null,"Address":"300 North Krome Avenue Florida City, FL 33034","State":"Florida","City":"Florida City","Street":"300 North Krome Avenue","Zip":"33034","Longitude":"-80.47858199126952","Latitude":"25.45191997916062","Dates":null,"Products":""},{"Type":"farmers market","ModifyDate":"Mar 20th, 2023","Image":"default-farmersmarket-4-3.jpg","ListingID":"309334","Name":"Fort Myers Beach Farmers' Market","Description":null,"ContactName":null,"ContactEmail":"timessquarefmb@aol.com","ContactPhone":"239-765-4222","Website":"http:\/\/www.fortmyersbeachfl.gov\/index.aspx?nid=113","Facebook":null,"Twitter":null,"Instagram":null,"Pinterest":null,"Youtube":null,"Blog":null,"Address":"2731 Oak St. , Fort Myers Beach, FL, 33931","State":"Florida","City":"Fort Myers Beach","Street":"2731 Oak St.","Zip":"33931","Longitude":"-81.94006398701823","Latitude":"26.44881709600291","Dates":null,"Products":""},{"Type":"farmers market","ModifyDate":"Mar 20th, 2023","Image":"default-farmersmarket-4-3.jpg","ListingID":"309335","Name":"Fort Myers Downtown Farmers' Market","Description":null,"ContactName":null,"ContactEmail":"breed@cityftmyers.com","ContactPhone":"239-321-7098","Website":"https:\/\/cityftmyers.com\/","Facebook":null,"Twitter":null,"Instagram":null,"Pinterest":null,"Youtube":null,"Blog":null,"Address":"Heitman and West First Street Fort Myers, FL 33901","State":"Florida","City":"Fort Myers","Street":"Heitman and West First Street","Zip":"33901","Longitude":"-81.87271997419778","Latitude":"26.642769987994228","Dates":null,"Products":""},{"Type":"farmers market","ModifyDate":"Mar 20th, 2023","Image":"default-farmersmarket-4-3.jpg","ListingID":"309336","Name":"Fort Pierce Farmers' Market","Description":null,"ContactName":null,"ContactEmail":"dfpfarmersmarket@yahoo.com","ContactPhone":"772-940-1145","Website":"http:\/\/www.ftpiercefarmersmarket.com","Facebook":"https:\/\/www.facebook.com\/pages\/Fort-Pierce-Farmers-Market\/108901045802350","Twitter":null,"Instagram":null,"Pinterest":null,"Youtube":null,"Blog":null,"Address":"101 Melody Ln., along the Indian River Lagoon in Historic Downtown Fort Pierce , Fort Pierce, FL, 34950","State":"Florida","City":"Fort Pierce","Street":"101 Melody Ln.","Zip":"34950","Longitude":"-80.32213603161375","Latitude":"27.44831099056094","Dates":null,"Products":""},{"Type":"farmers market","ModifyDate":"Mar 20th, 2023","Image":"default-farmersmarket-4-3.jpg","ListingID":"309337","Name":"Fort Pierce State Farmers' Market","Description":null,"ContactName":null,"ContactEmail":null,"ContactPhone":"772-468-3917","Website":"https:\/\/www.florida-agriculture.com\/marketing\/markets\/fortpierce_market.htm","Facebook":null,"Twitter":null,"Instagram":null,"Pinterest":null,"Youtube":null,"Blog":null,"Address":"3479 South Federal Highway 1 Fort Pierce, FL 34982","State":"Florida","City":"Fort Pierce","Street":"3479 South Federal Highway 1","Zip":"34982","Longitude":"-80.32570834453077","Latitude":"27.39676442621992","Dates":null,"Products":""},{"Type":"farmers market","ModifyDate":"Mar 20th, 2023","Image":"default-farmersmarket-4-3.jpg","ListingID":"309338","Name":"Founders Corner Fresh Market","Description":null,"ContactName":null,"ContactEmail":"founderscornerfreshmarket@gmail.com","ContactPhone":"727-330-8166","Website":null,"Facebook":"https:\/\/www.facebook.com\/FridayMarketFoundersCorner","Twitter":null,"Instagram":null,"Pinterest":null,"Youtube":null,"Blog":null,"Address":"431 Southwest Blvd. N., Saint Petersburg, FL, 33703","State":"Florida","City":"Saint Petersburg","Street":"431 Southwest Blvd. N.","Zip":"33703","Longitude":"-82.63993265191455","Latitude":"27.827468525702415","Dates":null,"Products":""},{"Type":"farmers market","ModifyDate":"Mar 20th, 2023","Image":"default-farmersmarket-4-3.jpg","ListingID":"309339","Name":"Four Corners Market","Description":null,"ContactName":null,"ContactEmail":null,"ContactPhone":"352-563-0374","Website":null,"Facebook":"http:\/\/www.facebook.com\/fourcournersmarket","Twitter":null,"Instagram":null,"Pinterest":null,"Youtube":null,"Blog":null,"Address":"9895 N. Citrus Ave Crystal River, FL 34429","State":"Florida","City":"CRYSTAL RIVER","Street":"9895 N CITRUS AVE","Zip":"34428","Longitude":"-82.56938960848404","Latitude":"29.006324201453282","Dates":null,"Products":""},{"Type":"farmers market","ModifyDate":"Mar 20th, 2023","Image":"default-farmersmarket-4-3.jpg","ListingID":"309340","Name":"Frenchtown Heritage Market Place","Description":null,"ContactName":null,"ContactEmail":"frenchtownmarketplace@gmail.com","ContactPhone":null,"Website":"http:\/\/www.frenchtownheritage.org\/","Facebook":"https:\/\/www.facebook.com\/tallyfrenchtownmarket","Twitter":null,"Instagram":null,"Pinterest":null,"Youtube":null,"Blog":null,"Address":"Georgia St. & Macomb St. , Tallahassee, FL, 32301","State":"Florida","City":"Tallahassee","Street":"Georgia St. & Macomb St.","Zip":"32301","Longitude":"-84.28856996087757","Latitude":"30.447989995799958","Dates":null,"Products":""},{"Type":"farmers market","ModifyDate":"Mar 20th, 2023","Image":"default-farmersmarket-4-3.jpg","ListingID":"309341","Name":"Fresh Friday Night Farmers' Market & Art","Description":null,"ContactName":null,"ContactEmail":null,"ContactPhone":"727-842-8066","Website":"http:\/\/www.nprmainstreet.com","Facebook":null,"Twitter":null,"Instagram":null,"Pinterest":null,"Youtube":null,"Blog":null,"Address":"6231 Grand Blvd New Port Richey, FL 34652","State":"Florida","City":"NEW PORT RICHEY","Street":"6231 GRAND BLVD","Zip":"34652","Longitude":"-82.71958647158168","Latitude":"28.249292078442902","Dates":null,"Products":""},{"Type":"farmers market","ModifyDate":"Mar 20th, 2023","Image":"default-farmersmarket-4-3.jpg","ListingID":"309342","Name":"Fresh Market at Wiregrass","Description":null,"ContactName":null,"ContactEmail":"tampabaymarkets@gmail.com","ContactPhone":null,"Website":"http:\/\/tampabaymarkets.com\/fresh-market-at-the-shops-at-wiregrass","Facebook":"https:\/\/www.facebook.com\/TampaBayMarkets","Twitter":null,"Instagram":null,"Pinterest":null,"Youtube":null,"Blog":null,"Address":"28211 Paseo Dr., Wesley Chapel, FL, 33543","State":"Florida","City":"Wesley Chapel","Street":"28211 Paseo Dr.","Zip":"33543","Longitude":"-82.35002803725658","Latitude":"28.18866501012289","Dates":null,"Products":""},{"Type":"farmers market","ModifyDate":"Mar 20th, 2023","Image":"default-farmersmarket-4-3.jpg","ListingID":"309343","Name":"Fusion Miami Church Farmer's Market","Description":null,"ContactName":null,"ContactEmail":null,"ContactPhone":"707-797-7458","Website":"http:\/\/www.fusionmiamichurch.com","Facebook":null,"Twitter":null,"Instagram":null,"Pinterest":null,"Youtube":null,"Blog":null,"Address":"16325 SW 288 Street Homestead, FL 33033 ONCE A YEAR EVENT... FARMER'S MARKET AND COMMUNITY YARD SALE HAPPENING THIS SATURDAY JUNE 13TH FROM 7AM TO NOON.","State":"Florida","City":"HOMESTEAD","Street":"16325 SW 288TH ST","Zip":"33033","Longitude":"-80.45646170257123","Latitude":"25.49927746289565","Dates":null,"Products":""},{"Type":"farmers market","ModifyDate":"Mar 20th, 2023","Image":"default-farmersmarket-4-3.jpg","ListingID":"309344","Name":"Gadsden State Farmers' Market","Description":null,"ContactName":null,"ContactEmail":null,"ContactPhone":"850-627-6484","Website":"https:\/\/www.florida-agriculture.com\/marketing\/markets\/gadsden_market.htm","Facebook":null,"Twitter":null,"Instagram":null,"Pinterest":null,"Youtube":null,"Blog":null,"Address":"18212 Blue Star Highway Quincy, FL 32351","State":"Florida","City":"Quincy","Street":"18212 Blue Star Highway","Zip":"32351","Longitude":"-84.62377172597347","Latitude":"30.58866303180208","Dates":null,"Products":""},{"Type":"farmers market","ModifyDate":"Mar 20th, 2023","Image":"default-farmersmarket-4-3.jpg","ListingID":"309345","Name":"Good Neighbors Famers' Market","Description":null,"ContactName":null,"ContactEmail":"info@goodneighborsmarket.com","ContactPhone":null,"Website":"http:\/\/www.goodneighborsmarket.com","Facebook":"https:\/\/www.facebook.com\/GoodNeighborsFarmersMarket","Twitter":null,"Instagram":null,"Pinterest":null,"Youtube":null,"Blog":null,"Address":"1101 Lloyds Ln., Oviedo, FL, 32765","State":"Florida","City":"Oviedo","Street":"1101 Lloyds Ln.","Zip":"32765","Longitude":"-81.25411343108168","Latitude":"28.65624137348935","Dates":null,"Products":""},{"Type":"farmers market","ModifyDate":"Mar 20th, 2023","Image":"default-farmersmarket-4-3.jpg","ListingID":"309346","Name":"Green Cove Springs Farmers Market","Description":null,"ContactName":null,"ContactEmail":null,"ContactPhone":"904-657-1268","Website":"https:\/\/www.greencovespringsfarmersmarket.com\/","Facebook":null,"Twitter":null,"Instagram":null,"Pinterest":null,"Youtube":null,"Blog":null,"Address":"825 N Orange Avenue Green Cove Springs, FL 32043","State":"Florida","City":"Green Cove Springs","Street":"825 N Orange Avenue","Zip":"32043","Longitude":"-81.68544607163807","Latitude":"30.002531456433097","Dates":null,"Products":""},{"Type":"farmers market","ModifyDate":"Mar 20th, 2023","Image":"default-farmersmarket-4-3.jpg","ListingID":"309347","Name":"Growers' Market at Purple Martin Nurseries, Inc.","Description":null,"ContactName":null,"ContactEmail":null,"ContactPhone":"850-926-8335","Website":"https:\/\/purplemartinnurseries.com\/","Facebook":null,"Twitter":null,"Instagram":null,"Pinterest":null,"Youtube":null,"Blog":null,"Address":"1554 Crawfordville Highway Crawfordville, FL 32327","State":"Florida","City":"Crawfordville","Street":"1554 Crawfordville Highway","Zip":"32327","Longitude":"-84.36241247017888","Latitude":"30.23951243511732","Dates":null,"Products":""},{"Type":"farmers market","ModifyDate":"Mar 20th, 2023","Image":"default-farmersmarket-4-3.jpg","ListingID":"309348","Name":"Gulfport Tuesday Fresh Market","Description":null,"ContactName":null,"ContactEmail":"FreshMarket@GulfportMA.com","ContactPhone":"727-453-9093","Website":"http:\/\/www.gulfportma.com\/gma-events\/tuesday-fresh-market","Facebook":"https:\/\/www.facebook.com\/gulfportfreshmarket","Twitter":null,"Instagram":null,"Pinterest":null,"Youtube":null,"Blog":null,"Address":"3000 Beach Blvd. S., Gulfport, FL, 33707","State":"Florida","City":"Gulfport","Street":"3000 Beach Blvd. S.","Zip":"33707","Longitude":"-82.7078155618409","Latitude":"27.740092601654975","Dates":null,"Products":""},{"Type":"farmers market","ModifyDate":"Mar 20th, 2023","Image":"default-farmersmarket-4-3.jpg","ListingID":"309349","Name":"Harvest Time Market","Description":null,"ContactName":null,"ContactEmail":null,"ContactPhone":"561-641-6199","Website":null,"Facebook":null,"Twitter":null,"Instagram":null,"Pinterest":null,"Youtube":null,"Blog":null,"Address":"4361 Hypoluxo Road Lake Worth, FL 33463","State":"Florida","City":"LAKE WORTH","Street":"4361 HYPOLUXO RD","Zip":"33462","Longitude":"-80.11154488271825","Latitude":"26.571971700365463","Dates":null,"Products":""},{"Type":"farmers market","ModifyDate":"Mar 20th, 2023","Image":"default-farmersmarket-4-3.jpg","ListingID":"309350","Name":"\"\"Health Happens\"\" Farmers' Market","Description":null,"ContactName":null,"ContactEmail":"wellness@marioncountyfl.org","ContactPhone":"352-438-2360","Website":null,"Facebook":"https:\/\/www.facebook.com\/HealthHappensFarmersMarket","Twitter":null,"Instagram":null,"Pinterest":null,"Youtube":null,"Blog":null,"Address":"601 SE 25th Ave., McPherson Governmental Complex, Ocala, FL, 34471","State":"Florida","City":"Ocala","Street":"601 SE 25th Ave","Zip":"34471","Longitude":"-82.1031857776964","Latitude":"29.182035451573586","Dates":null,"Products":""},{"Type":"farmers market","ModifyDate":"Mar 20th, 2023","Image":"default-farmersmarket-4-3.jpg","ListingID":"309351","Name":"Heart of Christmas Farmer's Market","Description":null,"ContactName":null,"ContactEmail":null,"ContactPhone":"407-512-2004","Website":null,"Facebook":"http:\/\/www.facebook.com\/hocfarms","Twitter":null,"Instagram":null,"Pinterest":null,"Youtube":null,"Blog":null,"Address":"21310 Fort Christmas Road Christmas, FL 32709","State":"Florida","City":"CHRISTMAS","Street":"21310 FORT RD","Zip":"32709","Longitude":"-81.05924222113975","Latitude":"28.57956688325238","Dates":null,"Products":""},{"Type":"farmers market","ModifyDate":"Mar 20th, 2023","Image":"default-farmersmarket-4-3.jpg","ListingID":"309352","Name":"Hemming Park Green Market","Description":null,"ContactName":null,"ContactEmail":"Hemmininggreenmarket@gmail.com","ContactPhone":"904-254-5472","Website":null,"Facebook":"https:\/\/www.facebook.com\/HPGMarket","Twitter":null,"Instagram":null,"Pinterest":null,"Youtube":null,"Blog":null,"Address":"117 W. Duval St., Jacksonville, FL, 32202","State":"Florida","City":"Jacksonville","Street":"117 W. Duval St.","Zip":"32202","Longitude":"-81.6588354551695","Latitude":"30.329633036525646","Dates":null,"Products":""},{"Type":"farmers market","ModifyDate":"Mar 20th, 2023","Image":"default-farmersmarket-4-3.jpg","ListingID":"309353","Name":"Hemming Plaza Farmers' Market","Description":null,"ContactName":null,"ContactEmail":null,"ContactPhone":"904-874-9418","Website":null,"Facebook":null,"Twitter":null,"Instagram":null,"Pinterest":null,"Youtube":null,"Blog":null,"Address":"Monroe and North Hogan Streets Jacksonville, FL 32202","State":"Florida","City":"Jacksonville","Street":"Monroe and North Hogan Streets","Zip":"32202","Longitude":"-81.65996003041974","Latitude":"30.329090017047292","Dates":null,"Products":""},{"Type":"farmers market","ModifyDate":"Mar 20th, 2023","Image":"default-farmersmarket-4-3.jpg","ListingID":"309354","Name":"Hernando County Farmers Market","Description":null,"ContactName":null,"ContactEmail":"jamesscastillo900@outlook.com","ContactPhone":"352-232-4241","Website":"https:\/\/hernandocountyfarmersmarket.webs.com\/","Facebook":"https:\/\/www.facebook.com\/HCFarmersMarket","Twitter":null,"Instagram":null,"Pinterest":null,"Youtube":null,"Blog":null,"Address":"2450 US 19 Spring Hill, FL 34606","State":"Florida","City":"Spring Hill","Street":"2450 US 19","Zip":"34606","Longitude":"-82.61981759994268","Latitude":"28.468685341931785","Dates":null,"Products":""},{"Type":"farmers market","ModifyDate":"Mar 20th, 2023","Image":"default-farmersmarket-4-3.jpg","ListingID":"309355","Name":"Homestead Harvest Market & Cafe","Description":null,"ContactName":null,"ContactEmail":null,"ContactPhone":"786-548-3733","Website":"https:\/\/harvestmarkets.org\/","Facebook":"https:\/\/www.facebook.com\/pages\/Homestead-Harvest-Market-Cafe\/156163524460541?ref=ts","Twitter":null,"Instagram":null,"Pinterest":null,"Youtube":null,"Blog":null,"Address":"12690 SW 280 Street Homestead, FL 33033","State":"Florida","City":"Homestead","Street":"12690 SW 280 Street","Zip":"33033","Longitude":"-80.39458098839717","Latitude":"25.50636299676559","Dates":null,"Products":""},{"Type":"farmers market","ModifyDate":"Mar 20th, 2023","Image":"default-farmersmarket-4-3.jpg","ListingID":"309356","Name":"Hunter's Creek Farmers Market","Description":null,"ContactName":null,"ContactEmail":null,"ContactPhone":"407-721-6748","Website":null,"Facebook":"http:\/\/www.facebook.com\/Hunter'sCreekFarmersMarket","Twitter":null,"Instagram":null,"Pinterest":null,"Youtube":null,"Blog":null,"Address":"13502 Town Loop Blvd Orlando, FL 32837","State":"Florida","City":"ORLANDO","Street":"13502 TOWN LOOP BLVD","Zip":"32837","Longitude":"-81.43097546689822","Latitude":"28.36436104864935","Dates":null,"Products":""},{"Type":"farmers market","ModifyDate":"Mar 20th, 2023","Image":"default-farmersmarket-4-3.jpg","ListingID":"309357","Name":"immokalee state farmers' market","Description":null,"ContactName":null,"ContactEmail":null,"ContactPhone":"239-658-3505","Website":null,"Facebook":null,"Twitter":null,"Instagram":null,"Pinterest":null,"Youtube":null,"Blog":null,"Address":"424 east new market road Immokalee, FL 34142","State":"Florida","City":"Immokalee","Street":"424 east new market road","Zip":"34142","Longitude":"-81.41142997956436","Latitude":"26.42423600257571","Dates":null,"Products":""},{"Type":"farmers market","ModifyDate":"Mar 20th, 2023","Image":"default-farmersmarket-4-3.jpg","ListingID":"309358","Name":"Indian River Farmers Market","Description":null,"ContactName":null,"ContactEmail":null,"ContactPhone":"772-581-5688","Website":null,"Facebook":null,"Twitter":null,"Instagram":null,"Pinterest":null,"Youtube":null,"Blog":null,"Address":"455 58th Ave SW. Vero Beach, FL 32968","State":"Florida","City":"VERO BEACH","Street":"455 58TH AVE SW","Zip":"32968","Longitude":"-80.44724461239032","Latitude":"27.597601176025417","Dates":null,"Products":""},{"Type":"farmers market","ModifyDate":"Mar 20th, 2023","Image":"default-farmersmarket-4-3.jpg","ListingID":"309359","Name":"Indian Shores Sunday Morning Market","Description":null,"ContactName":null,"ContactEmail":"thebeachmarkets@gmail.com","ContactPhone":"800-992-9023","Website":"http:\/\/www.thebeachmarkets.com\/","Facebook":"https:\/\/www.facebook.com\/IndianShoresSundayMarket","Twitter":null,"Instagram":null,"Pinterest":null,"Youtube":null,"Blog":null,"Address":"19305 Gulf Blvd., Indian Shores, FL, 33785","State":"Florida","City":"Indian Shores","Street":"19305 Gulf Blvd.","Zip":"33785","Longitude":"-82.84317564420658","Latitude":"27.847922957306903","Dates":null,"Products":""},{"Type":"farmers market","ModifyDate":"Mar 20th, 2023","Image":"default-farmersmarket-4-3.jpg","ListingID":"309360","Name":"Inverness Farmers Market","Description":null,"ContactName":null,"ContactEmail":null,"ContactPhone":"352-341-2777","Website":"http:\/\/invernessfarmersmarket.com","Facebook":null,"Twitter":null,"Instagram":null,"Pinterest":null,"Youtube":null,"Blog":null,"Address":"212 W Main St Inverness, FL 34450","State":"Florida","City":"INVERNESS","Street":"212 W MAIN ST","Zip":"34450","Longitude":"-82.33171031602122","Latitude":"28.83555513837771","Dates":null,"Products":""},{"Type":"farmers market","ModifyDate":"Mar 20th, 2023","Image":"default-farmersmarket-4-3.jpg","ListingID":"309361","Name":"Jackson County Farmers' Market","Description":null,"ContactName":null,"ContactEmail":null,"ContactPhone":"850-272-0828","Website":null,"Facebook":null,"Twitter":null,"Instagram":null,"Pinterest":null,"Youtube":null,"Blog":null,"Address":"Madison Street and Jackson Street Marianna, FL 32448","State":"Florida","City":"Marianna","Street":"Madison Street and Jackson Street","Zip":"32448","Longitude":"-85.22566003036948","Latitude":"30.77303001693126","Dates":null,"Products":""},{"Type":"farmers market","ModifyDate":"Mar 20th, 2023","Image":"default-farmersmarket-4-3.jpg","ListingID":"309362","Name":"Jackson Memorial Foundation Green Market","Description":null,"ContactName":null,"ContactEmail":null,"ContactPhone":"305-531-0038","Website":"https:\/\/www.themarketcompany.org\/","Facebook":null,"Twitter":null,"Instagram":null,"Pinterest":null,"Youtube":null,"Blog":null,"Address":"1611 NW 12th Avenue Miami, FL 33136","State":"Florida","City":"Miami","Street":"1611 NW 12th Avenue","Zip":"33136","Longitude":"-80.21269897008906","Latitude":"25.79193800026175","Dates":null,"Products":""},{"Type":"farmers market","ModifyDate":"Mar 20th, 2023","Image":"default-farmersmarket-4-3.jpg","ListingID":"309363","Name":"Johnson's Family Flea and Farmers Market","Description":null,"ContactName":null,"ContactEmail":null,"ContactPhone":"904-695-9979","Website":"https:\/\/www.johnsonsfamilyfleamarket.com\/","Facebook":null,"Twitter":null,"Instagram":null,"Pinterest":null,"Youtube":null,"Blog":null,"Address":"5800 Ramona Boulevard Jacksonville, FL 32205","State":"Florida","City":"Jacksonville","Street":"5800 Ramona Boulevard","Zip":"32205","Longitude":"-81.74710059960393","Latitude":"30.314121643705395","Dates":null,"Products":""},{"Type":"farmers market","ModifyDate":"Mar 20th, 2023","Image":"default-farmersmarket-4-3.jpg","ListingID":"309364","Name":"Jupiter Green and Artisan Market","Description":null,"ContactName":null,"ContactEmail":"hwelsh@harrysmarkets.com","ContactPhone":"203-222-3574x8203","Website":"http:\/\/harrysmarkets.webstarts.com\/index.html","Facebook":"https:\/\/www.facebook.com\/jupitergreenartisanmarket","Twitter":null,"Instagram":null,"Pinterest":null,"Youtube":null,"Blog":null,"Address":"150 S. US Hwy. 1, under Indiantown Bridge, Jupiter, FL, 33477","State":"Florida","City":"Jupiter","Street":"150 S. US Hwy. 1","Zip":"33477","Longitude":"-80.08022066308367","Latitude":"26.93255170439314","Dates":null,"Products":""},{"Type":"farmers market","ModifyDate":"Mar 20th, 2023","Image":"default-farmersmarket-4-3.jpg","ListingID":"309365","Name":"Kendall Farmers Market","Description":null,"ContactName":null,"ContactEmail":null,"ContactPhone":null,"Website":"http:\/\/www.kendallfarmersmarket.com","Facebook":"http:\/\/www.facebook.com\/KendallFarmersMarket","Twitter":null,"Instagram":null,"Pinterest":null,"Youtube":null,"Blog":null,"Address":"8789 SW 117 Avenue MIAMI, FL 33183 BY CAR Turnpike South Bound; Head south and get off at Exit 20 Kendall Drive\/SW 88 Street. Turn left (east), going under Turnpike. You will pass through two lights,","State":"Florida","City":"MIAMI","Street":"8789 SW 117TH AVE","Zip":"33183","Longitude":"-80.38454932593763","Latitude":"25.686590529606324","Dates":null,"Products":""},{"Type":"farmers market","ModifyDate":"Mar 20th, 2023","Image":"default-farmersmarket-4-3.jpg","ListingID":"309366","Name":"King Street Farmers Market","Description":null,"ContactName":null,"ContactEmail":null,"ContactPhone":null,"Website":"http:\/\/www.kingstreetfarmersmarket.com","Facebook":"http:\/\/www.facebook.com\/KingStreetFarmersMarket","Twitter":null,"Instagram":null,"Pinterest":null,"Youtube":null,"Blog":null,"Address":"1021 King Street Jacksonville, FL 32204","State":"Florida","City":"JACKSONVILLE","Street":"1021 KING ST","Zip":"32204","Longitude":"-81.6955111425269","Latitude":"30.31314529810627","Dates":null,"Products":""},{"Type":"farmers market","ModifyDate":"Mar 20th, 2023","Image":"default-farmersmarket-4-3.jpg","ListingID":"309367","Name":"Lake DeSoto Farmers Market","Description":null,"ContactName":null,"ContactEmail":"airport@lcfla.com","ContactPhone":"386-719-5766","Website":"https:\/\/www.lcfla.com\/farmersmarket.htm","Facebook":"https:\/\/www.facebook.com\/lakedesotofarmersmarket\/","Twitter":null,"Instagram":null,"Pinterest":null,"Youtube":null,"Blog":null,"Address":"778 NE Lake DeSoto Circle Lake City, FL 32055","State":"Florida","City":"Lake City","Street":"778 NE Lake DeSoto Circle","Zip":"32055","Longitude":"-82.63398992062771","Latitude":"30.192533793205293","Dates":null,"Products":""},{"Type":"farmers market","ModifyDate":"Mar 20th, 2023","Image":"default-farmersmarket-4-3.jpg","ListingID":"309368","Name":"Lake Ella Growers' Market","Description":null,"ContactName":null,"ContactEmail":null,"ContactPhone":"850-224-2518","Website":null,"Facebook":"https:\/\/www.facebook.com\/LakeEllaGrowersMarket","Twitter":null,"Instagram":null,"Pinterest":null,"Youtube":null,"Blog":null,"Address":"229 Lake Ella Dr., Tallahassee, FL, 32303","State":"Florida","City":"Tallahassee","Street":"229 Lake Ella Dr.","Zip":"32303","Longitude":"-84.27995916447628","Latitude":"30.462482540925834","Dates":null,"Products":""},{"Type":"farmers market","ModifyDate":"Mar 20th, 2023","Image":"default-farmersmarket-4-3.jpg","ListingID":"309369","Name":"Lake Wales Downtown Farmers Market","Description":null,"ContactName":null,"ContactEmail":null,"ContactPhone":"863-676-8782","Website":null,"Facebook":"http:\/\/www.facebook.com\/Lake-Wales-Downtown-Farmers-Market-176844102408866\/","Twitter":null,"Instagram":null,"Pinterest":null,"Youtube":null,"Blog":null,"Address":"20 Market St. Lake Wales, FL 33853","State":"Florida","City":"LAKE WALES","Street":"20 N MARKET ST","Zip":"33853","Longitude":"-81.5881649547939","Latitude":"27.901408970507298","Dates":null,"Products":""},{"Type":"farmers market","ModifyDate":"Mar 20th, 2023","Image":"default-farmersmarket-4-3.jpg","ListingID":"309370","Name":"Lake Worth Farmers' Market","Description":null,"ContactName":null,"ContactEmail":"peter@lakeworthfarmersmarket.com","ContactPhone":"561-283-5856","Website":"http:\/\/www.lakeworthfarmersmarket.com\/","Facebook":"https:\/\/www.facebook.com\/pages\/Lake-Worth-Farmers-Market\/185534338138863","Twitter":null,"Instagram":null,"Pinterest":null,"Youtube":null,"Blog":null,"Address":"1 S Ocean Blvd., Lake Worth, FL, 33460","State":"Florida","City":"Lake Worth","Street":"1 S Ocean Blvd.","Zip":"33460","Longitude":"-80.03869266395562","Latitude":"26.614846029019176","Dates":null,"Products":""},{"Type":"farmers market","ModifyDate":"Mar 20th, 2023","Image":"default-farmersmarket-4-3.jpg","ListingID":"309371","Name":"Lakewood Ranch Farmers' Market","Description":null,"ContactName":null,"ContactEmail":null,"ContactPhone":"727-461-7674","Website":null,"Facebook":null,"Twitter":null,"Instagram":null,"Pinterest":null,"Youtube":null,"Blog":null,"Address":"Main Street Lakewood Ranch, FL 34202","State":"Florida","City":"Lakewood Ranch","Street":"Main Street","Zip":"34202","Longitude":"-82.43490699999995","Latitude":"27.394007000000045","Dates":null,"Products":""},{"Type":"farmers market","ModifyDate":"Mar 20th, 2023","Image":"default-farmersmarket-4-3.jpg","ListingID":"309372","Name":"Lakewood Ranch Outdoor Market","Description":null,"ContactName":null,"ContactEmail":null,"ContactPhone":null,"Website":"http:\/\/www.jens-market.com\/market-locations.html","Facebook":null,"Twitter":null,"Instagram":null,"Pinterest":null,"Youtube":null,"Blog":null,"Address":"11315 Palmbrush Trl., Lakewood Ranch, FL, 34202","State":"Florida","City":"Lakewood Ranch","Street":"11315 Palmbrush Trl.","Zip":"34202","Longitude":"-82.43096305447268","Latitude":"27.430504853898025","Dates":null,"Products":""},{"Type":"farmers market","ModifyDate":"Mar 20th, 2023","Image":"default-farmersmarket-4-3.jpg","ListingID":"309373","Name":"Las Olas Farmers Market","Description":null,"ContactName":null,"ContactEmail":null,"ContactPhone":"954-214-9933","Website":null,"Facebook":null,"Twitter":null,"Instagram":null,"Pinterest":null,"Youtube":null,"Blog":null,"Address":"333 E. Las Olas Blvd. Fort Lauderdale, FL 33301","State":"Florida","City":"Fort Lauderdale","Street":"333 E. Las Olas Blvd.","Zip":"33301","Longitude":"-80.14000320923031","Latitude":"26.11916254488177","Dates":null,"Products":""},{"Type":"farmers market","ModifyDate":"Mar 20th, 2023","Image":"default-farmersmarket-4-3.jpg","ListingID":"309374","Name":"Las Olas Outdoor Gourmet Market","Description":null,"ContactName":null,"ContactEmail":null,"ContactPhone":"305-531-0038","Website":"https:\/\/www.themarketcompany.org\/","Facebook":null,"Twitter":null,"Instagram":null,"Pinterest":null,"Youtube":null,"Blog":null,"Address":"1201 E Las Olas Boulevard Fort Lauderdale, FL 33301","State":"Florida","City":"Fort Lauderdale","Street":"1201 E Las Olas Boulevard","Zip":"33301","Longitude":"-80.13125565143338","Latitude":"26.119344444417514","Dates":null,"Products":""},{"Type":"farmers market","ModifyDate":"Mar 20th, 2023","Image":"default-farmersmarket-4-3.jpg","ListingID":"309375","Name":"Levy County Farmers' Market","Description":null,"ContactName":null,"ContactEmail":null,"ContactPhone":"352-486-6229","Website":null,"Facebook":null,"Twitter":null,"Instagram":null,"Pinterest":null,"Youtube":null,"Blog":null,"Address":"401 S.E. 6th Avenue Williston, FL 32696","State":"Florida","City":"Williston","Street":"401 S.E. 6th Avenue","Zip":"32696","Longitude":"-82.44298401402449","Latitude":"29.380213985862312","Dates":null,"Products":""},{"Type":"farmers market","ModifyDate":"Mar 20th, 2023","Image":"default-farmersmarket-4-3.jpg","ListingID":"309376","Name":"Lincoln Road Farmers Market","Description":null,"ContactName":null,"ContactEmail":null,"ContactPhone":"305-775-2166","Website":"http:\/\/www.themarketcompany.org","Facebook":null,"Twitter":null,"Instagram":null,"Pinterest":null,"Youtube":null,"Blog":null,"Address":"730 Lincoln Road - South Beach Miami Beach, FL 33139","State":"Florida","City":"MIAMI BEACH","Street":"730 LINCOLN RD","Zip":"33139","Longitude":"-80.13579248040726","Latitude":"25.790566902566848","Dates":null,"Products":""},{"Type":"farmers market","ModifyDate":"Mar 20th, 2023","Image":"default-farmersmarket-4-3.jpg","ListingID":"309377","Name":"Live Oak Farmers' Market","Description":null,"ContactName":null,"ContactEmail":null,"ContactPhone":null,"Website":"http:\/\/liveoakfarmersmarket.com\/","Facebook":null,"Twitter":null,"Instagram":null,"Pinterest":null,"Youtube":null,"Blog":null,"Address":"115 Howard St. W., Festival Park, Live Oak, FL, 32064","State":"Florida","City":"Live Oak","Street":"115 Howard St. W.","Zip":"32064","Longitude":"-82.98515501571129","Latitude":"30.29631899683565","Dates":null,"Products":""},{"Type":"farmers market","ModifyDate":"Mar 20th, 2023","Image":"default-farmersmarket-4-3.jpg","ListingID":"309378","Name":"Longleaf Farmers' Market","Description":null,"ContactName":null,"ContactEmail":null,"ContactPhone":"727-808-2690","Website":"https:\/\/www.longleafmarket.com\/","Facebook":null,"Twitter":null,"Instagram":null,"Pinterest":null,"Youtube":null,"Blog":null,"Address":"3101 Town Avenue New Port Richey, FL 34655","State":"Florida","City":"New Port Richey","Street":"3101 Town Avenue","Zip":"34655","Longitude":"-82.64424456879857","Latitude":"28.205146767367353","Dates":null,"Products":""},{"Type":"farmers market","ModifyDate":"Mar 20th, 2023","Image":"default-farmersmarket-4-3.jpg","ListingID":"309379","Name":"Lynn Haven Farmers Market","Description":null,"ContactName":null,"ContactEmail":null,"ContactPhone":"850-265-2961","Website":"http:\/\/www.lynnhavenmainstreet.com","Facebook":null,"Twitter":null,"Instagram":null,"Pinterest":null,"Youtube":null,"Blog":null,"Address":"903 Ohio Ave. Lynn Haven, FL 32444","State":"Florida","City":"LYNN HAVEN","Street":"903 OHIO AVE","Zip":"32444","Longitude":"-85.64858352696717","Latitude":"30.24516147761643","Dates":null,"Products":""},{"Type":"farmers market","ModifyDate":"Mar 20th, 2023","Image":"default-farmersmarket-4-3.jpg","ListingID":"309380","Name":"M.O.M.'s Friday Night Market","Description":null,"ContactName":null,"ContactEmail":null,"ContactPhone":"727-697-7294","Website":"http:\/\/MONsFridayNIghtMarket.com","Facebook":"http:\/\/www.facebook.com\/MOM'sFridayNighMarket","Twitter":null,"Instagram":null,"Pinterest":null,"Youtube":null,"Blog":null,"Address":"5546 Main Street New Port Richey, FL 34654","State":"Florida","City":"NEW PORT RICHEY","Street":"5546 MAIN ST","Zip":"34652","Longitude":"-82.72330247814621","Latitude":"28.250222666694572","Dates":null,"Products":""},{"Type":"farmers market","ModifyDate":"Mar 20th, 2023","Image":"default-farmersmarket-4-3.jpg","ListingID":"309381","Name":"Mandarin Farmers' Market by the Whole Foods Market","Description":null,"ContactName":null,"ContactEmail":null,"ContactPhone":"904-236-9966","Website":"https:\/\/www.mandarinfarmersmarket.com\/","Facebook":null,"Twitter":null,"Instagram":null,"Pinterest":null,"Youtube":null,"Blog":null,"Address":"10601 San Jose Boulevard Jacksonville, FL 32257","State":"Florida","City":"Jacksonville","Street":"10601 San Jose Boulevard","Zip":"32257","Longitude":"-81.62841438732342","Latitude":"30.18517032486845","Dates":null,"Products":""},{"Type":"farmers market","ModifyDate":"Mar 20th, 2023","Image":"default-farmersmarket-4-3.jpg","ListingID":"309382","Name":"Marco Island Farmers' Market","Description":null,"ContactName":null,"ContactEmail":null,"ContactPhone":"239-642-0575","Website":"https:\/\/www.marcoislandfarmersmarket.com\/","Facebook":null,"Twitter":null,"Instagram":null,"Pinterest":null,"Youtube":null,"Blog":null,"Address":"Park Avenue & Elkcam Circle Marco Island, FL 34145","State":"Florida","City":"Marco Island","Street":"Park Avenue & Elkcam Circle","Zip":"34145","Longitude":"-81.72723000018263","Latitude":"25.951459992654364","Dates":null,"Products":""},{"Type":"farmers market","ModifyDate":"Mar 20th, 2023","Image":"default-farmersmarket-4-3.jpg","ListingID":"309383","Name":"Marianna City Farmers Market","Description":null,"ContactName":null,"ContactEmail":null,"ContactPhone":"850-209-4694","Website":"http:\/\/mariannacityfarmersmarket.com","Facebook":"http:\/\/www.facebook.com\/mariannacityfarmersmarket\/","Twitter":null,"Instagram":null,"Pinterest":null,"Youtube":null,"Blog":null,"Address":"2844 Madison Street Marianna, FL 32448 We are located at the Madison Street Park. Great place to bring your children. Splash pad, bathrooms, picnic tables.","State":"Florida","City":"MARIANNA","Street":"2844 MADISON ST","Zip":"32446","Longitude":"-85.22564932371512","Latitude":"30.773647149275277","Dates":null,"Products":""},{"Type":"farmers market","ModifyDate":"Mar 20th, 2023","Image":"default-farmersmarket-4-3.jpg","ListingID":"309384","Name":"Marion Street Farmers' Market","Description":null,"ContactName":null,"ContactEmail":null,"ContactPhone":"352-222-2301","Website":"https:\/\/www.lakecitydowntown.com\/","Facebook":null,"Twitter":null,"Instagram":null,"Pinterest":null,"Youtube":null,"Blog":null,"Address":"Duval Street and North Marion Ave Lake City, FL 32025","State":"Florida","City":"Lake City","Street":"Duval Street and North Marion Ave","Zip":"32025","Longitude":"-82.63714996289329","Latitude":"30.189349986700975","Dates":null,"Products":""},{"Type":"farmers market","ModifyDate":"Mar 20th, 2023","Image":"default-farmersmarket-4-3.jpg","ListingID":"309385","Name":"Market at Rockledge Gardens","Description":null,"ContactName":null,"ContactEmail":"info@rockledgegardens.com","ContactPhone":"321-636-7662","Website":"http:\/\/www.rockledgegardens.com\/the-farm-market\/","Facebook":null,"Twitter":null,"Instagram":null,"Pinterest":null,"Youtube":null,"Blog":null,"Address":"2153 US Hwy. 1, Rockledge, FL, 32955","State":"Florida","City":"Rockledge","Street":"2153 US Hwy. 1","Zip":"32955","Longitude":"-80.71571835813637","Latitude":"28.322458074151044","Dates":null,"Products":""},{"Type":"farmers market","ModifyDate":"Mar 20th, 2023","Image":"default-farmersmarket-4-3.jpg","ListingID":"309386","Name":"Market at the Depot in Inverness","Description":null,"ContactName":null,"ContactEmail":null,"ContactPhone":"352-726-3913","Website":"http:\/\/www.inverness-fl.gov","Facebook":"http:\/\/www.facebook.com\/cityofinvernessfl","Twitter":null,"Instagram":null,"Pinterest":null,"Youtube":null,"Blog":null,"Address":"286 N. Apopka Avenue Inverness, FL 34450","State":"Florida","City":"INVERNESS","Street":"286 N APOPKA AVE","Zip":"34450","Longitude":"-82.33019440479633","Latitude":"28.839499818989303","Dates":null,"Products":""},{"Type":"farmers market","ModifyDate":"Mar 20th, 2023","Image":"default-farmersmarket-4-3.jpg","ListingID":"309387","Name":"Market in the Breeze","Description":null,"ContactName":null,"ContactEmail":"info@marketinthebreeze.com","ContactPhone":null,"Website":"http:\/\/www.marketinthebreeze.com\/","Facebook":"https:\/\/www.facebook.com\/marketinthebreeze","Twitter":null,"Instagram":null,"Pinterest":null,"Youtube":null,"Blog":null,"Address":"800 Shoreline Dr., Gulf Breeze, FL, 32561","State":"Florida","City":"Gulf Breeze","Street":"800 Shoreline Dr.","Zip":"32561","Longitude":"-87.17628786867976","Latitude":"30.35458176599766","Dates":null,"Products":""},{"Type":"farmers market","ModifyDate":"Mar 20th, 2023","Image":"default-farmersmarket-4-3.jpg","ListingID":"309388","Name":"Market In The Park","Description":null,"ContactName":null,"ContactEmail":null,"ContactPhone":"727-733-4215","Website":null,"Facebook":null,"Twitter":null,"Instagram":null,"Pinterest":null,"Youtube":null,"Blog":null,"Address":"11909 - 125th Street Largo, FL 33774","State":"Florida","City":"Largo","Street":"11909 - 125th Street","Zip":"33774","Longitude":"-82.80941701624981","Latitude":"27.884993016666257","Dates":null,"Products":""},{"Type":"farmers market","ModifyDate":"Mar 20th, 2023","Image":"default-farmersmarket-4-3.jpg","ListingID":"309389","Name":"Mayfair Green Market","Description":null,"ContactName":null,"ContactEmail":null,"ContactPhone":"305-531-0038","Website":"https:\/\/www.themarketcompany.org\/","Facebook":null,"Twitter":null,"Instagram":null,"Pinterest":null,"Youtube":null,"Blog":null,"Address":"2911 Grand Avenue Coconut Grove, FL 33133","State":"Florida","City":"Coconut Grove","Street":"2911 Grand Avenue","Zip":"33133","Longitude":"-80.24064432599278","Latitude":"25.728211445183458","Dates":null,"Products":""},{"Type":"farmers market","ModifyDate":"Mar 20th, 2023","Image":"default-farmersmarket-4-3.jpg","ListingID":"309390","Name":"MidTown Farmers Market at Lake Ella","Description":null,"ContactName":null,"ContactEmail":null,"ContactPhone":"850-412-5260","Website":null,"Facebook":null,"Twitter":null,"Instagram":null,"Pinterest":null,"Youtube":null,"Blog":null,"Address":"229 Lake Ella Drive. Near the Black Dog Cafe. Tallahassee, FL 32303","State":"Florida","City":"TALLAHASSEE","Street":"229 LAKE ELLA DR","Zip":"32303","Longitude":"-84.27995916447628","Latitude":"30.462482540925834","Dates":null,"Products":""},{"Type":"farmers market","ModifyDate":"Mar 20th, 2023","Image":"default-farmersmarket-4-3.jpg","ListingID":"309391","Name":"Mid-Week Madeira Beach Market","Description":null,"ContactName":null,"ContactEmail":"TheBeachMarkets@gmail.com","ContactPhone":null,"Website":"http:\/\/www.thebeachmarkets.com\/","Facebook":"https:\/\/www.facebook.com\/madeirabeachmarkets","Twitter":null,"Instagram":null,"Pinterest":null,"Youtube":null,"Blog":null,"Address":"15004 Madeira Way, FL, Madeira Beach, FL, 33708","State":"Florida","City":"Madeira Beach","Street":"15004 Madeira Way, FL","Zip":"33708","Longitude":"-82.8002836150254","Latitude":"27.802111396992398","Dates":null,"Products":""},{"Type":"farmers market","ModifyDate":"Mar 20th, 2023","Image":"default-farmersmarket-4-3.jpg","ListingID":"309392","Name":"Milton ReStore Farm Market","Description":null,"ContactName":null,"ContactEmail":null,"ContactPhone":"850-434-5456x120","Website":"http:\/\/www.pensacola.habitatrestores.org","Facebook":"http:\/\/www.facebook.com\/pensacolarestore","Twitter":null,"Instagram":null,"Pinterest":null,"Youtube":null,"Blog":null,"Address":"6606 Elva Street Milton, FL 32570","State":"Florida","City":"MILTON","Street":"6606 ELVA ST","Zip":"32570","Longitude":"-87.0470734073402","Latitude":"30.622656808956467","Dates":null,"Products":""},{"Type":"farmers market","ModifyDate":"Mar 20th, 2023","Image":"default-farmersmarket-4-3.jpg","ListingID":"309393","Name":"Monticello Saturday Main Street Market","Description":null,"ContactName":null,"ContactEmail":null,"ContactPhone":"850-997-5552","Website":null,"Facebook":null,"Twitter":null,"Instagram":null,"Pinterest":null,"Youtube":null,"Blog":null,"Address":"Pearl & Jefferson Street Monticello, FL 32344","State":"Florida","City":"Monticello","Street":"Pearl & Jefferson Street","Zip":"32344","Longitude":"-83.87016002269003","Latitude":"30.54661000172915","Dates":null,"Products":""},{"Type":"farmers market","ModifyDate":"Mar 20th, 2023","Image":"default-farmersmarket-4-3.jpg","ListingID":"309394","Name":"Normandy Village Marketplace","Description":null,"ContactName":null,"ContactEmail":null,"ContactPhone":"305-775-2166","Website":"http:\/\/www.themarketcompany.org","Facebook":null,"Twitter":null,"Instagram":null,"Pinterest":null,"Youtube":null,"Blog":null,"Address":"1025 71st St. Miami Beach, FL 33141","State":"Florida","City":"MIAMI BEACH","Street":"1025 71ST ST","Zip":"33141","Longitude":"-80.12898792610156","Latitude":"25.855190629160383","Dates":null,"Products":""},{"Type":"farmers market","ModifyDate":"Mar 20th, 2023","Image":"default-farmersmarket-4-3.jpg","ListingID":"309395","Name":"Oakleaf Green Market","Description":null,"ContactName":null,"ContactEmail":null,"ContactPhone":"904-742-3101","Website":"https:\/\/www.oakleafgreenmarket.com\/","Facebook":null,"Twitter":null,"Instagram":null,"Pinterest":null,"Youtube":null,"Blog":null,"Address":"8380 Merchants Way Jacksonville, FL 32222","State":"Florida","City":"Jacksonville","Street":"8380 Merchants Way","Zip":"32222","Longitude":"-81.82883754683967","Latitude":"30.191330457826336","Dates":null,"Products":""},{"Type":"farmers market","ModifyDate":"Mar 20th, 2023","Image":"default-farmersmarket-4-3.jpg","ListingID":"309396","Name":"Oceanside Farmers' Market","Description":null,"ContactName":null,"ContactEmail":null,"ContactPhone":"561-547-3100","Website":"https:\/\/www.oceanside-farmersmarket.com\/","Facebook":null,"Twitter":null,"Instagram":null,"Pinterest":null,"Youtube":null,"Blog":null,"Address":"S. Ocean Blvd. Lake Worth, FL 33480","State":"Florida","City":"Lake Worth","Street":"S. Ocean Blvd.","Zip":"33480","Longitude":"-80.04117089129615","Latitude":"26.56457858841552","Dates":null,"Products":""},{"Type":"farmers market","ModifyDate":"Mar 20th, 2023","Image":"default-farmersmarket-4-3.jpg","ListingID":"309397","Name":"Okaloosa Farmers' Market","Description":null,"ContactName":null,"ContactEmail":"gedmondson@co.okaloosa.fl.us","ContactPhone":"850-689-5850","Website":null,"Facebook":"https:\/\/www.facebook.com\/OkaloosaFarmersMarkets","Twitter":null,"Instagram":null,"Pinterest":null,"Youtube":null,"Blog":null,"Address":"1954 Lewis Turner Blvd., Fort Walton Beach, FL, 32547","State":"Florida","City":"Fort Walton Beach","Street":"1954 Lewis Turner Blvd.","Zip":"32547","Longitude":"-86.61634260269011","Latitude":"30.466180895853803","Dates":null,"Products":""},{"Type":"farmers market","ModifyDate":"Mar 20th, 2023","Image":"default-farmersmarket-4-3.jpg","ListingID":"309398","Name":"Old - Town Farmers' Market","Description":null,"ContactName":null,"ContactEmail":null,"ContactPhone":"407-296-5882","Website":"https:\/\/www.old-townfarmersmarket.com\/","Facebook":null,"Twitter":null,"Instagram":null,"Pinterest":null,"Youtube":null,"Blog":null,"Address":"5770 Irlo Bronson Memorial Highway Kissimmee, FL 34746","State":"Florida","City":"Kissimmee","Street":"5770 Irlo Bronson Memorial Highway","Zip":"34746","Longitude":"-81.51686523361239","Latitude":"28.332711593982648","Dates":null,"Products":""},{"Type":"farmers market","ModifyDate":"Mar 20th, 2023","Image":"default-farmersmarket-4-3.jpg","ListingID":"309399","Name":"Old Miakka Farmer's Market","Description":null,"ContactName":null,"ContactEmail":null,"ContactPhone":"941-322-1014","Website":null,"Facebook":"http:\/\/www.facebook.com\/OldMiakkaFarmersMarket","Twitter":null,"Instagram":null,"Pinterest":null,"Youtube":null,"Blog":null,"Address":"1620 Myakka Rd (Old Miakka United Methodist Church) Sarasota, FL 34240","State":"Florida","City":"LAKEWOOD RCH","Street":"1620 MYAKKA RD","Zip":"34240","Longitude":"-82.26698454889345","Latitude":"27.31682358496786","Dates":null,"Products":""},{"Type":"farmers market","ModifyDate":"Mar 20th, 2023","Image":"default-farmersmarket-4-3.jpg","ListingID":"309400","Name":"Oldsmar Downtown Fresh Market","Description":null,"ContactName":null,"ContactEmail":null,"ContactPhone":"727-733-4215","Website":null,"Facebook":null,"Twitter":null,"Instagram":null,"Pinterest":null,"Youtube":null,"Blog":null,"Address":"100 State Street West Oldsmar, FL 34677","State":"Florida","City":"Oldsmar","Street":"100 State Street West","Zip":"34677","Longitude":"-82.66335221984293","Latitude":"28.037401593675646","Dates":null,"Products":""},{"Type":"farmers market","ModifyDate":"Mar 20th, 2023","Image":"default-farmersmarket-4-3.jpg","ListingID":"309401","Name":"Orange City Farmers' Market","Description":null,"ContactName":null,"ContactEmail":null,"ContactPhone":"386-775-5410","Website":null,"Facebook":null,"Twitter":null,"Instagram":null,"Pinterest":null,"Youtube":null,"Blog":null,"Address":"205 E. Graves Ave., Dickinson Park, Orange City, FL, 32763","State":"Florida","City":"Orange City","Street":"205 E. Graves Ave., Dickinson Park","Zip":"32763","Longitude":"-81.2976400024722","Latitude":"28.948770006077968","Dates":null,"Products":""},{"Type":"farmers market","ModifyDate":"Mar 20th, 2023","Image":"default-farmersmarket-4-3.jpg","ListingID":"309402","Name":"Orlando Farmers Market","Description":null,"ContactName":null,"ContactEmail":null,"ContactPhone":null,"Website":"http:\/\/www.orlandofarmersmarket.com","Facebook":null,"Twitter":null,"Instagram":null,"Pinterest":null,"Youtube":null,"Blog":null,"Address":"195 North Rosalind Ave. Orlando, FL 32801","State":"Florida","City":"ORLANDO","Street":"195 N ROSALIND AVE","Zip":"32801","Longitude":"-81.37587613683259","Latitude":"28.5426339842455","Dates":null,"Products":""},{"Type":"farmers market","ModifyDate":"Mar 20th, 2023","Image":"default-farmersmarket-4-3.jpg","ListingID":"309403","Name":"Orlando Farmers Market at Lake Eola","Description":null,"ContactName":null,"ContactEmail":null,"ContactPhone":"321-202-5855","Website":"https:\/\/www.orlandofarmersmarket.com\/","Facebook":null,"Twitter":null,"Instagram":null,"Pinterest":null,"Youtube":null,"Blog":null,"Address":"E. Central Boulevard and N. Eola Drive Orlando, FL 32801","State":"Florida","City":"Orlando","Street":"E. Central Boulevard and N. Eola Drive","Zip":"32801","Longitude":"-81.36989999626293","Latitude":"28.54229000329147","Dates":null,"Products":""},{"Type":"farmers market","ModifyDate":"Mar 20th, 2023","Image":"default-farmersmarket-4-3.jpg","ListingID":"309404","Name":"Palafox Market","Description":null,"ContactName":null,"ContactEmail":"info@palafoxmarket.com","ContactPhone":"850-434-5371","Website":"http:\/\/www.palafoxmarket.com","Facebook":"https:\/\/www.facebook.com\/palafoxmarket","Twitter":null,"Instagram":null,"Pinterest":null,"Youtube":null,"Blog":null,"Address":"N. Palafox St. and Wright St., Martin Luther King Plaza, Pensacola, FL, 32501","State":"Florida","City":"Pensacola","Street":"N. Palafox St. and Wright St.","Zip":"32501","Longitude":"-87.21633001566694","Latitude":"30.416640001543158","Dates":null,"Products":""},{"Type":"farmers market","ModifyDate":"Mar 20th, 2023","Image":"default-farmersmarket-4-3.jpg","ListingID":"309405","Name":"Palatka Farmers Market","Description":null,"ContactName":null,"ContactEmail":null,"ContactPhone":"386-467-8969","Website":null,"Facebook":null,"Twitter":null,"Instagram":null,"Pinterest":null,"Youtube":null,"Blog":null,"Address":"111 Yelvington Road East Palatka, FL 32131","State":"Florida","City":"Palatka","Street":"111 Yelvington Road East","Zip":"32131","Longitude":"-81.58804598338345","Latitude":"29.642858994027065","Dates":null,"Products":""},{"Type":"farmers market","ModifyDate":"Mar 20th, 2023","Image":"default-farmersmarket-4-3.jpg","ListingID":"309406","Name":"Palatka State Farmers' Market","Description":null,"ContactName":null,"ContactEmail":null,"ContactPhone":"386-329-3713","Website":"https:\/\/www.florida-agriculture.com\/marketing\/markets\/palatka_market.htm","Facebook":null,"Twitter":null,"Instagram":null,"Pinterest":null,"Youtube":null,"Blog":null,"Address":"225 U.S. Highway 17, South East Palatka, FL 32131","State":"Florida","City":"East Palatka","Street":"225 U.S. Highway 17, South","Zip":"32131","Longitude":"-81.59874900318624","Latitude":"29.646689984782924","Dates":null,"Products":""},{"Type":"farmers market","ModifyDate":"Mar 20th, 2023","Image":"default-farmersmarket-4-3.jpg","ListingID":"309407","Name":"Palm Beach Gardens Green Market","Description":null,"ContactName":null,"ContactEmail":"cwolnewitz@pbgfl.com","ContactPhone":"561-630-1100","Website":"http:\/\/www.pbgfl.com\/707\/Summer-GreenMarket","Facebook":null,"Twitter":null,"Instagram":null,"Pinterest":null,"Youtube":null,"Blog":null,"Address":"11010 N. Military Trl., Palm Beach, FL, 33410","State":"Florida","City":"Palm Beach","Street":"11010 N. Military Trl.","Zip":"33410","Longitude":"-80.10448499587574","Latitude":"26.841864998844386","Dates":null,"Products":""},{"Type":"farmers market","ModifyDate":"Mar 20th, 2023","Image":"default-farmersmarket-4-3.jpg","ListingID":"309408","Name":"Palm City Farms Produce & Market","Description":null,"ContactName":null,"ContactEmail":null,"ContactPhone":"772-888-3103","Website":"http:\/\/palmcityfarmsproduce.com","Facebook":"http:\/\/www.facebook.com\/Palm-City-Farms-Produce-Market-1899356043676021\/","Twitter":null,"Instagram":null,"Pinterest":null,"Youtube":null,"Blog":null,"Address":"3706 SW Citrus Blvd Palm City, FL 34990 At the corner of SW Citrus Boulevard and SW Martin Highway (SR-714) in Palm City, FL,34990. One mile west of the Florida Turnpike Entrance and SW Martin Downs B","State":"Florida","City":"PALM CITY","Street":"3706 SW CITRUS BLVD","Zip":"34990","Longitude":"-80.31890569084638","Latitude":"27.160888349876018","Dates":null,"Products":""},{"Type":"farmers market","ModifyDate":"Mar 20th, 2023","Image":"default-farmersmarket-4-3.jpg","ListingID":"309409","Name":"Pensacola Growers' Retail Farmers' Market","Description":null,"ContactName":null,"ContactEmail":null,"ContactPhone":"251-960-1089","Website":null,"Facebook":null,"Twitter":null,"Instagram":null,"Pinterest":null,"Youtube":null,"Blog":null,"Address":"4905 N. Palafox Street Pensacola, FL 32505","State":"Florida","City":"Pensacola","Street":"4905 N. Palafox Street","Zip":"32505","Longitude":"-87.24087408035025","Latitude":"30.462486903295865","Dates":null,"Products":""},{"Type":"farmers market","ModifyDate":"Mar 20th, 2023","Image":"default-farmersmarket-4-3.jpg","ListingID":"309410","Name":"Perry Downtown Farmers' Market","Description":null,"ContactName":null,"ContactEmail":null,"ContactPhone":"850-843-1279","Website":null,"Facebook":"https:\/\/www.facebook.com\/Perry-Downtown-Farmers-Market-170124233038373","Twitter":null,"Instagram":null,"Pinterest":null,"Youtube":null,"Blog":null,"Address":"603 S. Jefferson St., Perry, FL, 32347","State":"Florida","City":"Perry","Street":"603 S. Jefferson St.","Zip":"32347","Longitude":"-83.58211371493688","Latitude":"30.113515228421512","Dates":null,"Products":""},{"Type":"farmers market","ModifyDate":"Mar 20th, 2023","Image":"default-farmersmarket-4-3.jpg","ListingID":"309411","Name":"Plant City Farmers Market","Description":null,"ContactName":null,"ContactEmail":null,"ContactPhone":"813-752-4670","Website":"http:\/\/ www.plantcitymarket.com","Facebook":null,"Twitter":null,"Instagram":null,"Pinterest":null,"Youtube":null,"Blog":null,"Address":"708 W. Sam Allen Rd Plant City, FL 33565","State":"Florida","City":"PLANT CITY","Street":"708 W SAM ALLEN RD","Zip":"33565","Longitude":"-82.13117697149175","Latitude":"28.047521792809896","Dates":null,"Products":""},{"Type":"farmers market","ModifyDate":"Mar 20th, 2023","Image":"default-farmersmarket-4-3.jpg","ListingID":"309412","Name":"Plant City State Farmers' Market","Description":null,"ContactName":null,"ContactEmail":null,"ContactPhone":"813-757-9027","Website":"https:\/\/www.florida-agriculture.com\/marketing\/markets\/plantcity_market.htm","Facebook":null,"Twitter":null,"Instagram":null,"Pinterest":null,"Youtube":null,"Blog":null,"Address":"1305 West Dr. Martin Luther King Jr. Blvd Plant City, FL 33563","State":"Florida","City":"Plant City","Street":"1305 West Dr. Martin Luther King Jr. Blvd","Zip":"33563","Longitude":"-82.13519411902143","Latitude":"28.012289041066","Dates":null,"Products":""},{"Type":"farmers market","ModifyDate":"Mar 20th, 2023","Image":"default-farmersmarket-4-3.jpg","ListingID":"309413","Name":"Plantation Community Farmers Market","Description":null,"ContactName":null,"ContactEmail":null,"ContactPhone":"954-540-6593","Website":"http:\/\/www.Plantation.org","Facebook":null,"Twitter":null,"Instagram":null,"Pinterest":null,"Youtube":null,"Blog":null,"Address":"12050 W. Sunrise Blvd. Plantation, FL 33323","State":"Florida","City":"PLANTATION","Street":"12050 W SUNRISE BLVD","Zip":"33323","Longitude":"-80.31398086018802","Latitude":"26.14569992098985","Dates":null,"Products":""},{"Type":"farmers market","ModifyDate":"Mar 20th, 2023","Image":"default-farmersmarket-4-3.jpg","ListingID":"309414","Name":"Pompano Beach Green Market","Description":null,"ContactName":null,"ContactEmail":"greenmarketpompano@gmail.com","ContactPhone":"954-609-7974","Website":"http:\/\/www.pompanohistory.com\/green_market","Facebook":"https:\/\/www.facebook.com\/PompanoBeachGreenMarket","Twitter":null,"Instagram":null,"Pinterest":null,"Youtube":null,"Blog":null,"Address":"Atlantic Blvd. and SE 1st Ave., Pompano Beach, FL, 33060","State":"Florida","City":"Pompano Beach","Street":"Atlantic Blvd. and SE 1st Ave.","Zip":"33060","Longitude":"-80.11655008532553","Latitude":"26.230782512336518","Dates":null,"Products":""},{"Type":"farmers market","ModifyDate":"Mar 20th, 2023","Image":"default-farmersmarket-4-3.jpg","ListingID":"309415","Name":"Pompano State Farmers' Market","Description":null,"ContactName":null,"ContactEmail":null,"ContactPhone":"954-786-4828","Website":"https:\/\/www.florida-agriculture.com\/marketing\/markets\/pompano_market.htm","Facebook":null,"Twitter":null,"Instagram":null,"Pinterest":null,"Youtube":null,"Blog":null,"Address":"1255 West Atlantic Boulevard Pompano Beach, FL 33069","State":"Florida","City":"Pompano Beach","Street":"1255 West Atlantic Boulevard","Zip":"33069","Longitude":"-80.14097653598617","Latitude":"26.231547540130716","Dates":null,"Products":""},{"Type":"farmers market","ModifyDate":"Mar 20th, 2023","Image":"default-farmersmarket-4-3.jpg","ListingID":"309416","Name":"Ponte Vedra YMCA Farmers' Market","Description":null,"ContactName":null,"ContactEmail":null,"ContactPhone":"904-543-9622","Website":"http:\/\/acaneva@firstcoastymca.org","Facebook":null,"Twitter":null,"Instagram":null,"Pinterest":null,"Youtube":null,"Blog":null,"Address":"170 Landrum Lane Ponte Vedra Beach, FL 32082","State":"Florida","City":"PONTE VEDRA BEACH","Street":"170 LANDRUM LN","Zip":"32082","Longitude":"-81.38726400883887","Latitude":"30.16445466064743","Dates":null,"Products":""},{"Type":"farmers market","ModifyDate":"Mar 20th, 2023","Image":"default-farmersmarket-4-3.jpg","ListingID":"309417","Name":"Port Orange Green Market","Description":null,"ContactName":null,"ContactEmail":null,"ContactPhone":null,"Website":"http:\/\/portorangegreenmarket.com","Facebook":null,"Twitter":null,"Instagram":null,"Pinterest":null,"Youtube":null,"Blog":null,"Address":"5501 S. Williamson Blvd Port Orange, FL 32128","State":"Florida","City":"PORT ORANGE","Street":"5501 S WILLIAMSON BLVD","Zip":"32128","Longitude":"-81.03636231305893","Latitude":"29.10920941198029","Dates":null,"Products":""},{"Type":"farmers market","ModifyDate":"Mar 20th, 2023","Image":"default-farmersmarket-4-3.jpg","ListingID":"309418","Name":"punta gorda farmers market","Description":null,"ContactName":null,"ContactEmail":null,"ContactPhone":"941-391-4856","Website":null,"Facebook":null,"Twitter":null,"Instagram":null,"Pinterest":null,"Youtube":null,"Blog":null,"Address":"307 taylor street Punta Gorda, FL 33950","State":"Florida","City":"Punta Gorda","Street":"307 taylor street","Zip":"33950","Longitude":"-82.05004959132289","Latitude":"26.93410676383296","Dates":null,"Products":""},{"Type":"farmers market","ModifyDate":"Mar 20th, 2023","Image":"default-farmersmarket-4-3.jpg","ListingID":"309419","Name":"Red Hills Online Market","Description":null,"ContactName":null,"ContactEmail":null,"ContactPhone":null,"Website":"http:\/\/www.rhomarket.com","Facebook":null,"Twitter":null,"Instagram":null,"Pinterest":null,"Youtube":null,"Blog":null,"Address":"[Pick up site for online orders] 915 Railroad Ave. Tallahassee, FL 32310","State":"Florida","City":"TALLAHASSEE","Street":"915 RAILROAD AVE","Zip":"32310","Longitude":"-84.28939901492065","Latitude":"30.43399598935339","Dates":null,"Products":""},{"Type":"farmers market","ModifyDate":"Mar 20th, 2023","Image":"default-farmersmarket-4-3.jpg","ListingID":"309420","Name":"Riverwalk Market","Description":null,"ContactName":null,"ContactEmail":null,"ContactPhone":"850-626-6246","Website":"https:\/\/www.mainstreetmilton.org\/","Facebook":null,"Twitter":null,"Instagram":null,"Pinterest":null,"Youtube":null,"Blog":null,"Address":"Willing Street Milton, FL 32570","State":"Florida","City":"Milton","Street":"Willing Street","Zip":"32570","Longitude":"-87.03565068338038","Latitude":"30.62271600795586","Dates":null,"Products":""},{"Type":"farmers market","ModifyDate":"Mar 20th, 2023","Image":"default-farmersmarket-4-3.jpg","ListingID":"309421","Name":"Salt Air Farmers' Market","Description":null,"ContactName":null,"ContactEmail":"julieolsson22@gmail.com","ContactPhone":null,"Website":"http:\/\/www.saltairfarmersmarket.com\/","Facebook":"https:\/\/www.facebook.com\/saltairfarmersmarket","Twitter":null,"Instagram":null,"Pinterest":null,"Youtube":null,"Blog":null,"Address":"101 Tolstoy Ln., Saint Augustine, FL, 32080","State":"Florida","City":"Saint Augustine","Street":"101 Tolstoy Ln.","Zip":"32080","Longitude":"-81.21494973501429","Latitude":"29.669674226147357","Dates":null,"Products":""},{"Type":"farmers market","ModifyDate":"Mar 20th, 2023","Image":"default-farmersmarket-4-3.jpg","ListingID":"309422","Name":"SaltAir Farmers Market","Description":null,"ContactName":null,"ContactEmail":null,"ContactPhone":null,"Website":"http:\/\/www.saltairmarket.com\/","Facebook":null,"Twitter":null,"Instagram":null,"Pinterest":null,"Youtube":null,"Blog":null,"Address":"Port St., Joe, Florida 32456","State":"Florida","City":"Joe","Street":"Port St.","Zip":"32456","Longitude":"-85.30058999999994","Latitude":"29.815015000000074","Dates":null,"Products":""},{"Type":"farmers market","ModifyDate":"Mar 20th, 2023","Image":"default-farmersmarket-4-3.jpg","ListingID":"309423","Name":"Sanford State Farmers' Market","Description":null,"ContactName":null,"ContactEmail":null,"ContactPhone":"407-330-6783","Website":"https:\/\/www.florida-agriculture.com\/marketing\/markets\/sanford_market.htm","Facebook":null,"Twitter":null,"Instagram":null,"Pinterest":null,"Youtube":null,"Blog":null,"Address":"1300-1A South French Avenue Sanford, FL 32771","State":"Florida","City":"Sanford","Street":"1300-1A South French Avenue","Zip":"32771","Longitude":"-81.27308631970081","Latitude":"28.80066299733115","Dates":null,"Products":""},{"Type":"farmers market","ModifyDate":"Mar 20th, 2023","Image":"default-farmersmarket-4-3.jpg","ListingID":"309424","Name":"Sanibel Island Farmers Market","Description":null,"ContactName":null,"ContactEmail":null,"ContactPhone":null,"Website":"http:\/\/BuyLocalLee.com","Facebook":"http:\/\/www.facebook.com\/Sanibelislandfarmersmarket","Twitter":null,"Instagram":null,"Pinterest":null,"Youtube":null,"Blog":null,"Address":"800 Dunlop Road Sanibel, FL 33957 Overflow parking can be found at The Sanibel Library and BIG Arts.","State":"Florida","City":"SANIBEL","Street":"800 DUNLOP RD","Zip":"33957","Longitude":"-82.07428977403764","Latitude":"26.439618643273192","Dates":null,"Products":""},{"Type":"farmers market","ModifyDate":"Mar 20th, 2023","Image":"default-farmersmarket-4-3.jpg","ListingID":"309425","Name":"Santini Farmers Market Ft. Myers Beach","Description":null,"ContactName":null,"ContactEmail":null,"ContactPhone":null,"Website":"http:\/\/www.41markets.com","Facebook":"http:\/\/www.facebook.com\/santinifarmersmarketfortmyersbeach","Twitter":null,"Instagram":null,"Pinterest":null,"Youtube":null,"Blog":null,"Address":"7205 Estero Boulevard Fort Myers Beach, FL 33931 Free Parking in the Santini Marina Plaza","State":"Florida","City":"FORT MYERS BEACH","Street":"7205 ESTERO BLVD","Zip":"33931","Longitude":"-81.8999944557177","Latitude":"26.413016271971205","Dates":null,"Products":""},{"Type":"farmers market","ModifyDate":"Mar 20th, 2023","Image":"default-farmersmarket-4-3.jpg","ListingID":"309426","Name":"Sarasota Downtown Farmers' Market","Description":null,"ContactName":null,"ContactEmail":null,"ContactPhone":"941-951-2656","Website":null,"Facebook":null,"Twitter":null,"Instagram":null,"Pinterest":null,"Youtube":null,"Blog":null,"Address":"Lemon Avenue and Main Street Sarasota, FL 34236","State":"Florida","City":"Sarasota","Street":"Lemon Avenue and Main Street","Zip":"34236","Longitude":"-82.54069001532191","Latitude":"27.336489990044612","Dates":null,"Products":""},{"Type":"farmers market","ModifyDate":"Mar 20th, 2023","Image":"default-farmersmarket-4-3.jpg","ListingID":"309427","Name":"Seaside Farmers Market","Description":null,"ContactName":null,"ContactEmail":null,"ContactPhone":"850-687-3494","Website":null,"Facebook":"http:\/\/www.facebook.com\/seasidefarmersmarket","Twitter":null,"Instagram":null,"Pinterest":null,"Youtube":null,"Blog":null,"Address":"2217 E County Hwy 30A Santa Rosa Beach, FL 32459","State":"Florida","City":"SANTA ROSA BEACH","Street":"2217 E CO HWY 30A","Zip":"32459","Longitude":"-86.13813089484331","Latitude":"30.319891529865686","Dates":null,"Products":""},{"Type":"farmers market","ModifyDate":"Mar 20th, 2023","Image":"default-farmersmarket-4-3.jpg","ListingID":"309428","Name":"Seminole Heights Sunday Morning Market","Description":null,"ContactName":null,"ContactEmail":"tampabaymarkets@gmail.com","ContactPhone":null,"Website":"http:\/\/tampabaymarkets.com\/seminole-heights-sunday-morning-market","Facebook":"https:\/\/www.facebook.com\/SeminoleHeightsSundayMorningMarket","Twitter":null,"Instagram":null,"Pinterest":null,"Youtube":null,"Blog":null,"Address":"5000 N.Central Ave., Tampa, FL, 33603","State":"Florida","City":"Tampa","Street":"5000 N.Central Ave.","Zip":"33603","Longitude":"-82.45527484347461","Latitude":"27.991127791876533","Dates":null,"Products":""},{"Type":"farmers market","ModifyDate":"Mar 20th, 2023","Image":"default-farmersmarket-4-3.jpg","ListingID":"309429","Name":"Shoppes at Vanderbilt Farmers' Market","Description":null,"ContactName":null,"ContactEmail":null,"ContactPhone":"239-273-2350","Website":null,"Facebook":"https:\/\/www.facebook.com\/Shoppesatvanderbiltfarmersmarket","Twitter":null,"Instagram":null,"Pinterest":null,"Youtube":null,"Blog":null,"Address":"2355 Vanderbilt Beach Rd., Naples, FL, 34109","State":"Florida","City":"Naples","Street":"2355 Vanderbilt Beach Rd.","Zip":"34109","Longitude":"-81.77338562837976","Latitude":"26.243801662238006","Dates":null,"Products":""},{"Type":"farmers market","ModifyDate":"Mar 20th, 2023","Image":"default-farmersmarket-4-3.jpg","ListingID":"309430","Name":"Spring Hill Farmers Market","Description":null,"ContactName":null,"ContactEmail":null,"ContactPhone":"352-345-1446","Website":"http:\/\/www.farmersmarketspringhill.com","Facebook":"http:\/\/www.facebook.com\/farmersmarketspringhillfl","Twitter":null,"Instagram":null,"Pinterest":null,"Youtube":null,"Blog":null,"Address":"3021 Commercial Way Spring Hill, FL 34606 The market is located in The Town Square Mall parking lot next to Chilis on Commercial Way.","State":"Florida","City":"SPRING HILL","Street":"3021 COMMERCIAL WAY","Zip":"34606","Longitude":"-82.61164219902244","Latitude":"28.477962887510376","Dates":null,"Products":""},{"Type":"farmers market","ModifyDate":"Mar 20th, 2023","Image":"default-farmersmarket-4-3.jpg","ListingID":"309431","Name":"St. Andrews Waterfront Farmers' Market","Description":null,"ContactName":null,"ContactEmail":null,"ContactPhone":"850-872-7208","Website":"http:\/\/www.historicstandrews.com\/market","Facebook":"http:\/\/www.facebook.com\/St.Andrews.Waterfront.Farmers.Market","Twitter":null,"Instagram":null,"Pinterest":null,"Youtube":null,"Blog":null,"Address":"3151 W 10th St Panama City, FL 32401","State":"Florida","City":"PANAMA CITY","Street":"3151 W 10TH ST","Zip":"32401","Longitude":"-85.70301215016458","Latitude":"30.167594605480282","Dates":null,"Products":""},{"Type":"farmers market","ModifyDate":"Mar 20th, 2023","Image":"default-farmersmarket-4-3.jpg","ListingID":"309432","Name":"Starke State Farmers' Market","Description":null,"ContactName":null,"ContactEmail":null,"ContactPhone":"386-329-3713","Website":"https:\/\/www.florida-agriculture.com\/marketing\/markets\/starke_market.htm","Facebook":null,"Twitter":null,"Instagram":null,"Pinterest":null,"Youtube":null,"Blog":null,"Address":"2222 North Temple Highway Starke, FL 32091","State":"Florida","City":"Starke","Street":"2222 North Temple Highway","Zip":"32091","Longitude":"-82.10295748732753","Latitude":"29.967615439951306","Dates":null,"Products":""},{"Type":"farmers market","ModifyDate":"Mar 20th, 2023","Image":"default-farmersmarket-4-3.jpg","ListingID":"309433","Name":"Stetson Farmers Market","Description":null,"ContactName":null,"ContactEmail":null,"ContactPhone":null,"Website":"http:\/\/stetson.orgsync.com\/org\/hatterharvest","Facebook":"https:\/\/www.facebook.com\/HatterHarvest","Twitter":null,"Instagram":null,"Pinterest":null,"Youtube":null,"Blog":null,"Address":"234 E Michigan Ave, Deland FL 32723","State":"Florida","City":"Deland","Street":"234 E Michigan Ave","Zip":"32723","Longitude":"-81.30088476005382","Latitude":"29.033531209645936","Dates":null,"Products":""},{"Type":"farmers market","ModifyDate":"Mar 20th, 2023","Image":"default-farmersmarket-4-3.jpg","ListingID":"309434","Name":"Stuart Green Market","Description":null,"ContactName":null,"ContactEmail":null,"ContactPhone":"772-940-1145","Website":null,"Facebook":null,"Twitter":null,"Instagram":null,"Pinterest":null,"Youtube":null,"Blog":null,"Address":"121 SW Flagler Avenue Stuart, FL 34994","State":"Florida","City":"Stuart","Street":"121 SW Flagler Avenue","Zip":"34994","Longitude":"-80.25523485574453","Latitude":"27.199897092799333","Dates":null,"Products":""},{"Type":"farmers market","ModifyDate":"Mar 20th, 2023","Image":"default-farmersmarket-4-3.jpg","ListingID":"309435","Name":"Sumter County Farmers' Market","Description":null,"ContactName":null,"ContactEmail":null,"ContactPhone":"352-793-2021","Website":"https:\/\/www.sumtercountyfarmersmarket.com\/","Facebook":null,"Twitter":null,"Instagram":null,"Pinterest":null,"Youtube":null,"Blog":null,"Address":"524 North Market Boulevard Webster, FL 33597","State":"Florida","City":"Webster","Street":"524 North Market Boulevard","Zip":"33597","Longitude":"-82.05472928464924","Latitude":"28.616913144306082","Dates":null,"Products":""},{"Type":"farmers market","ModifyDate":"Mar 20th, 2023","Image":"default-farmersmarket-4-3.jpg","ListingID":"309436","Name":"Suwannee County Farmers' Market","Description":null,"ContactName":null,"ContactEmail":null,"ContactPhone":"386-362-1728","Website":null,"Facebook":null,"Twitter":null,"Instagram":null,"Pinterest":null,"Youtube":null,"Blog":null,"Address":"208 N Ohio Avenue Live Oak, FL 32060","State":"Florida","City":"Live Oak","Street":"208 N Ohio Avenue","Zip":"32060","Longitude":"-82.98243468106573","Latitude":"30.299868328707664","Dates":null,"Products":""},{"Type":"farmers market","ModifyDate":"Mar 20th, 2023","Image":"default-farmersmarket-4-3.jpg","ListingID":"309437","Name":"Suwannee Valley State Farmers' Market","Description":null,"ContactName":null,"ContactEmail":null,"ContactPhone":"386-963-5903","Website":"https:\/\/www.florida-agriculture.com\/marketing\/markets\/suwanneevalley_market.htm","Facebook":null,"Twitter":null,"Instagram":null,"Pinterest":null,"Youtube":null,"Blog":null,"Address":"2758 County Road 136 White Springs, FL 32096","State":"Florida","City":"White Springs","Street":"2758 County Road 136","Zip":"32096","Longitude":"-82.80049927946752","Latitude":"30.32015532384427","Dates":null,"Products":""},{"Type":"farmers market","ModifyDate":"Mar 20th, 2023","Image":"default-farmersmarket-4-3.jpg","ListingID":"309438","Name":"Tampa Bay Farmers Market","Description":null,"ContactName":null,"ContactEmail":null,"ContactPhone":null,"Website":"http:\/\/www.tampabayfarmersmarket.com","Facebook":"http:\/\/www.facebook.com\/tampabayfm","Twitter":null,"Instagram":null,"Pinterest":null,"Youtube":null,"Blog":null,"Address":"10001 North Armenia Avenue Tampa, FL 33612","State":"Florida","City":"TAMPA","Street":"10001 N ARMENIA AVE","Zip":"33612","Longitude":"-82.4798077551521","Latitude":"28.040456778733887","Dates":null,"Products":""},{"Type":"farmers market","ModifyDate":"Mar 20th, 2023","Image":"default-farmersmarket-4-3.jpg","ListingID":"309439","Name":"Tampa Downtown Market","Description":null,"ContactName":null,"ContactEmail":null,"ContactPhone":"813-649-8747","Website":"https:\/\/www.tampadowntownmarket.com\/","Facebook":null,"Twitter":null,"Instagram":null,"Pinterest":null,"Youtube":null,"Blog":null,"Address":"300 Madison Street Tampa, FL 33602","State":"Florida","City":"Tampa","Street":"300 Madison Street","Zip":"33602","Longitude":"-82.45821627779264","Latitude":"27.948464228843054","Dates":null,"Products":""},{"Type":"farmers market","ModifyDate":"Mar 20th, 2023","Image":"default-farmersmarket-4-3.jpg","ListingID":"309440","Name":"Taste of the Gardens Green Market","Description":null,"ContactName":null,"ContactEmail":"signaturecity@pbgfl.com","ContactPhone":"561-722-6435","Website":"https:\/\/www.pbgfl.com\/","Facebook":null,"Twitter":null,"Instagram":null,"Pinterest":null,"Youtube":null,"Blog":null,"Address":"10500 North Military Trail Palm Beach Gardens, FL 33410","State":"Florida","City":"Palm Beach Gardens","Street":"10500 North Military Trail","Zip":"33410","Longitude":"-80.10220201690784","Latitude":"26.832845987208586","Dates":null,"Products":""},{"Type":"farmers market","ModifyDate":"Mar 20th, 2023","Image":"default-farmersmarket-4-3.jpg","ListingID":"309441","Name":"Temple Terrace Farmers Market","Description":null,"ContactName":null,"ContactEmail":null,"ContactPhone":"786-842-7909","Website":"http:\/\/www.ttfarmersmarket.com","Facebook":"http:\/\/www.facebook.com\/ttfarmersmarket","Twitter":null,"Instagram":null,"Pinterest":null,"Youtube":null,"Blog":null,"Address":"11302 N 56th St Temple Terrace, FL 33617 Between City Hall and Outback Steakhouse on 56th St, one block south of Fowler Ave.","State":"Florida","City":"TEMPLE TER","Street":"11302 N 56TH ST","Zip":"33617","Longitude":"-82.3936621876748","Latitude":"28.050925058258507","Dates":null,"Products":""},{"Type":"farmers market","ModifyDate":"Mar 20th, 2023","Image":"default-farmersmarket-4-3.jpg","ListingID":"309442","Name":"The Green Marketplace at Adamson Road","Description":null,"ContactName":null,"ContactEmail":"kari@naturewiseplants.com","ContactPhone":"321-536-1410","Website":"https:\/\/www.naturewiseplants.com\/","Facebook":null,"Twitter":null,"Instagram":null,"Pinterest":null,"Youtube":null,"Blog":null,"Address":"3910 N Highway US 1 Cocoa, FL 32926","State":"Florida","City":"Cocoa","Street":"3910 N Highway US 1","Zip":"32926","Longitude":"-80.75902858432637","Latitude":"28.42927153410881","Dates":null,"Products":""},{"Type":"farmers market","ModifyDate":"Mar 20th, 2023","Image":"default-farmersmarket-4-3.jpg","ListingID":"309443","Name":"The Vilano Beach Sunday Market","Description":null,"ContactName":null,"ContactEmail":null,"ContactPhone":"904-540-5797","Website":"https:\/\/www.thesundaymarket.com\/","Facebook":null,"Twitter":null,"Instagram":null,"Pinterest":null,"Youtube":null,"Blog":null,"Address":"260 Vilano Road Saint Augustine, FL 32084","State":"Florida","City":"Saint Augustine","Street":"260 Vilano Road","Zip":"32084","Longitude":"-81.29741860872176","Latitude":"29.916696180132092","Dates":null,"Products":""},{"Type":"farmers market","ModifyDate":"Mar 20th, 2023","Image":"default-farmersmarket-4-3.jpg","ListingID":"309444","Name":"Third Street South Farmers Market","Description":null,"ContactName":null,"ContactEmail":null,"ContactPhone":"239-649-6707","Website":null,"Facebook":null,"Twitter":null,"Instagram":null,"Pinterest":null,"Youtube":null,"Blog":null,"Address":"255 13th Ave So Naples, FL 34102","State":"Florida","City":"NAPLES","Street":"255 13TH AVE S","Zip":"34102","Longitude":"-81.80241809715159","Latitude":"26.130918582984158","Dates":null,"Products":""},{"Type":"farmers market","ModifyDate":"Mar 20th, 2023","Image":"default-farmersmarket-4-3.jpg","ListingID":"309445","Name":"Tioga Monday Farmers' Market","Description":null,"ContactName":null,"ContactEmail":"rmludlam97@windstream.net","ContactPhone":"386-209-1246","Website":"https:\/\/sites.google.com\/site\/tiogamondaymarket\/","Facebook":"https:\/\/www.facebook.com\/TiogaMondayMarket","Twitter":null,"Instagram":null,"Pinterest":null,"Youtube":null,"Blog":null,"Address":"105 SW 128th St., Tioga Town Center, Tioga, FL, 32669","State":"Florida","City":"Tioga","Street":"105 SW 128th St.","Zip":"32669","Longitude":"-82.47887424290587","Latitude":"29.65754231431734","Dates":null,"Products":""},{"Type":"farmers market","ModifyDate":"Mar 20th, 2023","Image":"default-farmersmarket-4-3.jpg","ListingID":"309446","Name":"Titusville Farmers Market","Description":null,"ContactName":null,"ContactEmail":null,"ContactPhone":"321-615-8183","Website":null,"Facebook":"http:\/\/www.facebook.com\/Titusvillemarket","Twitter":null,"Instagram":null,"Pinterest":null,"Youtube":null,"Blog":null,"Address":"3550 S. Washington Ave. Searstown mall Titusville, FL 32780","State":"Florida","City":"TITUSVILLE","Street":"3550 SOUTH ST","Zip":"32780","Longitude":"-80.84704459558931","Latitude":"28.579440645730465","Dates":null,"Products":""},{"Type":"farmers market","ModifyDate":"Mar 20th, 2023","Image":"default-farmersmarket-4-3.jpg","ListingID":"309447","Name":"Trenton Community Farmers' Market","Description":null,"ContactName":null,"ContactEmail":null,"ContactPhone":"352-472-7632","Website":"https:\/\/groups.yahoo.com\/trentoncommunityfarmersmarket\/","Facebook":null,"Twitter":null,"Instagram":null,"Pinterest":null,"Youtube":null,"Blog":null,"Address":"419 N. Main Street Trenton, FL 32693","State":"Florida","City":"Trenton","Street":"419 N. Main Street","Zip":"32693","Longitude":"-82.81837930574085","Latitude":"29.616731231823845","Dates":null,"Products":""},{"Type":"farmers market","ModifyDate":"Mar 20th, 2023","Image":"default-farmersmarket-4-3.jpg","ListingID":"309448","Name":"Tuesday Marketplace","Description":null,"ContactName":null,"ContactEmail":null,"ContactPhone":"386-362-1776","Website":null,"Facebook":null,"Twitter":null,"Instagram":null,"Pinterest":null,"Youtube":null,"Blog":null,"Address":"208 Ohio Avenue N Live Oak, FL 32064","State":"Florida","City":"Live Oak","Street":"208 Ohio Avenue N","Zip":"32064","Longitude":"-82.98374022735912","Latitude":"30.297257849438658","Dates":null,"Products":""},{"Type":"farmers market","ModifyDate":"Mar 20th, 2023","Image":"default-farmersmarket-4-3.jpg","ListingID":"309449","Name":"Tuesday's Growers Market at Purple Martin Nurseries","Description":null,"ContactName":null,"ContactEmail":null,"ContactPhone":"850-412-5260","Website":null,"Facebook":null,"Twitter":null,"Instagram":null,"Pinterest":null,"Youtube":null,"Blog":null,"Address":"1554 Crawfordville Highway (Highway 319) Crawfordville, FL 32327","State":"Florida","City":"CRAWFORDVILLE","Street":"1554 HWY","Zip":"32327","Longitude":"-84.36241247017888","Latitude":"30.23951243511732","Dates":null,"Products":""},{"Type":"farmers market","ModifyDate":"Mar 20th, 2023","Image":"default-farmersmarket-4-3.jpg","ListingID":"309450","Name":"Union Street Farmers' Market","Description":null,"ContactName":null,"ContactEmail":null,"ContactPhone":"386-462-3192","Website":"https:\/\/www.unionstreetfarmersmkt.com\/","Facebook":null,"Twitter":null,"Instagram":null,"Pinterest":null,"Youtube":null,"Blog":null,"Address":"111 East University Avenue Gainesville, FL 32601","State":"Florida","City":"Gainesville","Street":"111 East University Avenue","Zip":"32601","Longitude":"-82.32382694749192","Latitude":"29.65195085814133","Dates":null,"Products":""},{"Type":"farmers market","ModifyDate":"Mar 20th, 2023","Image":"default-farmersmarket-4-3.jpg","ListingID":"309451","Name":"University of South Florida Farmer's Market","Description":null,"ContactName":null,"ContactEmail":null,"ContactPhone":null,"Website":null,"Facebook":"http:\/\/www.facebook.com\/farmusf","Twitter":null,"Instagram":null,"Pinterest":null,"Youtube":null,"Blog":null,"Address":"4202 E Fowler Ave Tampa, FL 33620","State":"Florida","City":"TAMPA","Street":"4202 E FOWLER AVE","Zip":"33612","Longitude":"-82.41437173930784","Latitude":"28.05446161225916","Dates":null,"Products":""},{"Type":"farmers market","ModifyDate":"Mar 20th, 2023","Image":"default-farmersmarket-4-3.jpg","ListingID":"309452","Name":"Upper East Side Green Market","Description":null,"ContactName":null,"ContactEmail":null,"ContactPhone":"305-551-0038","Website":"https:\/\/www.themarketcompany.org\/","Facebook":null,"Twitter":null,"Instagram":null,"Pinterest":null,"Youtube":null,"Blog":null,"Address":"5556 N. E. 4th Court Miami, FL 33137","State":"Florida","City":"Miami","Street":"5556 N. E. 4th Court","Zip":"33137","Longitude":"-80.18732703299602","Latitude":"25.827038016089716","Dates":null,"Products":""},{"Type":"farmers market","ModifyDate":"Mar 20th, 2023","Image":"default-farmersmarket-4-3.jpg","ListingID":"309453","Name":"Upper Eastside Farmers' Market","Description":null,"ContactName":null,"ContactEmail":"theedibleyardmiami@gmail.com","ContactPhone":"786-427-4698","Website":null,"Facebook":"https:\/\/www.facebook.com\/UpperEastSideFarmersMarket","Twitter":null,"Instagram":null,"Pinterest":null,"Youtube":null,"Blog":null,"Address":"NE 66th St. and Biscayne Blvd. , Miami, FL, 33138","State":"Florida","City":"Miami","Street":"NE 66th St. and Biscayne Blvd.","Zip":"33138","Longitude":"-80.1841900219136","Latitude":"25.83657000019987","Dates":null,"Products":""},{"Type":"farmers market","ModifyDate":"Mar 20th, 2023","Image":"default-farmersmarket-4-3.jpg","ListingID":"309454","Name":"Village Farmers' Market","Description":null,"ContactName":null,"ContactEmail":null,"ContactPhone":"561-547-3100","Website":null,"Facebook":null,"Twitter":null,"Instagram":null,"Pinterest":null,"Youtube":null,"Blog":null,"Address":"11001 Southern Blvd. Royal Palm Beach, FL 33411","State":"Florida","City":"Royal Palm Beach","Street":"11001 Southern Blvd.","Zip":"33411","Longitude":"-80.22008581055502","Latitude":"26.681063078821843","Dates":null,"Products":""},{"Type":"farmers market","ModifyDate":"Mar 20th, 2023","Image":"default-farmersmarket-4-3.jpg","ListingID":"309455","Name":"Village Park Market","Description":null,"ContactName":null,"ContactEmail":null,"ContactPhone":"407-585-7118","Website":"http:\/\/www.thevillagehc.com","Facebook":null,"Twitter":null,"Instagram":null,"Pinterest":null,"Youtube":null,"Blog":null,"Address":"13586 South John Young Parkway Orlando, FL 32837","State":"Florida","City":"ORLANDO","Street":"13586 S JOHN YOUNG PKWY","Zip":"32837","Longitude":"-81.42591221075784","Latitude":"28.375176236982007","Dates":null,"Products":""},{"Type":"farmers market","ModifyDate":"Mar 20th, 2023","Image":"default-farmersmarket-4-3.jpg","ListingID":"309456","Name":"Volusia County Farm Bureau Farmers' Market","Description":null,"ContactName":null,"ContactEmail":null,"ContactPhone":"386-734-1612","Website":"http:\/\/www.volusiacountyfarmbureau.com\/?page_id=27","Facebook":null,"Twitter":null,"Instagram":null,"Pinterest":null,"Youtube":null,"Blog":null,"Address":"3050 E. New York Ave., DeLand, FL, 32724","State":"Florida","City":"DeLand","Street":"3050 E. New York Ave.","Zip":"32724","Longitude":"-81.22515067310398","Latitude":"29.01807293068243","Dates":null,"Products":""},{"Type":"farmers market","ModifyDate":"Mar 20th, 2023","Image":"default-farmersmarket-4-3.jpg","ListingID":"309457","Name":"Wauchula State Farmers' Market","Description":null,"ContactName":null,"ContactEmail":null,"ContactPhone":"863-773-9850","Website":"https:\/\/www.florida-agriculture.com\/marketing\/markets\/wauchula_market.htm","Facebook":null,"Twitter":null,"Instagram":null,"Pinterest":null,"Youtube":null,"Blog":null,"Address":"535 South 6th Ave. Ste. #101 Wauchula, FL 33873","State":"Florida","City":"Wauchula","Street":"535 South 6th Ave","Zip":"33873","Longitude":"-81.81080503473561","Latitude":"27.5407029909737","Dates":null,"Products":""},{"Type":"farmers market","ModifyDate":"Mar 20th, 2023","Image":"default-farmersmarket-4-3.jpg","ListingID":"309458","Name":"Wednesday Green Market","Description":null,"ContactName":null,"ContactEmail":null,"ContactPhone":"772-971-8480","Website":null,"Facebook":"http:\/\/www.facebook.com\/wednesdaygreenmarket","Twitter":null,"Instagram":null,"Pinterest":null,"Youtube":null,"Blog":null,"Address":"101 Melody Lane Ft. Pierce, FL 34950 State road 95 to Orange Ave Exit in Fort Pierce, FL, Go East until you hit the Waterfront and the Fort Pierce Marina Square","State":"Florida","City":"FORT PIERCE","Street":"101 MELODY LN","Zip":"34950","Longitude":"-80.32170127548207","Latitude":"27.44816794801878","Dates":null,"Products":""},{"Type":"farmers market","ModifyDate":"Mar 20th, 2023","Image":"default-farmersmarket-4-3.jpg","ListingID":"309459","Name":"Wellington Green Market","Description":null,"ContactName":null,"ContactEmail":"wellingtongreenmarket@gmail.com","ContactPhone":"561-283-5856","Website":"http:\/\/www.wellingtongreenmarket.com\/","Facebook":null,"Twitter":null,"Instagram":null,"Pinterest":null,"Youtube":null,"Blog":null,"Address":"12300 Forest Hill Blvd., Wellington, FL, 33414","State":"Florida","City":"Wellington","Street":"12300 Forest Hill Blvd.","Zip":"33414","Longitude":"-80.23780629049884","Latitude":"26.654955682649728","Dates":null,"Products":""},{"Type":"farmers market","ModifyDate":"Mar 20th, 2023","Image":"default-farmersmarket-4-3.jpg","ListingID":"309460","Name":"West Palm Beach Green Market","Description":null,"ContactName":null,"ContactEmail":null,"ContactPhone":"561-822-1520","Website":"http:\/\/wpb.org\/greenmarket\/","Facebook":"http:\/\/www.facebook.com\/CityOfWestPalmBeachGreenMarket","Twitter":null,"Instagram":null,"Pinterest":null,"Youtube":null,"Blog":null,"Address":"100 Clematis Street West Palm Beach, FL 33401","State":"Florida","City":"WEST PALM BCH","Street":"100 N CLEMATIS ST","Zip":"33401","Longitude":"-80.04922880154345","Latitude":"26.71380329683579","Dates":null,"Products":""},{"Type":"farmers market","ModifyDate":"Mar 20th, 2023","Image":"default-farmersmarket-4-3.jpg","ListingID":"309461","Name":"West Palm Beach Green Market","Description":null,"ContactName":null,"ContactEmail":"822@wpb.org","ContactPhone":"561-822-1515","Website":"https:\/\/www.wpb.org\/greenmarket","Facebook":null,"Twitter":null,"Instagram":null,"Pinterest":null,"Youtube":null,"Blog":null,"Address":"Narcissus Avenue and Second Street West Palm Beach, FL 33402","State":"Florida","City":"West Palm Beach","Street":"Narcissus Avenue and Second Street","Zip":"33402","Longitude":"-80.05066999236618","Latitude":"26.71522999029385","Dates":null,"Products":""},{"Type":"farmers market","ModifyDate":"Mar 20th, 2023","Image":"default-farmersmarket-4-3.jpg","ListingID":"309462","Name":"White Springs Farmers' Market","Description":null,"ContactName":null,"ContactEmail":null,"ContactPhone":"386-755-3107","Website":null,"Facebook":null,"Twitter":null,"Instagram":null,"Pinterest":null,"Youtube":null,"Blog":null,"Address":"Highway 136 & US 41 White Springs, FL 32096","State":"Florida","City":"White Springs","Street":"Highway 136 & US 41","Zip":"32096","Longitude":"-82.75902995968192","Latitude":"30.32980998062054","Dates":null,"Products":""},{"Type":"farmers market","ModifyDate":"Mar 20th, 2023","Image":"default-farmersmarket-4-3.jpg","ListingID":"309463","Name":"Wilton Manors Farmers' Market","Description":null,"ContactName":null,"ContactEmail":null,"ContactPhone":"754-235-4205","Website":null,"Facebook":"https:\/\/www.facebook.com\/WiltonManorsGreenMarket","Twitter":null,"Instagram":null,"Pinterest":null,"Youtube":null,"Blog":null,"Address":"2020 Wilton Dr., Hagen Park, Wilton Manors, FL, 33069","State":"Florida","City":"Wilton Manors","Street":"2020 Wilton Dr., Hagen Park","Zip":"33069","Longitude":"-80.13991001999933","Latitude":"26.153800979328253","Dates":null,"Products":""},{"Type":"farmers market","ModifyDate":"Mar 20th, 2023","Image":"default-farmersmarket-4-3.jpg","ListingID":"309464","Name":"Winter Haven Farmers' Market","Description":null,"ContactName":null,"ContactEmail":null,"ContactPhone":"863-291-5870","Website":null,"Facebook":null,"Twitter":null,"Instagram":null,"Pinterest":null,"Youtube":null,"Blog":null,"Address":"Third Street NW and Avenue G NW Winter Haven, FL 33880","State":"Florida","City":"Winter Haven","Street":"Third Street NW and Avenue G NW","Zip":"33880","Longitude":"-81.73038997767976","Latitude":"28.028469992814806","Dates":null,"Products":""},{"Type":"farmers market","ModifyDate":"Mar 20th, 2023","Image":"default-farmersmarket-4-3.jpg","ListingID":"309465","Name":"Winter Park Farmers' Market","Description":null,"ContactName":null,"ContactEmail":"rmoore@cityofwinterpark.org","ContactPhone":"407-599-3275","Website":"https:\/\/cityofwinterpark.org\/departments\/parks-recreation\/activities-events\/saturday-farmers-market\/","Facebook":null,"Twitter":null,"Instagram":null,"Pinterest":null,"Youtube":null,"Blog":null,"Address":"200 W. New England Ave., Winter Park, FL, 32789","State":"Florida","City":"Winter Park","Street":"200 W. New England Ave.","Zip":"32789","Longitude":"-81.35253436482964","Latitude":"28.595920793318225","Dates":null,"Products":""},{"Type":"farmers market","ModifyDate":"Mar 20th, 2023","Image":"default-farmersmarket-4-3.jpg","ListingID":"309466","Name":"Woolbright Farmers Market","Description":null,"ContactName":null,"ContactEmail":null,"ContactPhone":"561-732-2454","Website":"http:\/\/woolbrightfarmersmarket.com","Facebook":null,"Twitter":null,"Instagram":null,"Pinterest":null,"Youtube":null,"Blog":null,"Address":"141 W. Woolbright Rd. Boynton Beach, FL 33435","State":"Florida","City":"BOYNTON BEACH","Street":"141 W WOOLBRIGHT RD","Zip":"33435","Longitude":"-80.06472036431116","Latitude":"26.51454415241411","Dates":null,"Products":""},{"Type":"farmers market","ModifyDate":"Mar 20th, 2023","Image":"default-farmersmarket-4-3.jpg","ListingID":"309467","Name":"Ybor City Farmers' Market","Description":null,"ContactName":null,"ContactEmail":"info@ybormarket.com","ContactPhone":"813-241-2442","Website":"http:\/\/www.ybormarket.com\/","Facebook":"https:\/\/www.facebook.com\/ybormarket\/","Twitter":null,"Instagram":null,"Pinterest":null,"Youtube":null,"Blog":null,"Address":"1800 E. 8th Ave., Tampa, FL, 33605","State":"Florida","City":"Tampa","Street":"1800 E. 8th Ave.","Zip":"33605","Longitude":"-82.43912621446144","Latitude":"27.960987495735065","Dates":null,"Products":""},{"Type":"farmers market","ModifyDate":"Mar 20th, 2023","Image":"default-farmersmarket-4-3.jpg","ListingID":"309468","Name":"Ybor City Fresh Market","Description":null,"ContactName":null,"ContactEmail":null,"ContactPhone":"813-241-2442","Website":"https:\/\/www.ybormarket.com\/","Facebook":null,"Twitter":null,"Instagram":null,"Pinterest":null,"Youtube":null,"Blog":null,"Address":"Eighth Avenue and 19th Street Tampa, FL 33605","State":"Florida","City":"Tampa","Street":"Eighth Avenue and 19th Street","Zip":"33605","Longitude":"-82.43801999950689","Latitude":"27.96097999809355","Dates":null,"Products":""},{"Type":"farmers market","ModifyDate":"Mar 31st, 2022","Image":"farmersmarket_301610_10992_20220331160447.png","ListingID":"301610","Name":"Koreshan State Park Farmers Market","Description":"","ContactName":"Cynthia Cloughly","ContactEmail":"friendsofkoreshan@gmail.com","ContactPhone":"2399920311","Website":"https:\/\/friendsofkoreshan.org\/Farmers-Market","Facebook":"","Twitter":"","Instagram":"","Pinterest":"","Youtube":"","Blog":"","Address":"Koreshan State Park, 3800 Corkscrew Rd, Estero FL 33928","State":"Florida","City":"Estero","Street":"3800 Corkscrew Road","Zip":"33928","Longitude":"-81.8156127","Latitude":"26.434777","Dates":"Year-round","Products":"Fresh fruits, Fresh vegetables, Baked goods, Canned or preserved fruits\/vegetables, Coffee\/tea, Crafts\/woodworking items, Honey, Juices\/non-alcoholic ciders, Pet food, Prepared foods, Soap\/body care products"},{"Type":"farmers market","ModifyDate":"Sep 11th, 2020","Image":"default-farmersmarket-4-3.jpg","ListingID":"300242","Name":"Airport Farmers and Flea Market","Description":null,"ContactName":"Emily & James","ContactEmail":"airportfarmersfleamarket@gmail.com","ContactPhone":"352-796-0268","Website":null,"Facebook":"https:\/\/www.facebook.com\/airportfarmersandfleamarket","Twitter":null,"Instagram":null,"Pinterest":null,"Youtube":null,"Blog":null,"Address":"17375 Spring Hill Dr, Brooksville, Florida 34604","State":"Florida","City":"Brooksville","Street":"17375 Spring Hill Dr","Zip":"34604","Longitude":"-82.441514","Latitude":"28.481294","Dates":"Year-round","Products":"Fresh fruits, Fresh vegetables, Baked goods, Bedding plants, Canned or preserved fruits\/vegetables, Coffee\/tea, Crafts\/woodworking items, Cut flowers, Dairy products., Eggs, Fish\/seafood, Fresh\/dried herbs, Honey, Juices\/non-alcoholic ciders, Maple products, Nursery stock, Nuts, Pet food, Prepared foods, Soap\/body care products, Wild harvested forest products, Wine, spirits, beer, hard cider"},{"Type":"farmers market","ModifyDate":"Sep 12th, 2020","Image":"default-farmersmarket-4-3.jpg","ListingID":"300599","Name":"Brooksville Farmers' Market","Description":null,"ContactName":"Michael Sundquist","ContactEmail":"Markets@hernandogrowers.org","ContactPhone":"3522703071","Website":"www.hernandogrowers.org","Facebook":"facebook.com\/hernandogrowers","Twitter":"twitter.com\/HernandoGrowers","Instagram":null,"Pinterest":null,"Youtube":null,"Blog":null,"Address":"15487 Citrus Way, Brooksville, Florida 34614","State":"Florida","City":"Brooksville","Street":"15487 Citrus Way","Zip":"34614","Longitude":"-82.449304","Latitude":"28.654639","Dates":"Year-round","Products":"Fresh fruits, Fresh vegetables, Baked goods, Bedding plants, Canned or preserved fruits\/vegetables, Crafts\/woodworking items, Dairy products., Eggs, Fish\/seafood, Fresh\/dried herbs, Honey, Nursery stock, Poultry\/fowl meat and products, Red\/other non-poultry meat and products, Soap\/body care products, Tofu\/non-animal protein"}]