[{"type":"farm","street":"5985 S.W. Anglin Road","city":"Bentonville","state":"AR","zip":"72712","longitude":"-94.2898468","latitude":"36.3296074","name":"Anglin Beef","website":"http://www.anglinbeef.com","facebook":"","twitter":"","tags":""},{"type":"farm","street":"5909 Elm Springs Road","city":"Springdale","state":"AR","zip":"72762","longitude":"-94.195752","latitude":"36.193514","name":"Appel Farms","website":"","facebook":"https://www.facebook.com/AppelFarmsNWA","twitter":"","tags":"fresh-fruits fresh-vegetables"},{"type":"farm","street":"10309 Lafferty road","city":"Mt Pleasant","state":"AR","zip":"72561","longitude":"-91.913419","latitude":"36.0948783","name":"earthartandfoods.com","website":"earthartandfoods.com","facebook":"","twitter":"","tags":""},{"type":"farm","street":"","city":"Cave Springs ","state":"AR","zip":"72718","longitude":"-94.219384","latitude":"36.281402","name":"Ewe Bet Farm","website":"Www.ewebetfarm.com","facebook":"facebook.com/ewebetfarm","twitter":"@ewebetfarm","tags":"red-meat non-poultry-meat"},{"type":"farm","street":"6715 Highway 7 South","city":"Harrison","state":"AR","zip":"72601","longitude":"-93.122859","latitude":"36.167198","name":"Fenton's Farm Market","website":"www.fentonsberryfarm.com","facebook":"www.facebook.com/fentonsberryfarmAR","twitter":"","tags":"crafts woodworking eggs fresh-fruits fresh-vegetables honey"},{"type":"farm","street":"1414 Fayetteville Rd","city":"Van Buren","state":"AR","zip":"72956","longitude":"-94.356587","latitude":"35.454841","name":"M&M Farms","website":"","facebook":"","twitter":"","tags":"eggs red-meat non-poultry-meat"},{"type":"farm","street":"15620 Black Oak Quarry Road","city":"Fayetteville","state":"AR","zip":"72701","longitude":"-94.0963900","latitude":"35.9715879","name":"Mason Creek Farm","website":"http://www.masoncreekfarm.com/","facebook":"https://www.facebook.com/pages/Mason-Creek-Farm/125513010889959","twitter":"","tags":"eggs poultry fowl"},{"type":"farm","street":"14816 Miser Road","city":"Pea Ridge","state":"AR","zip":"72751","longitude":"-94.0784586","latitude":"36.4491077","name":"McGarrah Farms","website":"www.mcgarrahfarms.com","facebook":"Mcgarrah farms","twitter":"","tags":"fresh-fruits fresh-vegetables"},{"type":"farm","street":"1901 McGuire road","city":"Lamar","state":"AR","zip":"72846","longitude":"-93.394360","latitude":"35.475917","name":"Peach Pickin' Paradise","website":"","facebook":"Facebook.com/peachpickinparadise ","twitter":"@treeripepeach","tags":"fresh-fruits"},{"type":"farm","street":"1265 Will Baker Road","city":"London","state":"AR","zip":"72847","longitude":"-93.2818530","latitude":"35.3528890","name":"Renee's Berry Garden","website":"sites.google.com/site/reneesberrygarden/","facebook":"https://www.facebook.com/pages/Renees-Berry-Garden/172150249512730","twitter":"","tags":"honey"},{"type":"farm","street":"134 Keystone Lane","city":"Bruno","state":"AR","zip":"72682","longitude":"-92.748771","latitude":"36.155341","name":"Schot's Slopes Farm","website":"htp//schotsslopesfarm.com","facebook":"https://www.facebook.com/SchotsSlopesFarm","twitter":"","tags":"dairy products eggs poultry fowl"},{"type":"farm","street":"460 CR 6220","city":"Oakrk","state":"AR","zip":"72852","longitude":"-93.459919","latitude":"35.5700483","name":"SLB3","website":"baughmansfarm.com","facebook":"https://www.facebook.com/pages/Baughmans-Farm/780067088704026?ref=bookmarks","twitter":"","tags":"eggs poultry fowl red-meat non-poultry-meat"},{"type":"farm","street":"6800 Camp Robinson Rd","city":"North Little Rock","state":"AR","zip":"72118","longitude":"-92.271114","latitude":"34.816400","name":"St. Joseph Farm Stand","website":"www.stjosephcenter.org","facebook":"www.facebook.com/stjosephfarmstand","twitter":"@sjfarmstand","tags":"baked-goods bedding plants canned preserved coffee tea crafts woodworking cut-flowers dairy products eggs herbs fresh-fruits fresh-vegetables grains flour honey mushrooms nursery-stock nuts poultry fowl prepared-foods red-meat non-poultry-meat soap body-care wild-harvested forest-products"},{"type":"farm","street":"6688 West State Highway 10","city":"Booneville","state":"AR","zip":"72927","longitude":"-94.0256390","latitude":"35.1725090","name":"Sunnyland Berry Farm","website":"","facebook":"https://www.facebook.com/sunnylandberryfarm?ref_type=bookmark","twitter":"","tags":"fresh-fruits fresh-vegetables"},{"type":"farm","street":"12801 Taylor Orchard Road","city":"Gentry","state":"AR","zip":"72734","longitude":"-94.512708","latitude":"36.246170","name":"Taylors Orchard","website":"","facebook":"","twitter":"","tags":"fresh-fruits"},{"type":"farm","street":"42 Willow Tree Rd","city":"Ward","state":"AR","zip":"72176","longitude":"-91.872998","latitude":"34.971839","name":"Willow Tree Farms","website":"","facebook":"Willow Tree Farms","twitter":"","tags":"fresh-vegetables honey"},{"type":"market","name":"ASU Regional Farmers' Market","website":"http://www.asuregionalfarmersmarket.org","facebook":"https://www.facebook.com/asuregionalfarmersmarket","twitter":"https://twitter.com/asufarmersmarket","street":"3300 Aggie Road","city":"Jonesboro","state":"AR","zip":"72401","longitude":"-90.667327","latitude":"35.840771","tags":"baked goods crafts flowers eggs herbs vegetables honey jams maple meat nuts plants poultry prepared-foods soap trees coffee fruits pet food"},{"type":"market","name":"Bentonville Farmers Market ","website":"https://www.downtownbentonville.org/event/fm","facebook":"https://www.facebook.com/142086697017/","twitter":"","street":"100 N. Main Street ","city":"Bentonville ","state":"AR","zip":"72712","longitude":"-94.208458","latitude":"36.372637","tags":"baked goods cheese crafts flowers eggs herbs vegetables honey jams plants poultry prepared-foods soap coffee fruits mushrooms"},{"type":"market","name":"Charleston Farmers Market","website":"","facebook":"https://www.facebook.com/Charleston-Ar-Farmers-Market-1593672464260381/","twitter":"","street":"","city":"Charleston","state":"AR","zip":"72933","longitude":"-94.0363153","latitude":"35.2970353","tags":"baked goods crafts vegetables honey plants prepared-foods soap coffee fruits"},{"type":"market","name":"Conway Farmers' Market","website":"","facebook":"https://www.facebook.com/ConwayFarmersMktAntioch","twitter":"","street":"150 Amity Rd.","city":"Conway","state":"AR","zip":"72032","longitude":"-92.412570","latitude":"35.077695","tags":"baked goods crafts flowers eggs herbs vegetables honey jams meat plants poultry prepared-foods soap fruits pet food"},{"type":"market","name":"Cross County Farmer's Market","website":"","facebook":"","twitter":"","street":"705 E. Union Avenue, Room 2","city":"Wynne","state":"AR","zip":"72396","longitude":"-90.786483","latitude":"35.223532","tags":"baked goods crafts vegetables honey jams soap"},{"type":"market","name":"Dallas County Farmer's Market","website":"","facebook":"Dallas County Farmer's Market","twitter":"","street":"206 West 3rd St.","city":"Fordyce","state":"AR","zip":"71742","longitude":"-92.414240","latitude":"33.812858","tags":"baked goods crafts vegetables honey jams"},{"type":"market","name":"Dardanelle Farmers Market","website":"","facebook":"fb.me/dardanellefarmersmarket","twitter":"","street":"120 N Front St","city":"Dardanelle","state":"AR","zip":"","longitude":"-93.153099","latitude":"35.220839","tags":"organic baked goods crafts flowers eggs herbs vegetables honey jams meat plants prepared-foods soap fruits grains pet food"},{"type":"market","name":"Downtown Conway Farmers' & Crafts Market","website":"","facebook":"downtownconwayfarmersandcraftsmarket","twitter":"","street":"718 Parkway","city":"Conway","state":"AR","zip":"72032","longitude":"-92.440867","latitude":"35.088507","tags":"baked goods crafts flowers eggs herbs vegetables jams meat plants poultry prepared-foods soap fruits mushrooms"},{"type":"market","name":"Downtown Newport Farmers Market","website":"http://newportfarmersmarket.org","facebook":"","twitter":"","street":"Corner of Hwy 101 & Angle St","city":"Newport","state":"AR","zip":"72112","longitude":"-91.234721","latitude":"35.6268","tags":"baked goods crafts vegetables jams plants"},{"type":"market","name":"Downtown Rogers Farmers Market","website":"https://www.downtownrogersinc.org/market","facebook":"https://www.facebook.com/DTRMarket","twitter":"","street":"Railyard Park","city":"ROGERS","state":"AR","zip":"72756","longitude":"-94.116000","latitude":"36.332762","tags":"baked goods crafts flowers eggs vegetables honey jams meat nuts poultry soap mushrooms"},{"type":"market","name":"Eureka Springs Farmers Market","website":"","facebook":"https://www.facebook.com/ESFarmersMarket","twitter":"","street":"44 Kingshighway","city":"Eureka Springs","state":"AR","zip":"72632","longitude":"-93.746149","latitude":"36.398616","tags":"organic baked goods cheese crafts flowers eggs herbs vegetables jams meat plants prepared-foods soap fruits mushrooms"},{"type":"market","name":"Farmers Market of Gravette","website":"","facebook":"","twitter":"","street":"Hwy. 72 east","city":"Gravette","state":"AR","zip":"72736","longitude":"-94.446383","latitude":"36.419093","tags":"baked goods crafts flowers eggs herbs vegetables honey jams meat plants trees fruits"},{"type":"market","name":"Gateway Farmers Market","website":"","facebook":"https://www.facebook.com/gatewayfarmersmarket","twitter":"","street":"602 Jefferson Avenue","city":"Texarkana","state":"AR","zip":"71854","longitude":"-94.029671","latitude":"33.430404","tags":"baked goods crafts flowers eggs vegetables honey jams meat prepared-foods soap fruits"},{"type":"market","name":"Grand Prairie Farmers Market","website":"","facebook":"https://www.facebook.com/GrandPrairieFarmersMarket","twitter":"","street":"505 S. Main St.","city":"Stuttgart ","state":"AR","zip":"72160","longitude":"-91.552370","latitude":"34.498020","tags":"baked goods crafts vegetables fruits"},{"type":"market","name":"Historic Downtown Farmers Market","website":"http://hotspringsfarmermarket.com","facebook":"facebook.com/hotspringsfarmersmarket","twitter":"twitter.com/hs_farmersmkt","street":"121 Orange Street","city":"Hot Springs","state":"AR","zip":"71901","longitude":"-93.050943","latitude":"34.504886","tags":"baked goods crafts flowers eggs herbs vegetables honey jams meat plants poultry soap coffee beans fruits mushrooms"},{"type":"market","name":"Lafayette County Farmers Market","website":"","facebook":"https://www.facebook.com/Lafayette-County-Farmers-Market-At-Lewisville-1709681622637869/","twitter":"","street":"224 E. First Street","city":"Lewisville ","state":"AR","zip":"71845","longitude":"-93.577673","latitude":"33.355445","tags":"flowers eggs vegetables honey plants soap fruits"},{"type":"market","name":"Little River County Farmers Market","website":"","facebook":"https://www.facebook.com/LRCFarmersMarket/","twitter":"","street":"","city":"Ashdown","state":"AR","zip":"71822","longitude":"-94.117600","latitude":"33.661403","tags":"baked goods vegetables jams fruits"},{"type":"market","name":"Paragould Farmers' Market","website":"","facebook":"https://www.facebook.com/paragouldmarket","twitter":"","street":"100 W. Emerson","city":"Paragould, AR","state":"AR","zip":"72450","longitude":"-90.486623","latitude":"36.055570","tags":"baked goods crafts herbs vegetables honey jams plants soap fruits pet food"},{"type":"market","name":"Randolph County Farmers' Market","website":"","facebook":"Randolph County Farmers' Market","twitter":"","street":"1966 Highway 62 West","city":"Pocahontas ","state":"AR","zip":"72455","longitude":"-90.983393","latitude":"36.257409","tags":"baked goods flowers eggs herbs vegetables jams fruits"},{"type":"market","name":"Russellville Community Market","website":"http://russellville.locallygrown.net","facebook":"@russellvilleCM","twitter":"","street":"320 West C St. ","city":"Russellville","state":"AR","zip":"72801","longitude":"-93.135468","latitude":"35.280402","tags":"organic baked goods cheese crafts flowers eggs herbs vegetables honey jams meat nuts plants poultry prepared-foods soap trees coffee fruits pet food tofu"},{"type":"market","name":"Saracen Landing Farmers Market","website":"","facebook":"https://www.facebook.com/pages/Saracen-Landing-Farmers-Market/384646718262191","twitter":"","street":"200 Lake Saracen Drive","city":"Pine Bluff ","state":"AR","zip":"71601","longitude":"-92.004296","latitude":"34.231049","tags":"baked goods crafts eggs herbs vegetables honey jams maple soap fruits"},{"type":"market","name":"Sevier County Farmers Market","website":"","facebook":"https://m.facebook.com/SevierCountyFarmersMarketDeQueenArkansas","twitter":"","street":"Herman Dierks Park   604 East Hayes Avenue","city":"De Queen","state":"AR","zip":"71832","longitude":"-94.342133","latitude":"34.042245","tags":"baked goods crafts flowers eggs herbs vegetables honey jams meat plants soap fruits"},{"type":"market","name":"Siloam Springs Farmers Market ","website":"http://www.mainstreetsiloam.org/farmersmarket","facebook":"Facebook.com/SiloamSpringsFarmersMarket","twitter":"","street":"205 Jefferson Street","city":"Siloam Springs ","state":"AR","zip":"72761","longitude":"-94.541074","latitude":"36.181621","tags":"baked goods crafts flowers eggs vegetables jams meat plants poultry soap coffee"},{"type":"market","name":"Springdale Farmers’ Market","website":"http://springdale.locallygrown.net","facebook":"Springdale Farmers’ Market at the Jones Center ","twitter":"","street":"992 E. Emma Ave.","city":"Springdale ","state":"AR","zip":"72764","longitude":"-94.118450","latitude":"36.187450","tags":"baked goods crafts flowers eggs vegetables honey jams plants prepared-foods soap fruits"},{"type":"market","name":"Tontitown Farmers' Market","website":"https://www.tontitown.com/tontitown-farmers-market/","facebook":"https://www.facebook.com/Tontitown-Farmers-Market-101353608349771/","twitter":"https://twitter.com/TontitownM","street":"235 E. Henri De Tonti Blvd","city":"Tontitown, AR","state":"AR","zip":"72770","longitude":"-94.232501","latitude":"36.175764","tags":"organic baked goods crafts flowers eggs herbs vegetables honey jams plants prepared-foods soap coffee fruits pet food wild"},{"type":"market","name":"White St. Saturday Market","website":"","facebook":"https://www.facebook.com/SaturdayFarmersMarket","twitter":"","street":"26 White St.","city":"Eureka Springs","state":"AR","zip":"72632","longitude":"-93.741728","latitude":"36.404902","tags":"organic baked goods flowers eggs vegetables jams fruits"}]
