[{"Type":"farmers market","ModifyDate":"Apr 15th, 2022","Image":"farmersmarket_301697_69_20220415151346.png","ListingID":"301697","Name":"FRESHFARM Columbia Heights (Saturday) ","Description":"FRESHFARM is a nonprofit based in Washington, DC, that works to create a more resilient, equitable, and sustainable food future. For 25 years, we have operated producer-only farmers markets in DC, Maryland, and Virginia. Our farmers market network is the third-largest in the country and the largest in the Mid-Atlantic region, providing economic opportunity to a network of 250 Mid-Atlantic farmers and producers and a community space to restore the vital connections in our local food systems.","ContactName":"FRESHFARM Markets","ContactEmail":"markets@ffm.org","ContactPhone":"","Website":"https:\/\/www.freshfarm.org\/","Facebook":"https:\/\/www.facebook.com\/freshfarmdc\/","Twitter":"https:\/\/twitter.com\/FRESHFARMDC","Instagram":"https:\/\/www.instagram.com\/freshfarmdc\/","Pinterest":"","Youtube":"","Blog":"","Address":"Park Rd NW & 14th St NW, Washington, DC 20010, USA","State":"District of Columbia","City":"Washington","Street":"Park Road Northwest & 14th Street Northwest","Zip":"20010","Longitude":"-77.03274619999999","Latitude":"38.9302925","Dates":"Year-round","Products":"Fresh fruits, Fresh vegetables, Baked goods, Canned or preserved fruits\/vegetables, Fish\/seafood, Mushrooms, Prepared foods"},{"Type":"farmers market","ModifyDate":"Apr 15th, 2022","Image":"farmersmarket_301699_69_20220415154009.png","ListingID":"301699","Name":"FRESHFARM Dupont Circle (Sunday)","Description":"FRESHFARM is a nonprofit based in Washington, DC, that works to create a more resilient, equitable, and sustainable food future. For 25 years, we have operated producer-only farmers markets in DC, Maryland, and Virginia. Our farmers market network is the third-largest in the country and the largest in the Mid-Atlantic region, providing economic opportunity to a network of 250 Mid-Atlantic farmers and producers and a community space to restore the vital connections in our local food systems.","ContactName":"FRESHFARM Markets","ContactEmail":"markets@ffm.org","ContactPhone":"","Website":"https:\/\/www.freshfarm.org\/","Facebook":"https:\/\/www.facebook.com\/freshfarmdc\/","Twitter":"https:\/\/twitter.com\/FRESHFARMDC","Instagram":"https:\/\/www.instagram.com\/freshfarmdc\/","Pinterest":"","Youtube":"","Blog":"","Address":"1600 20th St NW, Washington, DC 20009, USA","State":"District of Columbia","City":"Washington","Street":"1600 20th Street Northwest","Zip":"20009","Longitude":"-77.04520099999999","Latitude":"38.91129249999999","Dates":"Year-round","Products":"Fresh fruits, Fresh vegetables, Baked goods, Canned or preserved fruits\/vegetables, Coffee\/tea, Cut flowers, Dairy products., Eggs, Fresh\/dried herbs, Grains\/flour, Honey, Juices\/non-alcoholic ciders, Mushrooms, Poultry\/fowl meat and products, Prepared foods, Red\/other non-poultry meat and products, Soap\/body care products, Wild harvested forest products, Wine, spirits, beer, hard cider"},{"Type":"farmers market","ModifyDate":"Apr 15th, 2022","Image":"farmersmarket_301701_69_20220415162130.png","ListingID":"301701","Name":"FRESHFARM Foggy Bottom","Description":"FRESHFARM is a nonprofit based in Washington, DC, that works to create a more resilient, equitable, and sustainable food future. For 25 years, we have operated producer-only farmers markets in DC, Maryland, and Virginia. Our farmers market network is the third-largest in the country and the largest in the Mid-Atlantic region, providing economic opportunity to a network of 250 Mid-Atlantic farmers and producers and a community space to restore the vital connections in our local food systems.","ContactName":"FRESHFARM Markets","ContactEmail":"markets@ffm.org","ContactPhone":"","Website":"https:\/\/www.freshfarm.org\/","Facebook":"https:\/\/www.facebook.com\/freshfarmdc\/","Twitter":"https:\/\/twitter.com\/FRESHFARMDC","Instagram":"https:\/\/www.instagram.com\/freshfarmdc\/","Pinterest":"","Youtube":"","Blog":"","Address":"901 23rd St NW, Washington, DC 20052, USA","State":"District of Columbia","City":"Washington","Street":"901 23rd Street Northwest","Zip":"20052","Longitude":"-77.0505776","Latitude":"38.9004805","Dates":"04\/06\/2022 to 11\/23\/2022","Products":"Fresh fruits, Fresh vegetables, Baked goods, Coffee\/tea, Mushrooms"},{"Type":"farmers market","ModifyDate":"Apr 15th, 2022","Image":"farmersmarket_301702_69_20220415162808.png","ListingID":"301702","Name":"FRESHFARM H St NE","Description":"FRESHFARM is a nonprofit based in Washington, DC, that works to create a more resilient, equitable, and sustainable food future. For 25 years, we have operated producer-only farmers markets in DC, Maryland, and Virginia. Our farmers market network is the third-largest in the country and the largest in the Mid-Atlantic region, providing economic opportunity to a network of 250 Mid-Atlantic farmers and producers and a community space to restore the vital connections in our local food systems.","ContactName":"FRESHFARM Markets","ContactEmail":"markets@ffm.org","ContactPhone":"","Website":"https:\/\/www.freshfarm.org\/","Facebook":"https:\/\/www.facebook.com\/freshfarmdc\/","Twitter":"https:\/\/twitter.com\/FRESHFARMDC","Instagram":"https:\/\/www.instagram.com\/freshfarmdc\/","Pinterest":"","Youtube":"","Blog":"","Address":"800 13th St NE, Washington, DC 20002, USA","State":"District of Columbia","City":"Washington","Street":"800 13th Street Northeast","Zip":"20002","Longitude":"-76.98839029999999","Latitude":"38.9007086","Dates":"04\/02\/2022 to 12\/24\/2022","Products":"Fresh fruits, Fresh vegetables, Baked goods, Canned or preserved fruits\/vegetables, Coffee\/tea, Mushrooms, Prepared foods, Red\/other non-poultry meat and products, Wine, spirits, beer, hard cider"},{"Type":"farmers market","ModifyDate":"Apr 18th, 2022","Image":"farmersmarket_301705_69_20220418165443.png","ListingID":"301705","Name":"FRESHFARM Monroe Street ","Description":"FRESHFARM is a nonprofit based in Washington, DC, that works to create a more resilient, equitable, and sustainable food future. For 25 years, we have operated producer-only farmers markets in DC, Maryland, and Virginia. Our farmers market network is the third-largest in the country and the largest in the Mid-Atlantic region, providing economic opportunity to a network of 250 Mid-Atlantic farmers and producers and a community space to restore the vital connections in our local food systems.","ContactName":"FRESHFARM Markets","ContactEmail":"markets@ffm.org","ContactPhone":"","Website":"https:\/\/www.freshfarm.org\/","Facebook":"https:\/\/www.facebook.com\/freshfarmdc\/","Twitter":"https:\/\/twitter.com\/FRESHFARMDC","Instagram":"https:\/\/www.instagram.com\/freshfarmdc\/","Pinterest":"","Youtube":"","Blog":"","Address":"716 Monroe St NE, Washington, DC 20017, USA","State":"District of Columbia","City":"Washington","Street":"716 Monroe Street Northeast","Zip":"20017","Longitude":"-76.994985","Latitude":"38.9323776","Dates":"Year-round","Products":"Fresh fruits, Fresh vegetables, Baked goods, Canned or preserved fruits\/vegetables, Coffee\/tea, Cut flowers, Fish\/seafood, Mushrooms, Prepared foods, Wine, spirits, beer, hard cider"},{"Type":"farmers market","ModifyDate":"Apr 18th, 2022","Image":"farmersmarket_301708_69_20220418170738.png","ListingID":"301708","Name":"FRESHFARM Mount Vernon Triangle","Description":"FRESHFARM is a nonprofit based in Washington, DC, that works to create a more resilient, equitable, and sustainable food future. For 25 years, we have operated producer-only farmers markets in DC, Maryland, and Virginia. Our farmers market network is the third-largest in the country and the largest in the Mid-Atlantic region, providing economic opportunity to a network of 250 Mid-Atlantic farmers and producers and a community space to restore the vital connections in our local food systems.\r\n","ContactName":"FRESHFARM Markets","ContactEmail":"markets@ffm.org","ContactPhone":"","Website":"https:\/\/www.freshfarm.org\/","Facebook":"https:\/\/www.facebook.com\/freshfarmdc\/","Twitter":"https:\/\/twitter.com\/FRESHFARMDC","Instagram":"https:\/\/www.instagram.com\/freshfarmdc\/","Pinterest":"","Youtube":"","Blog":"","Address":"499 I St NW, Washington, DC 20001, USA","State":"District of Columbia","City":"Washington","Street":"499 I Street Northwest","Zip":"20001","Longitude":"-77.0190138","Latitude":"38.90138630000001","Dates":"Year-round","Products":"Fresh fruits, Fresh vegetables, Baked goods, Canned or preserved fruits\/vegetables, Coffee\/tea, Eggs, Mushrooms, Pet food, Poultry\/fowl meat and products, Red\/other non-poultry meat and products, Wine, spirits, beer, hard cider"},{"Type":"farmers market","ModifyDate":"Apr 18th, 2022","Image":"farmersmarket_301711_69_20220418180036.png","ListingID":"301711","Name":"FRESHFARM Penn Quarter","Description":"FRESHFARM is a nonprofit based in Washington, DC, that works to create a more resilient, equitable, and sustainable food future. For 25 years, we have operated producer-only farmers markets in DC, Maryland, and Virginia. Our farmers market network is the third-largest in the country and the largest in the Mid-Atlantic region, providing economic opportunity to a network of 250 Mid-Atlantic farmers and producers and a community space to restore the vital connections in our local food systems.","ContactName":"FRESHFARM Markets","ContactEmail":"markets@ffm.org","ContactPhone":"","Website":"https:\/\/www.freshfarm.org\/","Facebook":"https:\/\/www.facebook.com\/freshfarmdc\/","Twitter":"https:\/\/twitter.com\/FRESHFARMDC","Instagram":"https:\/\/www.instagram.com\/freshfarmdc\/","Pinterest":"","Youtube":"","Blog":"","Address":"801 F St NW Washington, DC 20004","State":"District of Columbia","City":"Washington","Street":"801 F St NW","Zip":"20004","Longitude":"-77.0251511","Latitude":"38.8974361","Dates":"04\/07\/2022 to 11\/17\/2022","Products":"Fresh fruits, Fresh vegetables, Baked goods, Coffee\/tea, Poultry\/fowl meat and products, Prepared foods, Red\/other non-poultry meat and products, Wine, spirits, beer, hard cider"},{"Type":"farmers market","ModifyDate":"Aug 6th, 2020","Image":"default-farmersmarket-4-3.jpg","ListingID":"300575","Name":"FRESHFARM Dupont Market","Description":null,"ContactName":"molly Scalise","ContactEmail":"molly@freshfarm.org","ContactPhone":"2023628889","Website":"1380 Monroe St NW #605","Facebook":"https:\/\/www.facebook.com\/freshfarmdc","Twitter":"https:\/\/twitter.com\/FRESHFARMDC","Instagram":null,"Pinterest":null,"Youtube":"https:\/\/www.youtube.com\/channel\/UCKUcsUpWJ8f7YK0nwMklZXw\/videos","Blog":null,"Address":"1624 20th St NW , Washington, District of Columbia 20009","State":"District of Columbia","City":"Washington","Street":"1624 20th St NW","Zip":"20009","Longitude":"-77.044967","Latitude":"38.911806","Dates":"Year-round","Products":"Fresh fruits, Fresh vegetables, Baked goods, Bedding plants, Canned or preserved fruits\/vegetables, Coffee\/tea, Cut flowers, Dairy products., Eggs, Fish\/seafood, Fresh\/dried herbs, Honey, Juices\/non-alcoholic ciders, Maple products, Mushrooms, Poultry\/fowl meat and products, Prepared foods, Red\/other non-poultry meat and products, Soap\/body care products, Wild harvested forest products, Wine, spirits, beer, hard cider"},{"Type":"farmers market","ModifyDate":"Feb 3rd, 2021","Image":"default-farmersmarket-4-3.jpg","ListingID":"301006","Name":"Cleveland Park Farmers Market","Description":null,"ContactName":"Mary Ellen Koontz","ContactEmail":"cpfarmermarket@districtbridges.org","ContactPhone":"7178739607","Website":"clevelandparkmainstreet.org","Facebook":"https:\/\/www.facebook.com\/CleParkMainStDC","Twitter":null,"Instagram":null,"Pinterest":null,"Youtube":null,"Blog":null,"Address":"3400 Connecticut Ave NW, Washington, DC 20008, Washington , District of Columbia 20008","State":"District of Columbia","City":"Washington","Street":"3400 Connecticut Ave NW","Zip":"20008","Longitude":"-77.058379","Latitude":"38.934817","Dates":"April to December","Products":"Fresh fruits, Fresh vegetables, Baked goods, Canned or preserved fruits\/vegetables, Coffee\/tea, Cut flowers, Dairy products., Eggs, Fish\/seafood, Fresh\/dried herbs, Honey, Maple products, Prepared foods, Soap\/body care products"},{"Type":"farmers market","ModifyDate":"Jan 4th, 2021","Image":"default-farmersmarket-4-3.jpg","ListingID":"300645","Name":"Mount Pleasant Farmers' Market","Description":null,"ContactName":"Robert Frazier","ContactEmail":"Manager@MtPFM.org","ContactPhone":"2026433010","Website":"MtPFM.org","Facebook":"facebook.com\/MtPFarMar","Twitter":"twitter.com\/mtpfarmermarket","Instagram":null,"Pinterest":null,"Youtube":null,"Blog":null,"Address":"3200 Mt. Pleasant St NW , Washington, District of Columbia 20010","State":"District of Columbia","City":"Washington","Street":"3200 Mt. Pleasant St NW","Zip":"20010","Longitude":"-77.038675","Latitude":"38.931518","Dates":"Year-round","Products":"Fresh fruits, Fresh vegetables, Baked goods, Bedding plants, Canned or preserved fruits\/vegetables, Coffee\/tea, Cut flowers, Dairy products., Eggs, Fresh\/dried herbs, Honey, Juices\/non-alcoholic ciders, Maple products, Mushrooms, Poultry\/fowl meat and products, Prepared foods, Red\/other non-poultry meat and products"},{"Type":"farmers market","ModifyDate":"Jul 2nd, 2020","Image":"default-farmersmarket-4-3.jpg","ListingID":"300192","Name":"USDA Farmers Market","Description":null,"ContactName":"Lee Cliburn","ContactEmail":"Lee.Cliburn@ams.usda.gov","ContactPhone":"202-281-6349","Website":"www.usda.gov\/farmersmarket","Facebook":null,"Twitter":null,"Instagram":null,"Pinterest":null,"Youtube":null,"Blog":null,"Address":"Corner 12th St. & Independence Ave. SW, Washington, District of Columbia 20250","State":"District of Columbia","City":"Washington","Street":"Corner 12th St. & Independence Ave. SW","Zip":"20250","Longitude":"-77.028494","Latitude":"38.887743","Dates":"May to October","Products":"Fresh fruits, Fresh vegetables, Baked goods, Bedding plants, Canned or preserved fruits\/vegetables, Coffee\/tea, Cut flowers, Dairy products., Eggs, Fresh\/dried herbs, Grains\/flour, Honey, Juices\/non-alcoholic ciders, Poultry\/fowl meat and products, Prepared foods, Red\/other non-poultry meat and products"},{"Type":"on-farm market","ModifyDate":"Jan 28th, 2016","Image":"default-onfarmmarket-4-3.jpg","ListingID":"701313","Name":"Little Wild Things City Farm","Description":null,"ContactName":"Mary Ackley","ContactEmail":"mary@littlewildthingsfarm.com","ContactPhone":"3137840498","Website":"www.littlewildthingsfarm.com","Facebook":"www.facebook.com\/littlewildthingsfarm","Twitter":"@lwtcityfarm","Instagram":null,"Pinterest":null,"Youtube":null,"Blog":null,"Address":"1648 N Capitol St. NW and 2131 Lincoln Rd NE, Washington, District of Columbia 20001","State":"District of Columbia","City":"Washington","Street":"1648 N Capitol St. NW and 2131 Lincoln Rd NE","Zip":"20001","Longitude":"-77.009114","Latitude":"38.9115027","Dates":null,"Products":""},{"Type":"on-farm market","ModifyDate":"Jul 16th, 2015","Image":"default-onfarmmarket-4-3.jpg","ListingID":"701287","Name":"Flannel Tie Farm","Description":null,"ContactName":"Kendell Snyder","ContactEmail":"kendell@flanneltie.farm","ContactPhone":"2022906687","Website":"www.flanneltie.farm","Facebook":"www.facebook.com\/FlannelTieFarm","Twitter":"@flanneltiefarm","Instagram":null,"Pinterest":null,"Youtube":null,"Blog":null,"Address":"925 Rhode Island Ave, NW, Washington, District of Columbia 20001","State":"District of Columbia","City":"Washington","Street":"925 Rhode Island Ave, NW","Zip":"20001","Longitude":"-77.025668","Latitude":"38.9118966","Dates":null,"Products":""},{"Type":"on-farm market","ModifyDate":"Sep 4th, 2014","Image":"default-onfarmmarket-4-3.jpg","ListingID":"701022","Name":"Common Good City Farm","Description":null,"ContactName":null,"ContactEmail":"info@commongoodcityfarm.org","ContactPhone":"(202) 559-7513","Website":"http:\/\/commongoodcityfarm.org","Facebook":"https:\/\/www.facebook.com\/CommonGoodCityFarm","Twitter":"https:\/\/twitter.com\/CmmnGoodCtyFarm","Instagram":null,"Pinterest":null,"Youtube":null,"Blog":null,"Address":"V Street NW between 2nd and 4th Streets NW, Washington, District of Columbia 20001","State":"District of Columbia","City":"Washington","Street":"V Street NW between 2nd and 4th Streets NW","Zip":"20001","Longitude":"-77.017454","Latitude":"38.918451","Dates":null,"Products":""}]