[{"Type":"farmers market","ModifyDate":"Dec 30th, 2020","Image":"default-farmersmarket-4-3.jpg","ListingID":"300487","Name":"Seacoast Eat Local Winter Farmers' Market - Exeter High School","Description":null,"ContactName":"Morgan Morani","ContactEmail":"morgan@seacoasteatlocal.org","ContactPhone":"2073870567","Website":"www.seacoasteatlocal.org","Facebook":"facebook.com\/seacoasteatlocal","Twitter":"@SeacoastEatLocl","Instagram":null,"Pinterest":null,"Youtube":"Seacoast Eat Local","Blog":null,"Address":"1 Blue Hawk Drive, Exeter, New Hampshire 03833","State":"New Hampshire","City":"Exeter","Street":"1 Blue Hawk Drive","Zip":"03833","Longitude":"-71.000312","Latitude":"43.0168516","Dates":"November to April","Products":"Fresh fruits, Fresh vegetables, Baked goods, Canned or preserved fruits\/vegetables, Coffee\/tea, Dairy products., Dry beans, Eggs, Honey, Juices\/non-alcoholic ciders, Maple products, Mushrooms, Poultry\/fowl meat and products, Prepared foods, Red\/other non-poultry meat and products, Soap\/body care products, Wine, spirits, beer, hard cider"},{"Type":"farmers market","ModifyDate":"Jan 22nd, 2021","Image":"default-farmersmarket-4-3.jpg","ListingID":"301383","Name":"Gilmanton Community Farmers Market Association","Description":null,"ContactName":"Elizabeth Bower","ContactEmail":"Gilmantoncfm@gmail.com","ContactPhone":"6033931083","Website":"Gilmantonfarmersmarket.com","Facebook":"Facebook.com\/gilmantoncommunityfarmersmarket","Twitter":null,"Instagram":null,"Pinterest":null,"Youtube":null,"Blog":null,"Address":"1385 NH Route 140, Gilmanton, New Hampshire 03237","State":"New Hampshire","City":"Gilmanton","Street":"1385 NH Route 140","Zip":"03237","Longitude":"-71.332318","Latitude":"43.425347","Dates":"June to October","Products":"Fresh fruits, Fresh vegetables, Baked goods, Canned or preserved fruits\/vegetables, Coffee\/tea, Crafts\/woodworking items, Cut flowers, Dairy products., Eggs, Fish\/seafood, Fresh\/dried herbs, Honey, Maple products, Mushrooms, Poultry\/fowl meat and products, Prepared foods, Red\/other non-poultry meat and products, Soap\/body care products, Wild harvested forest products"},{"Type":"farmers market","ModifyDate":"Jan 5th, 2021","Image":"default-farmersmarket-4-3.jpg","ListingID":"301091","Name":"Bedford Farmers Market","Description":null,"ContactName":"Lauren Ritz","ContactEmail":"bedfordfarmersmarketnh@gmail.com","ContactPhone":"4013681347","Website":"Www.bedfordfarmersmarketnh.org","Facebook":"https:\/\/www.facebook.com\/BedfordFarmersMarketNH\/","Twitter":null,"Instagram":null,"Pinterest":null,"Youtube":null,"Blog":null,"Address":"209 Route 101, Bedford, New Hampshire 03110","State":"New Hampshire","City":"Bedford","Street":"209 Route 101","Zip":"03110","Longitude":"-71.525849","Latitude":"42.938268","Dates":"June to October","Products":"Fresh fruits, Fresh vegetables, Baked goods, Bedding plants, Canned or preserved fruits\/vegetables, Coffee\/tea, Crafts\/woodworking items, Cut flowers, Dairy products., Eggs, Fish\/seafood, Fresh\/dried herbs, Honey, Juices\/non-alcoholic ciders, Maple products, Mushrooms, Poultry\/fowl meat and products, Prepared foods, Red\/other non-poultry meat and products, Soap\/body care products, Wine, spirits, beer, hard cider"},{"Type":"farmers market","ModifyDate":"Mar 27th, 2023","Image":"default-farmersmarket-4-3.jpg","ListingID":"311641","Name":"Antrim Farmers Market","Description":null,"ContactName":null,"ContactEmail":null,"ContactPhone":"603-588-2446","Website":"http:\/\/www.placeinthewoodstradingpost.com","Facebook":null,"Twitter":null,"Instagram":null,"Pinterest":null,"Youtube":null,"Blog":null,"Address":"128 Concord St Antrim, NH 03440","State":"New Hampshire","City":"ANTRIM","Street":"128 CONCORD ST","Zip":"3440","Longitude":"-71.92929493023875","Latitude":"43.047755794814776","Dates":null,"Products":""},{"Type":"farmers market","ModifyDate":"Mar 27th, 2023","Image":"default-farmersmarket-4-3.jpg","ListingID":"311642","Name":"Barnstead Farmer's Market","Description":null,"ContactName":null,"ContactEmail":null,"ContactPhone":null,"Website":"http:\/\/www.barnsteadfarmersmarket.com","Facebook":"http:\/\/www.facebook.com\/BarnsteadFarmersMarket","Twitter":null,"Instagram":null,"Pinterest":null,"Youtube":null,"Blog":null,"Address":"96 Maple St. Center Barnstead, NH 03225 We are located off Rte 28 heading to the Lakes Region!","State":"New Hampshire","City":"CENTER BARNSTEAD","Street":"96 MAPLE ST","Zip":"3225","Longitude":"-71.26294362534333","Latitude":"43.34835500979464","Dates":null,"Products":""},{"Type":"farmers market","ModifyDate":"Mar 27th, 2023","Image":"default-farmersmarket-4-3.jpg","ListingID":"311643","Name":"Berlin Local Works Farmers Marketplace","Description":null,"ContactName":null,"ContactEmail":"lauralocalworks@gmail.com","ContactPhone":"603-752-0060","Website":"http:\/\/wrenworks.org\/programs\/farmers-market\/","Facebook":"https:\/\/www.facebook.com\/berlin.farmersmarket","Twitter":null,"Instagram":null,"Pinterest":null,"Youtube":null,"Blog":null,"Address":"117 Main St., Berlin, NH, 03570","State":"New Hampshire","City":"Berlin","Street":"117 Main St.","Zip":"3570","Longitude":"-71.18090906541806","Latitude":"44.46969142345131","Dates":null,"Products":""},{"Type":"farmers market","ModifyDate":"Mar 27th, 2023","Image":"default-farmersmarket-4-3.jpg","ListingID":"311644","Name":"Bethlehem Local Works Farmers' Market","Description":null,"ContactName":null,"ContactEmail":null,"ContactPhone":"603-869-9736x15","Website":"http:\/\/wrencommunity.org","Facebook":null,"Twitter":null,"Instagram":null,"Pinterest":null,"Youtube":null,"Blog":null,"Address":"2011-13 Main St. Bethlehem, NH 03574","State":"New Hampshire","City":"BETHLEHEM","Street":"2011 MAIN ST","Zip":"3574","Longitude":"-71.69258832734204","Latitude":"44.28001073224004","Dates":null,"Products":""},{"Type":"farmers market","ModifyDate":"Mar 27th, 2023","Image":"default-farmersmarket-4-3.jpg","ListingID":"311645","Name":"Bradford NH Community Farmers Market","Description":null,"ContactName":null,"ContactEmail":null,"ContactPhone":"603-938-6228","Website":"http:\/\/bradfordnh.org","Facebook":null,"Twitter":null,"Instagram":null,"Pinterest":null,"Youtube":null,"Blog":null,"Address":"134 E Main St Bradford, NH 03221","State":"New Hampshire","City":"BRADFORD","Street":"134 E MAIN ST","Zip":"3221","Longitude":"-71.95617981681535","Latitude":"43.26877032986252","Dates":null,"Products":""},{"Type":"farmers market","ModifyDate":"Mar 27th, 2023","Image":"default-farmersmarket-4-3.jpg","ListingID":"311646","Name":"Canterbury Community Farmers Market","Description":null,"ContactName":null,"ContactEmail":null,"ContactPhone":null,"Website":"http:\/\/www.canterburyfarmersmarket.com\/","Facebook":"http:\/\/www.facebook.com\/CCFMA\/","Twitter":null,"Instagram":null,"Pinterest":null,"Youtube":null,"Blog":null,"Address":"9 Center Road Canterbury, NH 03224 The Market is located in the parking area and grassy field adjacent to the Elkins Library.","State":"New Hampshire","City":"CANTERBURY","Street":"9 CENTER RD","Zip":"3224","Longitude":"-71.56476658110451","Latitude":"43.33711600880431","Dates":null,"Products":""},{"Type":"farmers market","ModifyDate":"Mar 27th, 2023","Image":"default-farmersmarket-4-3.jpg","ListingID":"311647","Name":"Colebrook Farmers Market","Description":null,"ContactName":null,"ContactEmail":null,"ContactPhone":"603-237-4430","Website":null,"Facebook":null,"Twitter":null,"Instagram":null,"Pinterest":null,"Youtube":null,"Blog":null,"Address":"43 Colby Street Colebrook, NH 03576","State":"New Hampshire","City":"COLEBROOK","Street":"43 COLBY ST","Zip":"3576","Longitude":"-71.50166378458098","Latitude":"44.89287008050835","Dates":null,"Products":""},{"Type":"farmers market","ModifyDate":"Mar 27th, 2023","Image":"default-farmersmarket-4-3.jpg","ListingID":"311648","Name":"Contoocook Farmers' Market (Summer)","Description":null,"ContactName":null,"ContactEmail":null,"ContactPhone":"603-491-4203","Website":"http:\/\/www.harvesttomarket.com","Facebook":"http:\/\/www.facebook.com\/ContoocookFarmersMarket\/","Twitter":null,"Instagram":null,"Pinterest":null,"Youtube":null,"Blog":null,"Address":"896 Main Street (summer) Contoocook, NH 03229 Contoocook Train Depot","State":"New Hampshire","City":"CONTOOCOOK","Street":"896 MAIN ST","Zip":"3229","Longitude":"-71.71305764031479","Latitude":"43.22242017733616","Dates":null,"Products":""},{"Type":"farmers market","ModifyDate":"Mar 27th, 2023","Image":"default-farmersmarket-4-3.jpg","ListingID":"311649","Name":"Danbury Winter Market","Description":null,"ContactName":null,"ContactEmail":null,"ContactPhone":null,"Website":"http:\/\/blazingstargrange.org","Facebook":null,"Twitter":null,"Instagram":null,"Pinterest":null,"Youtube":null,"Blog":null,"Address":"15 North Road Danbury, NH 03230","State":"New Hampshire","City":"DANBURY","Street":"15 NORTH RD","Zip":"3230","Longitude":"-71.86225494540375","Latitude":"43.528449331623854","Dates":null,"Products":""},{"Type":"farmers market","ModifyDate":"Mar 27th, 2023","Image":"default-farmersmarket-4-3.jpg","ListingID":"311650","Name":"Deerfield NH Farmer's Market","Description":null,"ContactName":null,"ContactEmail":null,"ContactPhone":"603-463-7127","Website":"http:\/\/www.farmersmarketdeerfield-nh.us","Facebook":null,"Twitter":null,"Instagram":null,"Pinterest":null,"Youtube":null,"Blog":null,"Address":"8 Raymond Road Deerfield, NH 03037","State":"New Hampshire","City":"DEERFIELD","Street":"8 RAYMOND RD","Zip":"3037","Longitude":"-71.23871037215449","Latitude":"43.13047489602379","Dates":null,"Products":""},{"Type":"farmers market","ModifyDate":"Mar 27th, 2023","Image":"default-farmersmarket-4-3.jpg","ListingID":"311651","Name":"Derry Farmers' Market","Description":null,"ContactName":null,"ContactEmail":null,"ContactPhone":"603-845-5407","Website":"http:\/\/www.derry-nh.org","Facebook":"http:\/\/www.facebook.com\/derryfarmersmarket","Twitter":null,"Instagram":null,"Pinterest":null,"Youtube":null,"Blog":null,"Address":"14 Manning Street Derry, NH 03038","State":"New Hampshire","City":"DERRY","Street":"14 MANNING ST","Zip":"3038","Longitude":"-71.32885374544965","Latitude":"42.88344240754907","Dates":null,"Products":""},{"Type":"farmers market","ModifyDate":"Mar 27th, 2023","Image":"default-farmersmarket-4-3.jpg","ListingID":"311652","Name":"Derry Homegrown Farm & Artisan Market","Description":null,"ContactName":null,"ContactEmail":null,"ContactPhone":null,"Website":"http:\/\/www.derryhomegrown.org","Facebook":"http:\/\/www.facebook.com\/derryhomegrown","Twitter":null,"Instagram":null,"Pinterest":null,"Youtube":null,"Blog":null,"Address":"1 West Broadway, Derry, NH 03038 Derry, NH 03038 Our Farmer's Market is in the heart of downtown Derry, NH at 1 West Broadway. We are located on Wednesdays in the green space next to the pocket park,","State":"New Hampshire","City":"DERRY","Street":"1 W BROADWAY","Zip":"3038","Longitude":"-71.326927872","Latitude":"42.88048836915351","Dates":null,"Products":""},{"Type":"farmers market","ModifyDate":"Mar 27th, 2023","Image":"default-farmersmarket-4-3.jpg","ListingID":"311653","Name":"Derry Main Street Farmers' Market","Description":null,"ContactName":null,"ContactEmail":"bevferrante@yahoo.com","ContactPhone":"603-434-8974","Website":"http:\/\/www.derry-nh.org\/Pages\/DerryNH_FarmersMarket\/index","Facebook":"https:\/\/www.facebook.com\/DerryFarmersMarket\/","Twitter":null,"Instagram":null,"Pinterest":null,"Youtube":null,"Blog":null,"Address":"1 W. Broadway, Derry, NH, 03038","State":"New Hampshire","City":"Derry","Street":"1 W. Broadway","Zip":"3038","Longitude":"-71.326927872","Latitude":"42.88048836915351","Dates":null,"Products":""},{"Type":"farmers market","ModifyDate":"Mar 27th, 2023","Image":"default-farmersmarket-4-3.jpg","ListingID":"311654","Name":"Dover Farmers' Market","Description":null,"ContactName":null,"ContactEmail":"info@seacoastgrowers.org","ContactPhone":null,"Website":"http:\/\/www.seacoastgrowers.org\/","Facebook":"https:\/\/www.facebook.com\/Market03820\/","Twitter":null,"Instagram":null,"Pinterest":null,"Youtube":null,"Blog":null,"Address":"550 Central Ave., Dover Chamber Parking Lot, Dover, NH, 03820","State":"New Hampshire","City":"Dover","Street":"550 Central Ave.","Zip":"3820","Longitude":"-70.87589203328311","Latitude":"43.201162611609455","Dates":null,"Products":""},{"Type":"farmers market","ModifyDate":"Mar 27th, 2023","Image":"default-farmersmarket-4-3.jpg","ListingID":"311655","Name":"Everybody's Farm Market","Description":null,"ContactName":null,"ContactEmail":null,"ContactPhone":"603-448-9644","Website":null,"Facebook":null,"Twitter":null,"Instagram":null,"Pinterest":null,"Youtube":null,"Blog":null,"Address":"397 Dartmouth College Highway\/Route 4 Lebanon, NH 03766","State":"New Hampshire","City":"LEBANON","Street":"397 DARTMOUTH COLLEGE HWY","Zip":"3766","Longitude":"-72.19905690955676","Latitude":"43.638272643408655","Dates":null,"Products":""},{"Type":"farmers market","ModifyDate":"Mar 27th, 2023","Image":"default-farmersmarket-4-3.jpg","ListingID":"311656","Name":"Franklin Farmers Market","Description":null,"ContactName":null,"ContactEmail":"mrizzo@lrgh.org","ContactPhone":"603-934-2060x8369","Website":null,"Facebook":"https:\/\/www.facebook.com\/FranklinLocalMarket","Twitter":null,"Instagram":null,"Pinterest":null,"Youtube":null,"Blog":null,"Address":"15 Aiken Ave., Franklin, NH, 03235","State":"New Hampshire","City":"Franklin","Street":"15 Aiken Ave.","Zip":"3235","Longitude":"-71.64234166931959","Latitude":"43.44748892484548","Dates":null,"Products":""},{"Type":"farmers market","ModifyDate":"Mar 27th, 2023","Image":"default-farmersmarket-4-3.jpg","ListingID":"311657","Name":"Great North Woods NH Farmers' Markets","Description":null,"ContactName":null,"ContactEmail":"patriciagrace56@aol.com","ContactPhone":"603-237-4430","Website":"http:\/\/www.nhliving.com\/farmersmarkets\/greatnorthwoods\/","Facebook":null,"Twitter":null,"Instagram":null,"Pinterest":null,"Youtube":null,"Blog":null,"Address":"43 Colby St., Colebrook, NH, 03576","State":"New Hampshire","City":"Colebrook","Street":"43 Colby St.","Zip":"3576","Longitude":"-71.50166378458098","Latitude":"44.89287008050835","Dates":null,"Products":""},{"Type":"farmers market","ModifyDate":"Mar 27th, 2023","Image":"default-farmersmarket-4-3.jpg","ListingID":"311658","Name":"Hanover Area Farmers Market","Description":null,"ContactName":null,"ContactEmail":"farmersmarket@hanoverchamber.org","ContactPhone":"603-643-3115","Website":"http:\/\/www.hanoverfarmersmarket.org\/","Facebook":"https:\/\/www.facebook.com\/www.hanoverfarmersmarket.org","Twitter":null,"Instagram":null,"Pinterest":null,"Youtube":null,"Blog":null,"Address":"1 E. Wheelock St., The Dartmouth Green, Hanover, NH, 03755","State":"New Hampshire","City":"Hanover","Street":"1 E. Wheelock St.","Zip":"3755","Longitude":"-72.28549442659396","Latitude":"43.703086384906115","Dates":null,"Products":""},{"Type":"farmers market","ModifyDate":"Mar 27th, 2023","Image":"default-farmersmarket-4-3.jpg","ListingID":"311659","Name":"Holiday Winter Farmers' Market","Description":null,"ContactName":null,"ContactEmail":null,"ContactPhone":"603-229-0655","Website":"http:\/\/www.colegardens.com\/winterfarmersmarket","Facebook":null,"Twitter":null,"Instagram":null,"Pinterest":null,"Youtube":null,"Blog":null,"Address":"430 Loudon Road Concord, NH 03301","State":"New Hampshire","City":"CONCORD","Street":"430 LOUDON RD","Zip":"3301","Longitude":"-71.47529704691637","Latitude":"43.233380448542846","Dates":null,"Products":""},{"Type":"farmers market","ModifyDate":"Mar 27th, 2023","Image":"default-farmersmarket-4-3.jpg","ListingID":"311660","Name":"Lisbon Farmers' Market","Description":null,"ContactName":null,"ContactEmail":null,"ContactPhone":"603-838-2200","Website":"http:\/\/www.lisbonmainstreet.org","Facebook":null,"Twitter":null,"Instagram":null,"Pinterest":null,"Youtube":null,"Blog":null,"Address":"26 North Main Street, Route 302 Lisbon, NH 03585","State":"New Hampshire","City":"LISBON","Street":"26 N MAIN ST","Zip":"3585","Longitude":"-71.90936520493106","Latitude":"44.2140678080863","Dates":null,"Products":""},{"Type":"farmers market","ModifyDate":"Mar 27th, 2023","Image":"default-farmersmarket-4-3.jpg","ListingID":"311661","Name":"Littleton Farmers Market","Description":null,"ContactName":null,"ContactEmail":null,"ContactPhone":null,"Website":null,"Facebook":null,"Twitter":null,"Instagram":null,"Pinterest":null,"Youtube":null,"Blog":null,"Address":"38 Cottage Street Littleton, NH 03561","State":"New Hampshire","City":"LITTLETON","Street":"38 COTTAGE ST","Zip":"3561","Longitude":"-71.76978117803108","Latitude":"44.30470784916938","Dates":null,"Products":""},{"Type":"farmers market","ModifyDate":"Mar 27th, 2023","Image":"default-farmersmarket-4-3.jpg","ListingID":"311662","Name":"Local Works Farmers' Market at WREN","Description":null,"ContactName":null,"ContactEmail":null,"ContactPhone":"603-869-9736","Website":null,"Facebook":null,"Twitter":null,"Instagram":null,"Pinterest":null,"Youtube":null,"Blog":null,"Address":"2013 Main Street Route 302 Bethlehem, NH 03574","State":"New Hampshire","City":"BETHLEHEM","Street":"2013 MAIN ST","Zip":"3574","Longitude":"-71.69208550521452","Latitude":"44.280040201668754","Dates":null,"Products":""},{"Type":"farmers market","ModifyDate":"Mar 27th, 2023","Image":"default-farmersmarket-4-3.jpg","ListingID":"311663","Name":"Main Street Bridge Farmer's Market","Description":null,"ContactName":null,"ContactEmail":null,"ContactPhone":"603-883-5700","Website":"http:\/\/www.downtownnashua.org\/farmers","Facebook":"http:\/\/www.facebook.com\/NashuaFarmersMarket","Twitter":null,"Instagram":null,"Pinterest":null,"Youtube":null,"Blog":null,"Address":"53 Main St. Nashua, NH 03060","State":"New Hampshire","City":"NASHUA","Street":"53 MAIN ST","Zip":"3060","Longitude":"-71.4665378609661","Latitude":"42.763541052776915","Dates":null,"Products":""},{"Type":"farmers market","ModifyDate":"Mar 27th, 2023","Image":"default-farmersmarket-4-3.jpg","ListingID":"311664","Name":"Market on the Green","Description":null,"ContactName":null,"ContactEmail":"redbarnfarm@comcast.net","ContactPhone":"603-558-8805","Website":"http:\/\/www.marketonthegreen.com\/Home_Page.html","Facebook":"https:\/\/www.facebook.com\/NewLondonFarmersMarket","Twitter":null,"Instagram":null,"Pinterest":null,"Youtube":null,"Blog":null,"Address":"375 Main St., New London, NH, 03257","State":"New Hampshire","City":"New London","Street":"375 Main St.","Zip":"3257","Longitude":"-71.98420390700541","Latitude":"43.414055958484916","Dates":null,"Products":""},{"Type":"farmers market","ModifyDate":"Mar 27th, 2023","Image":"default-farmersmarket-4-3.jpg","ListingID":"311665","Name":"Nashua Farmers' Market","Description":null,"ContactName":null,"ContactEmail":"info@greatamericandowntown.org","ContactPhone":"603-883-5700","Website":"https:\/\/www.facebook.com\/NashuaFarmersMarket","Facebook":"https:\/\/www.facebook.com\/NashuaFarmersMarket","Twitter":null,"Instagram":null,"Pinterest":null,"Youtube":null,"Blog":null,"Address":"65 Main St., Nashua, NH, 03060","State":"New Hampshire","City":"Nashua","Street":"65 Main St.","Zip":"3060","Longitude":"-71.46630252300041","Latitude":"42.7630218359289","Dates":null,"Products":""},{"Type":"farmers market","ModifyDate":"Mar 27th, 2023","Image":"default-farmersmarket-4-3.jpg","ListingID":"311666","Name":"New Durham Farmers' Market","Description":null,"ContactName":null,"ContactEmail":"newdurhamfarmersmarket@gmail.com","ContactPhone":null,"Website":"http:\/\/newdurhamfarmersmarket.com\/","Facebook":null,"Twitter":null,"Instagram":null,"Pinterest":null,"Youtube":null,"Blog":null,"Address":"7 Depot Rd., Post Office Mall, New Durham, NH, 03855","State":"New Hampshire","City":"New Durham","Street":"7 Depot Rd.","Zip":"3855","Longitude":"-71.16366737101448","Latitude":"43.43327459503756","Dates":null,"Products":""},{"Type":"farmers market","ModifyDate":"Mar 27th, 2023","Image":"default-farmersmarket-4-3.jpg","ListingID":"311667","Name":"Newmarket Farmers' Market","Description":null,"ContactName":null,"ContactEmail":null,"ContactPhone":"617-584-3292","Website":"http:\/\/us3.campaign-archive1.com\/?u=4658420bac18f747912316150&id=34278defa7&e=e3d18d953c","Facebook":"http:\/\/www.facebook.com\/NewmarketFarmersMarket","Twitter":null,"Instagram":null,"Pinterest":null,"Youtube":null,"Blog":null,"Address":"137 Main Street Newmarket, NH 03857","State":"New Hampshire","City":"NEWMARKET","Street":"137 MAIN ST","Zip":"3857","Longitude":"-70.93629550247749","Latitude":"43.078937834984124","Dates":null,"Products":""},{"Type":"farmers market","ModifyDate":"Mar 27th, 2023","Image":"default-farmersmarket-4-3.jpg","ListingID":"311668","Name":"Peterborough Farmers' Market","Description":null,"ContactName":null,"ContactEmail":"peterboroughfarmersmarket@gmail.com","ContactPhone":"603-847-9461","Website":null,"Facebook":"https:\/\/www.facebook.com\/PeterboroughNHFarmersMarketWinterEdition","Twitter":null,"Instagram":null,"Pinterest":null,"Youtube":null,"Blog":null,"Address":"25 Elm St, Peterborough Community Center, Peterborough, NH, 03458","State":"New Hampshire","City":"Peterborough","Street":"25 Elm St","Zip":"3458","Longitude":"-71.95692322138443","Latitude":"42.87693481530481","Dates":null,"Products":""},{"Type":"farmers market","ModifyDate":"Mar 27th, 2023","Image":"default-farmersmarket-4-3.jpg","ListingID":"311669","Name":"Portsmouth Farmers' Market","Description":null,"ContactName":null,"ContactEmail":null,"ContactPhone":null,"Website":"http:\/\/www.seacoastgrowers.org","Facebook":"http:\/\/www.facebook.com\/Market03801\/","Twitter":null,"Instagram":null,"Pinterest":null,"Youtube":null,"Blog":null,"Address":"1 Junkins Ave Portsmouth, NH 03801","State":"New Hampshire","City":"PORTSMOUTH","Street":"1 JUNKINS AVE","Zip":"3801","Longitude":"-70.76704487190652","Latitude":"43.06144696149243","Dates":null,"Products":""},{"Type":"farmers market","ModifyDate":"Mar 27th, 2023","Image":"default-farmersmarket-4-3.jpg","ListingID":"311670","Name":"Rochester Downtown Farmers' Market","Description":null,"ContactName":null,"ContactEmail":"talondpjs@metrocast.net","ContactPhone":"603-332-1765","Website":null,"Facebook":null,"Twitter":null,"Instagram":null,"Pinterest":null,"Youtube":null,"Blog":null,"Address":"60 Wakefield St., Ben Franklin Crafts, Rochester, NH, 03867","State":"New Hampshire","City":"Rochester","Street":"60 Wakefield St.","Zip":"3867","Longitude":"-70.97631099012594","Latitude":"43.305812616795144","Dates":null,"Products":""},{"Type":"farmers market","ModifyDate":"Mar 27th, 2023","Image":"default-farmersmarket-4-3.jpg","ListingID":"311671","Name":"Rolling Green Nursery Winter Market","Description":null,"ContactName":null,"ContactEmail":"wfmkt.rgn@gmail.com","ContactPhone":"603-436-2732","Website":"http:\/\/www.rollinggreennursery.com\/","Facebook":null,"Twitter":null,"Instagram":null,"Pinterest":null,"Youtube":null,"Blog":null,"Address":"64 Breakfast Hill Rd., Greenland, NH, 03840","State":"New Hampshire","City":"Greenland","Street":"64 Breakfast Hill Rd.","Zip":"3840","Longitude":"-70.82957749574958","Latitude":"43.02030594440308","Dates":null,"Products":""},{"Type":"farmers market","ModifyDate":"Mar 27th, 2023","Image":"default-farmersmarket-4-3.jpg","ListingID":"311672","Name":"Rye Farmers Market","Description":null,"ContactName":null,"ContactEmail":null,"ContactPhone":null,"Website":"http:\/\/www.town.rye.nh.us\/Pages\/RyeNH_BComm\/Farmers\/index","Facebook":"https:\/\/www.facebook.com\/Rye-Farmers-Market-173637067401","Twitter":null,"Instagram":null,"Pinterest":null,"Youtube":null,"Blog":null,"Address":"580 Washington Rd., Rye Center, Rye, NH, 03870","State":"New Hampshire","City":"Rye","Street":"580 Washington Rd.","Zip":"3870","Longitude":"-70.77203183338872","Latitude":"43.01252755990335","Dates":null,"Products":""},{"Type":"farmers market","ModifyDate":"Mar 27th, 2023","Image":"default-farmersmarket-4-3.jpg","ListingID":"311673","Name":"Salem Farmers Market","Description":null,"ContactName":null,"ContactEmail":"info@salemnhfarmersmarket.org","ContactPhone":"603-339-8424","Website":"http:\/\/www.salemnhfarmersmarket.org\/","Facebook":"https:\/\/www.facebook.com\/salemnhfarmersmarket","Twitter":null,"Instagram":null,"Pinterest":null,"Youtube":null,"Blog":null,"Address":"224 N. Broadway, Salem , NH, 03079","State":"New Hampshire","City":"Salem","Street":"224 N. Broadway","Zip":"3079","Longitude":"-71.23580847792745","Latitude":"42.792141873982885","Dates":null,"Products":""},{"Type":"farmers market","ModifyDate":"Mar 27th, 2023","Image":"default-farmersmarket-4-3.jpg","ListingID":"311674","Name":"Salem NH Farmers Market","Description":null,"ContactName":null,"ContactEmail":null,"ContactPhone":null,"Website":"http:\/\/www.SalemNHFarmersMarket.org","Facebook":"http:\/\/www.facebook.com\/salemnhfarmersmarket","Twitter":null,"Instagram":null,"Pinterest":null,"Youtube":null,"Blog":null,"Address":"14 Main Street Salem, NH 03079 Fisk Elementary School","State":"New Hampshire","City":"SALEM","Street":"14 MAIN ST","Zip":"3079","Longitude":"-71.2351044405956","Latitude":"42.78239579803794","Dates":null,"Products":""},{"Type":"farmers market","ModifyDate":"Mar 27th, 2023","Image":"default-farmersmarket-4-3.jpg","ListingID":"311675","Name":"Seacoast Eat Local Winter Farmers' Markets","Description":null,"ContactName":null,"ContactEmail":null,"ContactPhone":null,"Website":"http:\/\/www.seacoasteatlocal.org","Facebook":"http:\/\/www.facebook.com\/SeacoastEatLocal?fref=ts","Twitter":null,"Instagram":null,"Pinterest":null,"Youtube":null,"Blog":null,"Address":"2 Washington St Ste 331 Dover, NH 03820","State":"New Hampshire","City":"DOVER","Street":"2 WASHINGTON ST","Zip":"3820","Longitude":"-70.87186589573527","Latitude":"43.195136140926174","Dates":null,"Products":""},{"Type":"farmers market","ModifyDate":"Mar 27th, 2023","Image":"default-farmersmarket-4-3.jpg","ListingID":"311676","Name":"Somersworth Farmers Market","Description":null,"ContactName":null,"ContactEmail":"farmersmarket@goodwinch.org","ContactPhone":"603-953-0066","Website":null,"Facebook":"https:\/\/www.facebook.com\/SomersworthFarmersMarket","Twitter":null,"Instagram":null,"Pinterest":null,"Youtube":null,"Blog":null,"Address":"311 Rte. 108, Somersworth, NH, 03878","State":"New Hampshire","City":"Somersworth","Street":"311 Rte. 108","Zip":"3878","Longitude":"-70.9035167454778","Latitude":"43.259314494623034","Dates":null,"Products":""},{"Type":"farmers market","ModifyDate":"Mar 27th, 2023","Image":"default-farmersmarket-4-3.jpg","ListingID":"311677","Name":"Stratham Farmers' Market","Description":null,"ContactName":null,"ContactEmail":"stratham300@gmail.com","ContactPhone":"603-686-1258","Website":null,"Facebook":null,"Twitter":null,"Instagram":null,"Pinterest":null,"Youtube":null,"Blog":null,"Address":"69 Portsmouth Ave., Stratham, NH, 03885","State":"New Hampshire","City":"Stratham","Street":"69 Portsmouth Ave.","Zip":"3885","Longitude":"-70.91872520327964","Latitude":"43.00882239598946","Dates":null,"Products":""},{"Type":"farmers market","ModifyDate":"Mar 27th, 2023","Image":"default-farmersmarket-4-3.jpg","ListingID":"311678","Name":"Summer Farmers Market at Rolling Green Nu...","Description":null,"ContactName":null,"ContactEmail":null,"ContactPhone":"603-436-2732","Website":"http:\/\/www.rollinggreennursery.com\/","Facebook":null,"Twitter":null,"Instagram":null,"Pinterest":null,"Youtube":null,"Blog":null,"Address":"64 Breakfast Hill Rd., Greenland, NH, 03840","State":"New Hampshire","City":"Greenland","Street":"64 Breakfast Hill Rd.","Zip":"3840","Longitude":"-70.82957749574958","Latitude":"43.02030594440308","Dates":null,"Products":""},{"Type":"farmers market","ModifyDate":"Mar 27th, 2023","Image":"default-farmersmarket-4-3.jpg","ListingID":"311679","Name":"Sunapee Farmers Market","Description":null,"ContactName":null,"ContactEmail":null,"ContactPhone":null,"Website":"http:\/\/www.sunapeefarmersmarket.com","Facebook":null,"Twitter":null,"Instagram":null,"Pinterest":null,"Youtube":null,"Blog":null,"Address":"68-72 Main Street Sunapee, NH 03782 Located in Historic Sunapee Harbor, Parking Available on River Road (next to Prospect Hill Antiques)","State":"New Hampshire","City":"SUNAPEE","Street":"68 MAIN ST","Zip":"3782","Longitude":"-72.0836890079148","Latitude":"43.38651343172346","Dates":null,"Products":""},{"Type":"farmers market","ModifyDate":"Mar 27th, 2023","Image":"default-farmersmarket-4-3.jpg","ListingID":"311680","Name":"The We Are One Farmers Market","Description":null,"ContactName":null,"ContactEmail":null,"ContactPhone":"603-344-2323","Website":"http:\/\/www.weareonefarmersmarket.org","Facebook":null,"Twitter":null,"Instagram":null,"Pinterest":null,"Youtube":null,"Blog":null,"Address":"118 Center Rd. Weare, NH 03281","State":"New Hampshire","City":"WEARE","Street":"118 CENTER RD","Zip":"3281","Longitude":"-71.7382012395248","Latitude":"43.11063285392392","Dates":null,"Products":""},{"Type":"farmers market","ModifyDate":"Mar 27th, 2023","Image":"default-farmersmarket-4-3.jpg","ListingID":"311681","Name":"Tilton Farmers' Market","Description":null,"ContactName":null,"ContactEmail":"joconnor@yahoo.com","ContactPhone":"603-496-1718","Website":"http:\/\/tiltonfarmersmarket.com\/","Facebook":"https:\/\/www.facebook.com\/TiltonFarmersMarket\/","Twitter":null,"Instagram":null,"Pinterest":null,"Youtube":null,"Blog":null,"Address":"120 Laconia Rd., Tilton, NH, 03276","State":"New Hampshire","City":"Tilton","Street":"120 Laconia Rd.","Zip":"3276","Longitude":"-71.56348273367915","Latitude":"43.45712758461962","Dates":null,"Products":""},{"Type":"farmers market","ModifyDate":"Mar 27th, 2023","Image":"default-farmersmarket-4-3.jpg","ListingID":"311682","Name":"Warner Farmers Market","Description":null,"ContactName":null,"ContactEmail":null,"ContactPhone":"603-456-2319","Website":"http:\/\/www.warnerfarmersmarket.org\/","Facebook":"http:\/\/www.facebook.com\/warnerareafarmersmarket","Twitter":null,"Instagram":null,"Pinterest":null,"Youtube":null,"Blog":null,"Address":"5 East Main Street Warner, NH 03278 Town Hall Lawn","State":"New Hampshire","City":"WARNER","Street":"5 E MAIN ST","Zip":"3278","Longitude":"-71.81583756515565","Latitude":"43.2805725859795","Dates":null,"Products":""},{"Type":"farmers market","ModifyDate":"Mar 27th, 2023","Image":"default-farmersmarket-4-3.jpg","ListingID":"311683","Name":"Weare Farmers Market","Description":null,"ContactName":null,"ContactEmail":null,"ContactPhone":"603-491-4203","Website":"http:\/\/harvesttomarket.com\/farmers-market\/Weare-Farmers-Market-NH","Facebook":"http:\/\/www.facebook.com\/pages\/category\/Community\/Weare-Real-Food-Farmers-Market-101444321652005\/","Twitter":null,"Instagram":null,"Pinterest":null,"Youtube":null,"Blog":null,"Address":"65 N Stark Hwy, Weare, NH 03281","State":"New Hampshire","City":"WEARE","Street":"65 N STARK HWY","Zip":"3281","Longitude":"-71.73325176442553","Latitude":"43.09871690249018","Dates":null,"Products":""},{"Type":"farmers market","ModifyDate":"Mar 27th, 2023","Image":"default-farmersmarket-4-3.jpg","ListingID":"311684","Name":"Wentworth Greenhouses Summer Farmers Market","Description":null,"ContactName":null,"ContactEmail":null,"ContactPhone":"603-743-4919","Website":"http:\/\/wentworthgreenhouses.com\/summer-farmers-market\/","Facebook":null,"Twitter":null,"Instagram":null,"Pinterest":null,"Youtube":null,"Blog":null,"Address":"141 Rollins Rd., Rollinsford, NH, 03869","State":"New Hampshire","City":"Rollinsford","Street":"141 Rollins Rd.","Zip":"3869","Longitude":"-70.86109980341743","Latitude":"43.21563236861847","Dates":null,"Products":""},{"Type":"farmers market","ModifyDate":"Mar 27th, 2023","Image":"default-farmersmarket-4-3.jpg","ListingID":"311685","Name":"Winter Farmers' Market at Cole Gardens","Description":null,"ContactName":null,"ContactEmail":null,"ContactPhone":"603-229-0655","Website":"http:\/\/colegardens.com\/winterfarmersmarket","Facebook":null,"Twitter":null,"Instagram":null,"Pinterest":null,"Youtube":null,"Blog":null,"Address":"430 Loudon Road Concord, NH 03301","State":"New Hampshire","City":"CONCORD","Street":"430 LOUDON RD","Zip":"3301","Longitude":"-71.47529704691637","Latitude":"43.233380448542846","Dates":null,"Products":""},{"Type":"farmers market","ModifyDate":"Mar 27th, 2023","Image":"default-farmersmarket-4-3.jpg","ListingID":"311686","Name":"Yankee Farmers Market","Description":null,"ContactName":null,"ContactEmail":null,"ContactPhone":"603-456-2833","Website":"http:\/\/www.yankeefarmersmarket.com","Facebook":"http:\/\/www.facebook.com\/yankeefarmersmarket","Twitter":null,"Instagram":null,"Pinterest":null,"Youtube":null,"Blog":null,"Address":"360 Route 103 east, Warner NH 3278","State":"New Hampshire","City":"Warner","Street":"360 Route 103 east","Zip":"3278","Longitude":"-71.7685692899867","Latitude":"43.25966292572407","Dates":null,"Products":""},{"Type":"farmers market","ModifyDate":"Sep 11th, 2020","Image":"default-farmersmarket-4-3.jpg","ListingID":"300272","Name":"Wolfeboro Area Farmers Market","Description":null,"ContactName":"Krystal Thurston","ContactEmail":"Secretary@WolfeboroAreaFarmersMarket.com","ContactPhone":"6035151841","Website":"www.wolfeboroareafarmersmarket.com","Facebook":"https:\/\/www.facebook.com\/wolfeboroareafarmersmarket","Twitter":null,"Instagram":null,"Pinterest":null,"Youtube":null,"Blog":null,"Address":"233 South Main St, Wolfeboro, New Hampshire 03894","State":"New Hampshire","City":"Wolfeboro","Street":"233 South Main St","Zip":"03894","Longitude":"-71.202747","Latitude":"43.580593","Dates":"May to October","Products":"Fresh fruits, Fresh vegetables, Baked goods, Bedding plants, Canned or preserved fruits\/vegetables, Coffee\/tea, Cut flowers, Dairy products., Eggs, Fish\/seafood, Fresh\/dried herbs, Honey, Juices\/non-alcoholic ciders, Maple products, Poultry\/fowl meat and products, Prepared foods, Red\/other non-poultry meat and products, Soap\/body care products, Wild harvested forest products, Wine, spirits, beer, hard cider"}]