[{"type":"farm","street":"1918 Brush Run Road","city":"Gay","state":"WV","zip":"25244","longitude":"-81.555851","latitude":"38.770123","name":"Beeappy Farm","website":"beeappy.com","facebook":"https://www.facebook.com/BeeappyFarmLLC","twitter":"","tags":"eggs honey poultry fowl soap body-care"},{"type":"farm","street":"HC 69 Box 30-Tate Creek Road","city":"Clem","state":"WV","zip":"26623","longitude":"-80.9142710","latitude":"38.6342643","name":"Garden Treasures WV","website":"www.gardentreasureswv.com","facebook":"https://www.facebook.com/gardentreasureswv","twitter":"","tags":"bedding plants crafts woodworking cut-flowers eggs herbs fresh-vegetables mushrooms nursery-stock soap body-care wild-harvested forest-products"},{"type":"farm","street":"Rt 1 Box 79A","city":"Burlington","state":"WV","zip":"26710","longitude":"-78.869068","latitude":"39.367164","name":"Green Family Farm","website":"greenfamilyfarm.org","facebook":"","twitter":"","tags":"poultry fowl red-meat non-poultry-meat"},{"type":"farm","street":"6920 Flowing Springs Rd","city":"Shenandoah Junction","state":"WV","zip":"25442","longitude":"-77.8168320","latitude":"39.3861820","name":"Harmony Hill Farm","website":"www.HarmonyHillFarmWV.com","facebook":"","twitter":"","tags":"eggs poultry fowl red-meat non-poultry-meat"},{"type":"farm","street":"554 Joy Cabin Run Road","city":"West Union","state":"WV","zip":"26456","longitude":"-80.873430","latitude":"39.226951","name":"JP Family Farms","website":"","facebook":"","twitter":"","tags":"fresh-fruits fresh-vegetables grains flour"},{"type":"farm","street":"1806 Buffalo Creek Rd.","city":"Lost Creek","state":"WV","zip":"26385","longitude":"-80.440978","latitude":"39.212277","name":"L & M Farms","website":"","facebook":"https://www.facebook.com/pages/L-M-Farms/168574719871551","twitter":"","tags":"bedding plants canned preserved coffee tea crafts woodworking eggs herbs fresh-fruits fresh-vegetables honey soap body-care wild-harvested forest-products"},{"type":"farm","street":"98 Atlantic Road","city":"Tunnelton","state":"WV","zip":"26444","longitude":"-79.748395","latitude":"39.39176","name":"Mountain Diamond Longhorns, LLC","website":"","facebook":"","twitter":"","tags":""},{"type":"farm","street":"699 Nolen Lane","city":"Williamsburg","state":"WV","zip":"24991","longitude":"-80.4923023","latitude":"37.9701195","name":"Mountain Meadows Farm","website":"http://www.mtmeadowsfarm.com","facebook":"http://www.facebook.com/mountainmeadowsfarmwv","twitter":"","tags":"crafts woodworking red-meat non-poultry-meat"},{"type":"farm","street":"1771 Oak Grove Rd","city":"Terra Alta","state":"WV","zip":"26764","longitude":"-79.5144706","latitude":"39.4845137","name":"Possum Tail Farm","website":"www.possumtailfarm.com","facebook":"https://www.facebook.com/PossumTailFarm","twitter":"","tags":"cut-flowers eggs pet-food poultry fowl red-meat non-poultry-meat"},{"type":"farm","street":"1260 Keller Lane","city":"Williamstown","state":"WV","zip":"26187","longitude":"-81.480821","latitude":"39.345092","name":"Ridge View Farm","website":"ridgeviewfarmbeef.com","facebook":"","twitter":"","tags":""},{"type":"farm","street":"825 Jenny Wren Drive","city":"Martinsburg","state":"WV","zip":"25404","longitude":"-77.929560","latitude":"39.461883","name":"Shepherd's Whey Creamery","website":"shepherdswheycreamery.com","facebook":"shepherd's Whey Creamery","twitter":"","tags":"dairy products eggs red-meat non-poultry-meat"},{"type":"farm","street":"696 Glicks Rd","city":"Renick","state":"WV","zip":"24966","longitude":"-80.437171","latitude":"38.066520","name":"Sunshine Farm & Gardens","website":"www.sunfarm.com","facebook":"https://www.facebook.com/Glickster","twitter":"https://www.twitter.com/sunfarmtweets","tags":"bedding plants cut-flowers nursery-stock wild-harvested forest-products"},{"type":"farm","street":"State Route 19 ","city":"Good Hope","state":"WV","zip":"26385","longitude":"-80.439108","latitude":"39.175611","name":"TarryLeas Farms","website":"","facebook":"https://www.facebook.com/WVGrassfedMeats/","twitter":"","tags":"baked-goods bedding plants crafts woodworking cut-flowers herbs fresh-fruits fresh-vegetables red-meat non-poultry-meat soap body-care"},{"type":"farm","street":"28813 SR 55","city":"Wardensville","state":"WV","zip":"26851","longitude":"-78.5920181","latitude":"39.0835447","name":"Wardensville Garden Market","website":"wardensvillegardenmarket.org","facebook":"https://www.facebook.com/wardensvillegardenmarket/","twitter":"","tags":"bedding plants coffee tea cut-flowers eggs herbs fresh-fruits fresh-vegetables mushrooms"},{"type":"farm","street":"1700 Brownstown Road","city":"Renick","state":"WV","zip":"24966","longitude":"-80.3363820","latitude":"37.9994470","name":"White Oak Farm","website":"www.whiteoakberryfarm.com","facebook":"https://www.facebook.com/whiteoakberryfarm","twitter":"","tags":"fresh-fruits fresh-vegetables"},{"type":"farm","street":"17 Reckart Mill","city":"Terra Alta","state":"WV","zip":"26764","longitude":"-79.5280250","latitude":"39.5535670","name":"Working H Farms","website":"www.workinghfarms.com","facebook":"https://www.facebook.com/workinghfarms","twitter":"","tags":"eggs poultry fowl red-meat non-poultry-meat"},{"type":"market","name":"Berkeley Springs Farmers Market","website":"http://www.berkeleyspringsfarmersmarket.com","facebook":"https://www.facebook.com/pages/Berkeley-Springs-Farmers-Market/354062496235","twitter":"","street":"129 Fairfax Street at Washington Street/522","city":"Berkeley Springs","state":"WV","zip":"25411","longitude":"-78.227534","latitude":"39.624722","tags":"organic baked goods cheese crafts flowers eggs herbs vegetables honey jams meat plants poultry prepared-foods soap coffee fruits juices mushrooms wild"},{"type":"market","name":"Charles Town Farmers Market","website":"https://ctfm.jeffersongap.org","facebook":"Charles Town Farmers Market, WV","twitter":"","street":"100 block of South Samuel Street","city":"Charles Town","state":"WV","zip":"25414","longitude":"-77.858454","latitude":"39.289073","tags":"baked goods cheese crafts flowers eggs seafood herbs vegetables honey jams maple meat plants poultry soap coffee fruits juices mushrooms"},{"type":"market","name":"Pleasants Area Farmers Market","website":"","facebook":"Pleasants Area Farmers Market","twitter":"N/A","street":"2nd Street ","city":"St. Marys","state":"WV","zip":"26170","longitude":"-81.205928","latitude":"39.390828","tags":"baked goods crafts eggs herbs vegetables honey meat plants fruits"},{"type":"market","name":"Putnam Farmer's Market","website":"http://www.pfmwv.com","facebook":"Putnam Farmers Market","twitter":"","street":"1 Valley Park Drive","city":"Hurricane","state":"WV","zip":"25526","longitude":"-81.995042","latitude":"38.440335","tags":"organic baked goods crafts flowers eggs herbs vegetables honey jams maple plants poultry prepared-foods soap coffee beans fruits mushrooms"},{"type":"market","name":"Putnam Farmers Market","website":"https://www.pfmwv.com","facebook":"putnamfarmersmarket","twitter":"","street":"1 Valley Way","city":"Hurricane","state":"WV","zip":"25526","longitude":"-81.995540","latitude":"38.441892","tags":"organic baked goods crafts eggs herbs vegetables honey jams maple meat poultry prepared-foods soap coffee fruits mushrooms"},{"type":"market","name":"The Lewis Co. Farmers Market, Inc.","website":"","facebook":"The Lewis Co. Farmers Market","twitter":"","street":"210 Center Ave","city":"Weston","state":"WV","zip":"26452","longitude":"-80.465764","latitude":"39.037553","tags":"baked goods crafts eggs vegetables honey jams maple meat fruits wild"},{"type":"market","name":"Webster Springs Farmer's Market","website":"","facebook":"","twitter":"","street":"Baker's Island","city":"Webster Springs","state":"WV","zip":"26288","longitude":"-80.415459","latitude":"38.478420","tags":"baked goods vegetables honey fruits"},{"type":"market","name":"Western Greenbrier Farmers Market","website":"","facebook":"https://www.facebook.com/RainelleRupertQuinwood/","twitter":"","street":"Main and 11th st","city":"Rainelle ","state":"WV","zip":"25962","longitude":"-80.760056","latitude":"37.972743","tags":"baked goods crafts flowers eggs herbs vegetables honey jams maple plants prepared-foods soap fruits"},{"type":"market","name":"Williamson Farmers Market","website":"http://www.healthyinthehills.com","facebook":"https://www.facebook.com/WilliamsonFarmersMarket/","twitter":"","street":"54 3rd. Ave. W.","city":"Williamson","state":"WV","zip":"25661","longitude":"-82.277984","latitude":"37.674029","tags":"baked goods crafts eggs herbs vegetables honey jams meat soap fruits mushrooms"}]
