"city","facebook","latitude","longitude","name","state","street","tags","twitter","type","website","zip"
"Esmond","https://www.facebook.com/gardendwellersfarm/","48.157882","-99.829980","gardendwellers FARM","ND","5143 37th AVE NE","herbs fresh-fruits","","farm","www.gardendwellersfarm.com","58332"
"Bismarck","www.facebook.com/bismarketnd","46.803081","-100.796471","BisMarket","ND","","baked goods crafts flowers eggs herbs vegetables honey jams meat plants prepared-foods soap wine coffee fruits pet food","","market","http://www.bismarket.com","58501"
"Bottineau","facebook.com/Bottineau-Farmers-Market-1665424737011341/","48.8262788","-100.4459433","Bottineau Farmers Market","ND","6th Street and Main Street","baked goods crafts flowers eggs herbs vegetables honey jams meat nuts plants poultry prepared-foods soap trees beans fruits grains wild","","market","","58318"
"Minot","","48.233564","-101.295598","North Prairie Farmers Market - Minot","ND","Corner of 3rd Ave SW and Broadway","organic baked goods crafts flowers eggs herbs vegetables honey jams plants soap fruits grains","","market","http://www.northprairiefarmersmarket.com","58701"
"Watford City","https://www.facebook.com/watfordmarket/","47.797315","-103.271392","Watford Market","ND","501 7th St SE","baked goods crafts flowers eggs vegetables honey jams prepared-foods fruits","","market","","58854"
