[{"Type":"farmers market","ModifyDate":"Feb 9th, 2021","Image":"default-farmersmarket-4-3.jpg","ListingID":"300316","Name":"Norfolk Farmers Market","Description":null,"ContactName":"Angela Bollard","ContactEmail":"marketmaster@norfolkfarmersmarket.org","ContactPhone":"8605426873","Website":"http:\/\/www.norfolkfarmersmarket.org","Facebook":"https:\/\/www.facebook.com\/NorfolkFarmersMarket","Twitter":null,"Instagram":null,"Pinterest":null,"Youtube":null,"Blog":null,"Address":"19 Maple Avenue, Norfolk, Connecticut 06058","State":"Connecticut","City":"Norfolk","Street":"19 Maple Avenue","Zip":"06058","Longitude":"-73.197873","Latitude":"41.9907390","Dates":"June to September","Products":"Prepared foods, Red\/other non-poultry meat and products, Soap\/body care products, Wine, spirits, beer, hard cider"},{"Type":"farmers market","ModifyDate":"Jan 21st, 2021","Image":"default-farmersmarket-4-3.jpg","ListingID":"300547","Name":"Voluntown Farmers' Market","Description":null,"ContactName":"Voluntown Economic Development Commission","ContactEmail":"edc@voluntown.gov","ContactPhone":"8602086757","Website":"http:\/\/www.voluntown.biz\/voluntown-farmers-market\/schedule-of-events\/","Facebook":"https:\/\/www.facebook.com\/VoluntownFarmersArtisansMarket\/","Twitter":null,"Instagram":null,"Pinterest":null,"Youtube":null,"Blog":null,"Address":"195 Main Street, Voluntown, Connecticut 06384","State":"Connecticut","City":"Voluntown","Street":"195 Main Street","Zip":"06384","Longitude":"-71.865502","Latitude":"41.573913","Dates":"July to October","Products":"Fresh fruits, Fresh vegetables, Baked goods, Canned or preserved fruits\/vegetables, Crafts\/woodworking items, Eggs, Fresh\/dried herbs, Honey, Poultry\/fowl meat and products, Prepared foods, Red\/other non-poultry meat and products, Soap\/body care products"},{"Type":"farmers market","ModifyDate":"Jan 26th, 2021","Image":"default-farmersmarket-4-3.jpg","ListingID":"300033","Name":"Collinsville Farmers Market","Description":null,"ContactName":null,"ContactEmail":"collinsvillefarmersmarket@gmail.com","ContactPhone":"860-308-3157","Website":"www.collinsvillefarmersmarket.org","Facebook":"https:\/\/www.facebook.com\/collinsvillefarmersmarket1","Twitter":"@CollinsvilleFM","Instagram":null,"Pinterest":null,"Youtube":null,"Blog":null,"Address":"Main St. and Route 179, Collinsville, Connecticut 06019","State":"Connecticut","City":"Collinsville","Street":"Main St. and Route 179","Zip":"06019","Longitude":"-72.923264","Latitude":"41.810819","Dates":"June to October","Products":"Fresh fruits, Fresh vegetables, Baked goods, Bedding plants, Canned or preserved fruits\/vegetables, Cut flowers, Dairy products., Eggs, Fresh\/dried herbs, Honey, Juices\/non-alcoholic ciders, Maple products, Red\/other non-poultry meat and products, Soap\/body care products, Wine, spirits, beer, hard cider"},{"Type":"farmers market","ModifyDate":"Jan 26th, 2021","Image":"default-farmersmarket-4-3.jpg","ListingID":"300479","Name":"Lebanon Farmers Market","Description":null,"ContactName":"Philip Chester","ContactEmail":"PChester@lebanonct.gov","ContactPhone":"860-642-2006","Website":"www.lebanonct.gov","Facebook":"Lebanon Farmers' Market","Twitter":null,"Instagram":null,"Pinterest":null,"Youtube":null,"Blog":null,"Address":"579 Exeter Road, Lebanon, Connecticut 06249","State":"Connecticut","City":"Lebanon","Street":"579 Exeter Road","Zip":"06249","Longitude":"-72.212877","Latitude":"41.635781","Dates":"May to October","Products":"Fresh fruits, Fresh vegetables, Baked goods, Bedding plants, Coffee\/tea, Crafts\/woodworking items, Cut flowers, Dairy products., Eggs, Fresh\/dried herbs, Honey, Juices\/non-alcoholic ciders, Maple products, Poultry\/fowl meat and products, Prepared foods, Red\/other non-poultry meat and products, Soap\/body care products, Wine, spirits, beer, hard cider"},{"Type":"farmers market","ModifyDate":"Jan 6th, 2021","Image":"default-farmersmarket-4-3.jpg","ListingID":"300589","Name":"Orange Community Farmers' Market","Description":null,"ContactName":"Annemarie Sliby","ContactEmail":"asliby@orangeedc.com","ContactPhone":"203-891-1045","Website":"farmmarketorange.com","Facebook":"facebook.com\/OrangeCTFarmersMarket","Twitter":null,"Instagram":null,"Pinterest":null,"Youtube":null,"Blog":null,"Address":"525 Orange Center Road, Orange , Connecticut 06477","State":"Connecticut","City":"Orange","Street":"525 Orange Center Road","Zip":"06477","Longitude":"-73.021058","Latitude":"41.2735586","Dates":"June to September","Products":"Fresh vegetables, Baked goods, Bedding plants, Canned or preserved fruits\/vegetables, Coffee\/tea, Crafts\/woodworking items, Juices\/non-alcoholic ciders, Maple products, Prepared foods, Red\/other non-poultry meat and products, Soap\/body care products"},{"Type":"farmers market","ModifyDate":"Jul 19th, 2021","Image":"default-farmersmarket-4-3.jpg","ListingID":"301566","Name":"West Haven Farmers Market","Description":null,"ContactName":"Karina Curbelo","ContactEmail":"kcurbelo@westhaven-ct.gov","ContactPhone":"203-937-3510","Website":null,"Facebook":"https:\/\/www.facebook.com\/WestHavenFarmersMarket\/","Twitter":null,"Instagram":null,"Pinterest":null,"Youtube":null,"Blog":null,"Address":"355 Main Street, West Haven, Connecticut 06516","State":"Connecticut","City":"West Haven","Street":"355 Main Street","Zip":"06516","Longitude":"-72.949946","Latitude":"41.271879","Dates":"July to October","Products":"Fresh fruits, Fresh vegetables, Honey, Soap\/body care products"},{"Type":"farmers market","ModifyDate":"Jul 23rd, 2020","Image":"default-farmersmarket-4-3.jpg","ListingID":"301162","Name":"Manchester's Spruce Street Market","Description":null,"ContactName":"Cynde Acanto","ContactEmail":"sprucestmarket@manchesterct.gov","ContactPhone":"8606473089","Website":"http:\/\/naf1.townofmanchester.org\/index.cfm\/spruce-street-market\/","Facebook":"sprucestreetmarketct","Twitter":null,"Instagram":null,"Pinterest":null,"Youtube":null,"Blog":null,"Address":"163 Spruce St., Manchester, Connecticut 06040","State":"Connecticut","City":"Manchester","Street":"163 Spruce St.","Zip":"06040","Longitude":"-72.518324","Latitude":"41.781503","Dates":"July to August","Products":"Fresh fruits, Fresh vegetables, Baked goods, Canned or preserved fruits\/vegetables, Eggs, Fresh\/dried herbs, Honey, Maple products, Prepared foods, Red\/other non-poultry meat and products, Tofu\/non-animal protein"},{"Type":"farmers market","ModifyDate":"Jul 29th, 2021","Image":"default-farmersmarket-4-3.jpg","ListingID":"301583","Name":"South Windsor Farmers' Market","Description":null,"ContactName":"Jennie Tetreault","ContactEmail":"jennie.tetreault@southwindsor-ct.gov","ContactPhone":"860-604-3882","Website":"https:\/\/southwindsor.recdesk.com\/Community\/Page?pageId=28812","Facebook":"https:\/\/www.facebook.com\/SWPRD","Twitter":null,"Instagram":null,"Pinterest":null,"Youtube":null,"Blog":null,"Address":"220 Nevers Rd., South Windsor, Connecticut 06074","State":"Connecticut","City":"South Windsor","Street":"220 Nevers Rd.","Zip":"06074","Longitude":"-72.551790","Latitude":"41.842841","Dates":"","Products":"Fresh fruits, Fresh vegetables, Baked goods, Bedding plants, Canned or preserved fruits\/vegetables, Coffee\/tea, Crafts\/woodworking items, Cut flowers, Dairy products., Eggs, Fresh\/dried herbs, Honey, Maple products, Pet food, Prepared foods, Red\/other non-poultry meat and products, Soap\/body care products, Tofu\/non-animal protein, Wild harvested forest products"},{"Type":"farmers market","ModifyDate":"Mar 20th, 2023","Image":"default-farmersmarket-4-3.jpg","ListingID":"309139","Name":"Andover Farmers' Market","Description":null,"ContactName":null,"ContactEmail":"AndoverFarmersMarket@gmail.com","ContactPhone":"860-916-6122","Website":"","Facebook":"https:\/\/www.facebook.com\/AndoverCTFarmersMarket","Twitter":null,"Instagram":null,"Pinterest":null,"Youtube":null,"Blog":null,"Address":"22 Long Hill Rd., Andover, CT, 06232","State":"Connecticut","City":"Andover","Street":"22 Long Hill Rd.","Zip":"6232","Longitude":"-72.37325289660713","Latitude":"41.74202728189687","Dates":null,"Products":""},{"Type":"farmers market","ModifyDate":"Mar 20th, 2023","Image":"default-farmersmarket-4-3.jpg","ListingID":"309140","Name":"Berlin Farmers Market","Description":null,"ContactName":null,"ContactEmail":"","ContactPhone":"860-828-5187","Website":"","Facebook":"","Twitter":null,"Instagram":null,"Pinterest":null,"Youtube":null,"Blog":null,"Address":"191 Farmington Avenue Hungerford Park, CT 06037","State":"Connecticut","City":"KENSINGTON","Street":"191 FARMINGTON AVE","Zip":"6037","Longitude":"-72.78461695228474","Latitude":"41.64294343047201","Dates":null,"Products":""},{"Type":"farmers market","ModifyDate":"Mar 20th, 2023","Image":"default-farmersmarket-4-3.jpg","ListingID":"309141","Name":"Bethel Farmers' Market","Description":null,"ContactName":null,"ContactEmail":"Email not found","ContactPhone":"","Website":"http:\/\/www.bethelfarmersmarket.org","Facebook":"https:\/\/www.facebook.com\/pages\/Bethel-Farmers-Market\/112385562438","Twitter":null,"Instagram":null,"Pinterest":null,"Youtube":null,"Blog":null,"Address":"67 Stony Hill Rd., Bethel, CT, 06801","State":"Connecticut","City":"Bethel","Street":"67 Stony Hill Rd.","Zip":"6801","Longitude":"-73.38306362384127","Latitude":"41.41489457396189","Dates":null,"Products":""},{"Type":"farmers market","ModifyDate":"Mar 20th, 2023","Image":"default-farmersmarket-4-3.jpg","ListingID":"309142","Name":"Billings Forge Farmers Market","Description":null,"ContactName":null,"ContactEmail":"","ContactPhone":"860-548-9877","Website":"http:\/\/www.hartfordfarmersmarket.org","Facebook":"","Twitter":null,"Instagram":null,"Pinterest":null,"Youtube":null,"Blog":null,"Address":"563 Broad Sr Hartford, CT 06106","State":"Connecticut","City":"HARTFORD","Street":"563 BROAD ST","Zip":"6106","Longitude":"-72.686811294043","Latitude":"41.76193305084632","Dates":null,"Products":""},{"Type":"farmers market","ModifyDate":"Mar 20th, 2023","Image":"default-farmersmarket-4-3.jpg","ListingID":"309143","Name":"Bishop's Orchards Farm Market & Winery","Description":null,"ContactName":null,"ContactEmail":"","ContactPhone":"","Website":"http:\/\/www.bishopsorchards.com","Facebook":"http:\/\/www.facebook.com\/bishopsorchardsfarmmarket","Twitter":null,"Instagram":null,"Pinterest":null,"Youtube":null,"Blog":null,"Address":"1355 Boston Post Road Guilford, CT 06437","State":"Connecticut","City":"GUILFORD","Street":"1355 BOSTON POST RD","Zip":"6437","Longitude":"-72.69617795895057","Latitude":"41.29072167471084","Dates":null,"Products":""},{"Type":"farmers market","ModifyDate":"Mar 20th, 2023","Image":"default-farmersmarket-4-3.jpg","ListingID":"309144","Name":"Black Rock Farmers Market","Description":null,"ContactName":null,"ContactEmail":"","ContactPhone":"","Website":"http:\/\/www.blackrockfarmersmarket.com","Facebook":"http:\/\/www.facebook.com\/blackrockfarmersmarket\/?ref=bookmarks","Twitter":null,"Instagram":null,"Pinterest":null,"Youtube":null,"Blog":null,"Address":"481 Brewster Street Bridgeport, CT 06605","State":"Connecticut","City":"BRIDGEPORT","Street":"481 BREWSTER ST","Zip":"6605","Longitude":"-73.22441828524141","Latitude":"41.15578754350639","Dates":null,"Products":""},{"Type":"farmers market","ModifyDate":"Mar 20th, 2023","Image":"default-farmersmarket-4-3.jpg","ListingID":"309145","Name":"Bozrah Farmers Market","Description":null,"ContactName":null,"ContactEmail":"","ContactPhone":"860-889-2689","Website":"https:\/\/www.bozrahfarmersmarket.org\/","Facebook":"http:\/\/www.facebook.com\/BozrahFarm","Twitter":null,"Instagram":null,"Pinterest":null,"Youtube":null,"Blog":null,"Address":"Maple Farms Park, 45 Bozrah Street, Bozrah, CT","State":"Connecticut","City":"Bozrah","Street":"45 Bozrah Street","Zip":"","Longitude":"-72.16805097282308","Latitude":"41.55285801810811","Dates":null,"Products":""},{"Type":"farmers market","ModifyDate":"Mar 20th, 2023","Image":"default-farmersmarket-4-3.jpg","ListingID":"309146","Name":"Brass City Market on Field","Description":null,"ContactName":null,"ContactEmail":"","ContactPhone":"203-982-2272","Website":"","Facebook":"https:\/\/www.facebook.com\/BrassCityMarketOnField\/","Twitter":null,"Instagram":null,"Pinterest":null,"Youtube":null,"Blog":null,"Address":"359 Mill Street, Waterbury, CT","State":"Connecticut","City":"Waterbury","Street":"359 Mill Street","Zip":"","Longitude":"-73.03623909610478","Latitude":"41.54944113783066","Dates":null,"Products":""},{"Type":"farmers market","ModifyDate":"Mar 20th, 2023","Image":"default-farmersmarket-4-3.jpg","ListingID":"309147","Name":"Brickwalk Farmers' Market","Description":null,"ContactName":null,"ContactEmail":"","ContactPhone":"","Website":"","Facebook":"","Twitter":null,"Instagram":null,"Pinterest":null,"Youtube":null,"Blog":null,"Address":"1189 Post Rd (behind TREK bike store) Fairfield, CT 06824","State":"Connecticut","City":"FAIRFIELD","Street":"1189 POST RD","Zip":"6824","Longitude":"-73.25372534751217","Latitude":"41.144088863808115","Dates":null,"Products":""},{"Type":"farmers market","ModifyDate":"Mar 20th, 2023","Image":"default-farmersmarket-4-3.jpg","ListingID":"309148","Name":"Bridgeport Downtown Farmers' Market","Description":null,"ContactName":null,"ContactEmail":"","ContactPhone":"203-268-2327","Website":"","Facebook":"https:\/\/www.facebook.com\/BptFarmersMarket","Twitter":null,"Instagram":null,"Pinterest":null,"Youtube":null,"Blog":null,"Address":"Main St. and Bank St., McLevy Green, Bridgeport, CT, 06604","State":"Connecticut","City":"Bridgeport","Street":"Main St. and Bank St.","Zip":"6604","Longitude":"-73.18889000135889","Latitude":"41.17730001508133","Dates":null,"Products":""},{"Type":"farmers market","ModifyDate":"Mar 20th, 2023","Image":"default-farmersmarket-4-3.jpg","ListingID":"309149","Name":"Bridgeport Farmers Market - East End","Description":null,"ContactName":null,"ContactEmail":"","ContactPhone":"","Website":"","Facebook":"","Twitter":null,"Instagram":null,"Pinterest":null,"Youtube":null,"Blog":null,"Address":"985 Stratford Avenue Bridgeport, CT 06601","State":"Connecticut","City":"BRIDGEPORT","Street":"985 STRATFORD AVE","Zip":"6607","Longitude":"-73.1700776306839","Latitude":"41.17700548630109","Dates":null,"Products":""},{"Type":"farmers market","ModifyDate":"Mar 20th, 2023","Image":"default-farmersmarket-4-3.jpg","ListingID":"309150","Name":"Bridgeport South End Fresh Market","Description":null,"ContactName":null,"ContactEmail":"","ContactPhone":"203-268-2716","Website":"","Facebook":"","Twitter":null,"Instagram":null,"Pinterest":null,"Youtube":null,"Blog":null,"Address":"877 Park Avenue Bridgeport, CT 06604","State":"Connecticut","City":"BRIDGEPORT","Street":"877 PARK AVE","Zip":"6604","Longitude":"-73.19746010700533","Latitude":"41.17333815162115","Dates":null,"Products":""},{"Type":"farmers market","ModifyDate":"Mar 20th, 2023","Image":"default-farmersmarket-4-3.jpg","ListingID":"309151","Name":"Bristol Farmers' Market","Description":null,"ContactName":null,"ContactEmail":"","ContactPhone":"","Website":"http:\/\/nwctfarmersmarkets.com\/bristol\/","Facebook":"","Twitter":null,"Instagram":null,"Pinterest":null,"Youtube":null,"Blog":null,"Address":"N. Main St. & Riverside Ave., The \u00e2\u20ac\u02dcPatch Downtown, Bristol, CT, 06010","State":"Connecticut","City":"Bristol","Street":"N. Main St. & Riverside Ave","Zip":"6010","Longitude":"-72.94559998109266","Latitude":"41.67148998550675","Dates":null,"Products":""},{"Type":"farmers market","ModifyDate":"Mar 20th, 2023","Image":"default-farmersmarket-4-3.jpg","ListingID":"309152","Name":"Brookfield Farmers' Market","Description":null,"ContactName":null,"ContactEmail":"","ContactPhone":"","Website":"","Facebook":"https:\/\/www.facebook.com\/brookfieldctfarmersmarket","Twitter":null,"Instagram":null,"Pinterest":null,"Youtube":null,"Blog":null,"Address":"100 Pocono Rd., Brookfield, CT, 06804","State":"Connecticut","City":"Brookfield","Street":"100 Pocono Rd.","Zip":"6804","Longitude":"-73.398067043692","Latitude":"41.46695857999286","Dates":null,"Products":""},{"Type":"farmers market","ModifyDate":"Mar 20th, 2023","Image":"default-farmersmarket-4-3.jpg","ListingID":"309153","Name":"Brooklyn Farmers Market","Description":null,"ContactName":null,"ContactEmail":"","ContactPhone":"","Website":"http:\/\/nectfarmers market.com","Facebook":"","Twitter":null,"Instagram":null,"Pinterest":null,"Youtube":null,"Blog":null,"Address":"564 Providence Road Brooklyn, CT 06234","State":"Connecticut","City":"BROOKLYN","Street":"564 PROVIDENCE RD","Zip":"6234","Longitude":"-71.90206732923076","Latitude":"41.799075854199394","Dates":null,"Products":""},{"Type":"farmers market","ModifyDate":"Mar 20th, 2023","Image":"default-farmersmarket-4-3.jpg","ListingID":"309154","Name":"Chester Summer Sunday Market","Description":null,"ContactName":null,"ContactEmail":"chestersundaymarket14@gmail.com","ContactPhone":"860-790-5007","Website":"https:\/\/chestersundaymarket.jimdofree.com\/","Facebook":"","Twitter":null,"Instagram":null,"Pinterest":null,"Youtube":null,"Blog":null,"Address":"23 Ridge Road, Chester, CT","State":"Connecticut","City":"Chester","Street":"23 Ridge Road","Zip":"","Longitude":"-72.45851417686005","Latitude":"41.40482836062105","Dates":null,"Products":""},{"Type":"farmers market","ModifyDate":"Mar 20th, 2023","Image":"default-farmersmarket-4-3.jpg","ListingID":"309155","Name":"Chester Sunday Market","Description":null,"ContactName":null,"ContactEmail":"","ContactPhone":"","Website":"http:\/\/chestersundaymarket.com","Facebook":"","Twitter":null,"Instagram":null,"Pinterest":null,"Youtube":null,"Blog":null,"Address":"23 Main Street in Chester Center Chester, CT 06412","State":"Connecticut","City":"CHESTER","Street":"23 MAIN ST","Zip":"6412","Longitude":"-72.45031072076411","Latitude":"41.402637985383755","Dates":null,"Products":""},{"Type":"farmers market","ModifyDate":"Mar 20th, 2023","Image":"default-farmersmarket-4-3.jpg","ListingID":"309156","Name":"CitySeed Indoor Winter Farmers' Market","Description":null,"ContactName":null,"ContactEmail":"","ContactPhone":"203-773-3736","Website":"","Facebook":"http:\/\/www.facebook.com\/cityseed","Twitter":null,"Instagram":null,"Pinterest":null,"Youtube":null,"Blog":null,"Address":"115 Water Street New Haven , CT 06511","State":"Connecticut","City":"NEW HAVEN","Street":"115 WATER ST","Zip":"6511","Longitude":"-72.91953737309282","Latitude":"41.30105890298442","Dates":null,"Products":""},{"Type":"farmers market","ModifyDate":"Mar 20th, 2023","Image":"default-farmersmarket-4-3.jpg","ListingID":"309157","Name":"Connecticut Valley Farmers Market I","Description":null,"ContactName":null,"ContactEmail":"","ContactPhone":"","Website":"","Facebook":"","Twitter":null,"Instagram":null,"Pinterest":null,"Youtube":null,"Blog":null,"Address":"18 Hartford Avenue Granby, CT 06035","State":"Connecticut","City":"GRANBY","Street":"18 HARTFORD AVE","Zip":"6035","Longitude":"-72.78858703863851","Latitude":"41.952709131917906","Dates":null,"Products":""},{"Type":"farmers market","ModifyDate":"Mar 20th, 2023","Image":"default-farmersmarket-4-3.jpg","ListingID":"309158","Name":"Coventry Farmers Market","Description":null,"ContactName":null,"ContactEmail":"","ContactPhone":"860-742-4062","Website":"https:\/\/www.coventryfarmersmarket.org\/","Facebook":"https:\/\/www.facebook.com\/coventryfarmersmarket","Twitter":null,"Instagram":null,"Pinterest":null,"Youtube":null,"Blog":null,"Address":"The Hale Homestead, 2299 South Street, Coventry, CT","State":"Connecticut","City":"Coventry","Street":"2299 South Street","Zip":"","Longitude":"-72.34577397459455","Latitude":"41.76345999900414","Dates":null,"Products":""},{"Type":"farmers market","ModifyDate":"Mar 20th, 2023","Image":"default-farmersmarket-4-3.jpg","ListingID":"309159","Name":"Cromwell Farmers Market","Description":null,"ContactName":null,"ContactEmail":"","ContactPhone":"860-614-8727","Website":"http:\/\/www.cromwellfarmersmarket.org","Facebook":"http:\/\/www.facebook.com\/cromwellfarmersmarket","Twitter":null,"Instagram":null,"Pinterest":null,"Youtube":null,"Blog":null,"Address":"1 River Rd Cromwell, CT 06416","State":"Connecticut","City":"CROMWELL","Street":"1 RIVER RD","Zip":"6416","Longitude":"-72.64678941751842","Latitude":"41.58364809326402","Dates":null,"Products":""},{"Type":"farmers market","ModifyDate":"Mar 20th, 2023","Image":"default-farmersmarket-4-3.jpg","ListingID":"309160","Name":"Danbury City Center Farmers' Market","Description":null,"ContactName":null,"ContactEmail":"andreagartner@citycenterdanbury.com","ContactPhone":"203-792-1711","Website":"http:\/\/www.citycenterdanbury.com\/arts-and-ent\/farmers-market.htm","Facebook":"","Twitter":null,"Instagram":null,"Pinterest":null,"Youtube":null,"Blog":null,"Address":"Kennedy Park, Danbury, CT, 06810","State":"Connecticut","City":"Danbury","Street":"Kennedy Park","Zip":"6810","Longitude":"-73.45916787003071","Latitude":"41.39661730392874","Dates":null,"Products":""},{"Type":"farmers market","ModifyDate":"Mar 20th, 2023","Image":"default-farmersmarket-4-3.jpg","ListingID":"309161","Name":"Danielson Farmers Market","Description":null,"ContactName":null,"ContactEmail":"","ContactPhone":"","Website":"http:\/\/nectfarmersmarket.org","Facebook":"","Twitter":null,"Instagram":null,"Pinterest":null,"Youtube":null,"Blog":null,"Address":"25 Westcott Road Danielson, CT 06239","State":"Connecticut","City":"DANIELSON","Street":"25 WESTCOTT RD","Zip":"6239","Longitude":"-71.87760275390609","Latitude":"41.80932945123494","Dates":null,"Products":""},{"Type":"farmers market","ModifyDate":"Mar 20th, 2023","Image":"default-farmersmarket-4-3.jpg","ListingID":"309162","Name":"Denison Farmers Market","Description":null,"ContactName":null,"ContactEmail":"info@denisonhomestead.org","ContactPhone":"860-536-8377","Website":"https:\/\/www.denisonhomestead.org\/denison-farmers-market\/","Facebook":"http:\/\/www.facebook.com\/Denison-Homestead-Museum-362383050612175","Twitter":null,"Instagram":null,"Pinterest":null,"Youtube":null,"Blog":null,"Address":"120 Pequotsepos Road, across from the Denison\/Pequotsepus Nature Center, Mystic, CT","State":"Connecticut","City":"Mystic","Street":"120 Pequotsepos Road","Zip":"","Longitude":"-71.94909496372853","Latitude":"41.36182520228053","Dates":null,"Products":""},{"Type":"farmers market","ModifyDate":"Mar 20th, 2023","Image":"default-farmersmarket-4-3.jpg","ListingID":"309163","Name":"Downtown Farmers' Market","Description":null,"ContactName":null,"ContactEmail":"info@cityseed.org","ContactPhone":"203-773-3736","Website":"http:\/\/cityseed.org\/downtown","Facebook":"https:\/\/www.facebook.com\/cityseed","Twitter":null,"Instagram":null,"Pinterest":null,"Youtube":null,"Blog":null,"Address":"Corner of Temple St. and Chapel St., in front of City Hall, New Haven, CT, 06510","State":"Connecticut","City":"New Haven","Street":"Corner of Temple St. and Chapel St","Zip":"6510","Longitude":"-72.92701000949694","Latitude":"41.30658001699791","Dates":null,"Products":""},{"Type":"farmers market","ModifyDate":"Mar 20th, 2023","Image":"default-farmersmarket-4-3.jpg","ListingID":"309164","Name":"Downtown New Britain Farmers' Market","Description":null,"ContactName":null,"ContactEmail":"","ContactPhone":"860-259-4290","Website":"http:\/\/www.newbritainroots.org\/","Facebook":"http:\/\/www.facebook.com\/newbritainroots\/","Twitter":null,"Instagram":null,"Pinterest":null,"Youtube":null,"Blog":null,"Address":"27 W Main St New Britain, CT 06051 Farmers' Market is held directly across from City Hall at Central Park (circle island where food trucks park)","State":"Connecticut","City":"NEW BRITAIN","Street":"27 W MAIN ST","Zip":"6051","Longitude":"-72.78298181564199","Latitude":"41.667647037646695","Dates":null,"Products":""},{"Type":"farmers market","ModifyDate":"Mar 20th, 2023","Image":"default-farmersmarket-4-3.jpg","ListingID":"309165","Name":"Dudley Farmers Market","Description":null,"ContactName":null,"ContactEmail":"","ContactPhone":"","Website":"","Facebook":"","Twitter":null,"Instagram":null,"Pinterest":null,"Youtube":null,"Blog":null,"Address":"2351 Durham Road Guilford, CT 06437","State":"Connecticut","City":"GUILFORD","Street":"2351 DURHAM RD","Zip":"6437","Longitude":"-72.71970317364935","Latitude":"41.35402870700666","Dates":null,"Products":""},{"Type":"farmers market","ModifyDate":"Mar 20th, 2023","Image":"default-farmersmarket-4-3.jpg","ListingID":"309166","Name":"Durham Farmers' Market","Description":null,"ContactName":null,"ContactEmail":"","ContactPhone":"","Website":"http:\/\/www.durhamfarmersmarket.org\/","Facebook":"https:\/\/www.facebook.com\/durhamfarmersmarket","Twitter":null,"Instagram":null,"Pinterest":null,"Youtube":null,"Blog":null,"Address":"Town Green, Durham, CT, 06422","State":"Connecticut","City":"Durham","Street":"Town Green","Zip":"6422","Longitude":"-72.6532662926076","Latitude":"41.462040335133665","Dates":null,"Products":""},{"Type":"farmers market","ModifyDate":"Mar 20th, 2023","Image":"default-farmersmarket-4-3.jpg","ListingID":"309167","Name":"East Granby Farmers' Market","Description":null,"ContactName":null,"ContactEmail":"eastgranbyfarmersmarket@gmail.com","ContactPhone":"860-653-3002","Website":"http:\/\/www.egfarmersmarket.com\/","Facebook":"https:\/\/www.facebook.com\/EastGranbyFarmersMarket","Twitter":null,"Instagram":null,"Pinterest":null,"Youtube":null,"Blog":null,"Address":"24 Center St., East Granby Public Library, Granby, CT, 06026","State":"Connecticut","City":"Granby","Street":"24 Center St., East","Zip":"6026","Longitude":"-72.7299419942917","Latitude":"41.94050100722373","Dates":null,"Products":""},{"Type":"farmers market","ModifyDate":"Mar 20th, 2023","Image":"default-farmersmarket-4-3.jpg","ListingID":"309168","Name":"East Haven Farmer's Market","Description":null,"ContactName":null,"ContactEmail":"","ContactPhone":"203-468-3204","Website":"http:\/\/www.townofeasthavenct.rog","Facebook":"","Twitter":null,"Instagram":null,"Pinterest":null,"Youtube":null,"Blog":null,"Address":"250 Main Street East Haven, CT 06512","State":"Connecticut","City":"EAST HAVEN","Street":"250 MAIN ST","Zip":"6512","Longitude":"-72.87189432097333","Latitude":"41.27797634630813","Dates":null,"Products":""},{"Type":"farmers market","ModifyDate":"Mar 20th, 2023","Image":"default-farmersmarket-4-3.jpg","ListingID":"309169","Name":"East Windsor Farmers' Market","Description":null,"ContactName":null,"ContactEmail":"ewfarmmarket@gmail.com","ContactPhone":"860-292-1796","Website":"","Facebook":"https:\/\/www.facebook.com\/EastWindsorFarmersMarket\/","Twitter":null,"Instagram":null,"Pinterest":null,"Youtube":null,"Blog":null,"Address":"58 North St., Windsor Locks, CT, 06096","State":"Connecticut","City":"Windsor Locks","Street":"58 North St.","Zip":"6096","Longitude":"-72.63447082422364","Latitude":"41.93691285731567","Dates":null,"Products":""},{"Type":"farmers market","ModifyDate":"Mar 20th, 2023","Image":"default-farmersmarket-4-3.jpg","ListingID":"309170","Name":"Edgewood Park Farmers' Market","Description":null,"ContactName":null,"ContactEmail":"info@cityseed.org","ContactPhone":"203-773-3736","Website":"http:\/\/cityseed.org\/edgewood-park","Facebook":"https:\/\/www.facebook.com\/cityseed","Twitter":null,"Instagram":null,"Pinterest":null,"Youtube":null,"Blog":null,"Address":"W. Rock Ave. and Whalley Ave., Edgewood Park, New Haven, CT, 06515","State":"Connecticut","City":"New Haven","Street":"W. Rock Ave. and Whalley Ave.","Zip":"6515","Longitude":"-72.95858002871209","Latitude":"41.32587000323733","Dates":null,"Products":""},{"Type":"farmers market","ModifyDate":"Mar 20th, 2023","Image":"default-farmersmarket-4-3.jpg","ListingID":"309171","Name":"Ellington Farmers Market","Description":null,"ContactName":null,"ContactEmail":"","ContactPhone":"860-872-0121","Website":"http:\/\/www.ellingtonfarmersmarket.com","Facebook":"http:\/\/www.facebook.com\/ellingtonfarmersmarket","Twitter":null,"Instagram":null,"Pinterest":null,"Youtube":null,"Blog":null,"Address":"37 Maple St ELLINGTON, CT 06029 Winter Market held at Ellington High School, 37 Maple St","State":"Connecticut","City":"ELLINGTON","Street":"37 MAPLE ST","Zip":"6029","Longitude":"-72.4606328687849","Latitude":"41.90808371319921","Dates":null,"Products":""},{"Type":"farmers market","ModifyDate":"Mar 20th, 2023","Image":"default-farmersmarket-4-3.jpg","ListingID":"309172","Name":"Ellington Summer Farmers Market","Description":null,"ContactName":null,"ContactEmail":"","ContactPhone":"","Website":"https:\/\/www.ellingtonfarmersmarket.com\/","Facebook":"http:\/\/www.facebook.com\/ellingtonfarmersmarket","Twitter":null,"Instagram":null,"Pinterest":null,"Youtube":null,"Blog":null,"Address":"Arbor Park, Main Street, Ellington, CT","State":"Connecticut","City":"Ellington","Street":"Arbor Park, Main Street","Zip":"","Longitude":"-72.46807704485155","Latitude":"41.90366604391317","Dates":null,"Products":""},{"Type":"farmers market","ModifyDate":"Mar 20th, 2023","Image":"default-farmersmarket-4-3.jpg","ListingID":"309173","Name":"Enfield Farmers' Market","Description":null,"ContactName":null,"ContactEmail":"","ContactPhone":"860-273-4884","Website":"","Facebook":"","Twitter":null,"Instagram":null,"Pinterest":null,"Youtube":null,"Blog":null,"Address":"178 Enfield Main Rd., Enfield Valley Grange, Enfield, CT, 06082","State":"Connecticut","City":"Enfield","Street":"178 Enfield Main Rd.","Zip":"6082","Longitude":"-72.59083426628555","Latitude":"42.019181056952334","Dates":null,"Products":""},{"Type":"farmers market","ModifyDate":"Mar 20th, 2023","Image":"default-farmersmarket-4-3.jpg","ListingID":"309174","Name":"Fairfield Brickwalk Farmers Market","Description":null,"ContactName":null,"ContactEmail":"","ContactPhone":"203-292-8299","Website":"http:\/\/www.klebanproperties.com","Facebook":"","Twitter":null,"Instagram":null,"Pinterest":null,"Youtube":null,"Blog":null,"Address":"1215 Post Rd. Fairfield, CT 06824","State":"Connecticut","City":"FAIRFIELD","Street":"1215 POST RD","Zip":"6824","Longitude":"-73.25395185152873","Latitude":"41.143867586807325","Dates":null,"Products":""},{"Type":"farmers market","ModifyDate":"Mar 20th, 2023","Image":"default-farmersmarket-4-3.jpg","ListingID":"309175","Name":"Fairfield Farmers' Market","Description":null,"ContactName":null,"ContactEmail":"","ContactPhone":"203-259-8786","Website":"","Facebook":"","Twitter":null,"Instagram":null,"Pinterest":null,"Youtube":null,"Blog":null,"Address":"75 Hillside Rd., Between Hillside and Bronson, Fairfield, CT, 06824","State":"Connecticut","City":"Fairfield","Street":"75 Hillside Rd., Between Hillside and Bronson","Zip":"6824","Longitude":"-73.28371696450355","Latitude":"41.16227176916045","Dates":null,"Products":""},{"Type":"farmers market","ModifyDate":"Mar 20th, 2023","Image":"default-farmersmarket-4-3.jpg","ListingID":"309176","Name":"Farmers' Market @ Billings Forge","Description":null,"ContactName":null,"ContactEmail":"","ContactPhone":"860-548-9877","Website":"http:\/\/www.hartfordfarmersmarket.org\/","Facebook":"","Twitter":null,"Instagram":null,"Pinterest":null,"Youtube":null,"Blog":null,"Address":"539 Broad Street Hartford, CT 06106","State":"Connecticut","City":"HARTFORD","Street":"539 BROAD ST","Zip":"6106","Longitude":"-72.68679319452673","Latitude":"41.762163819678726","Dates":null,"Products":""},{"Type":"farmers market","ModifyDate":"Mar 20th, 2023","Image":"default-farmersmarket-4-3.jpg","ListingID":"309177","Name":"Farmers Market at Sun Valley Resort","Description":null,"ContactName":null,"ContactEmail":"","ContactPhone":"","Website":"","Facebook":"http:\/\/www.facebook.com\/FarmersMarketSunValley\/","Twitter":null,"Instagram":null,"Pinterest":null,"Youtube":null,"Blog":null,"Address":"51 Old Springfield Stafford, CT 06076 Parking is free in our large paved parking lot.","State":"Connecticut","City":"STAFFORD SPGS","Street":"51 OLD SPRINGFIELD RD","Zip":"6076","Longitude":"-72.36424161359416","Latitude":"41.975300466124004","Dates":null,"Products":""},{"Type":"farmers market","ModifyDate":"Mar 20th, 2023","Image":"default-farmersmarket-4-3.jpg","ListingID":"309178","Name":"First Presbyterian Church Farmers Market","Description":null,"ContactName":null,"ContactEmail":"","ContactPhone":"","Website":"http:\/\/www.hartfordfarmersmarkets.org\/first-presbyterian\/","Facebook":"","Twitter":null,"Instagram":null,"Pinterest":null,"Youtube":null,"Blog":null,"Address":"136 Capital Ave., First Presbyterian Church of Hartford, Hartford, CT, 06106","State":"Connecticut","City":"Hartford","Street":"136 Capital Ave","Zip":"6106","Longitude":"-72.67888433151192","Latitude":"41.761868623505165","Dates":null,"Products":""},{"Type":"farmers market","ModifyDate":"Mar 20th, 2023","Image":"default-farmersmarket-4-3.jpg","ListingID":"309179","Name":"Forge City Works Year Round Farmers Market","Description":null,"ContactName":null,"ContactEmail":"","ContactPhone":"860-548-9877","Website":"https:\/\/www.forgecityworks.org\/programs\/food-access\/farmers-market\/","Facebook":"https:\/\/www.facebook.com\/forgecityworks","Twitter":null,"Instagram":null,"Pinterest":null,"Youtube":null,"Blog":null,"Address":"Billings Forge Green at 539 Broad Street\/The Studio, 563 Broad Street, Hartford, CT","State":"Connecticut","City":"Hartford","Street":"563 Broad Street","Zip":"","Longitude":"-72.6877719688638","Latitude":"41.76202300552373","Dates":null,"Products":""},{"Type":"farmers market","ModifyDate":"Mar 20th, 2023","Image":"default-farmersmarket-4-3.jpg","ListingID":"309180","Name":"Goshen Farmers' Holiday Market","Description":null,"ContactName":null,"ContactEmail":"info@goshenfarmersmarket.com","ContactPhone":"860-307-5426","Website":"http:\/\/www.goshenfarmersmarket.com\/goshen-farmers-holiday-market.html","Facebook":"https:\/\/www.facebook.com\/goshenfarmersmarket","Twitter":null,"Instagram":null,"Pinterest":null,"Youtube":null,"Blog":null,"Address":"71 North St., Goshen, CT, 06756","State":"Connecticut","City":"Goshen","Street":"71 North St.","Zip":"6756","Longitude":"-73.23008655522807","Latitude":"41.83645088120312","Dates":null,"Products":""},{"Type":"farmers market","ModifyDate":"Mar 20th, 2023","Image":"default-farmersmarket-4-3.jpg","ListingID":"309181","Name":"Goshen Farmers' Market","Description":null,"ContactName":null,"ContactEmail":"info@goshenfarmersmarket.com","ContactPhone":"860-307-5426","Website":"http:\/\/www.goshenfarmersmarket.com\/","Facebook":"https:\/\/www.facebook.com\/goshenfarmersmarket\/","Twitter":null,"Instagram":null,"Pinterest":null,"Youtube":null,"Blog":null,"Address":"42 Ives Rd., Miranda Vineyard, Goshen, CT, 06756","State":"Connecticut","City":"Goshen","Street":"42 Ives Rd., Miranda Vineyard","Zip":"6756","Longitude":"-73.2398716643822","Latitude":"41.79711886492929","Dates":null,"Products":""},{"Type":"farmers market","ModifyDate":"Mar 20th, 2023","Image":"default-farmersmarket-4-3.jpg","ListingID":"309182","Name":"Greenfield Farmers Market","Description":null,"ContactName":null,"ContactEmail":"","ContactPhone":"203-259-8786","Website":"","Facebook":"","Twitter":null,"Instagram":null,"Pinterest":null,"Youtube":null,"Blog":null,"Address":"75 Hillside Road Fairfield, CT 06824","State":"Connecticut","City":"FAIRFIELD","Street":"75 HILLSIDE RD","Zip":"6824","Longitude":"-73.28371696450355","Latitude":"41.16227176916045","Dates":null,"Products":""},{"Type":"farmers market","ModifyDate":"Mar 20th, 2023","Image":"default-farmersmarket-4-3.jpg","ListingID":"309183","Name":"Greenfield Hill Summer Farmers Market","Description":null,"ContactName":null,"ContactEmail":"","ContactPhone":"","Website":"","Facebook":"https:\/\/www.facebook.com\/greenfieldhillfarmersmarket","Twitter":null,"Instagram":null,"Pinterest":null,"Youtube":null,"Blog":null,"Address":"75 Hillside Road (between Hillside and Bronson Roads), Fairfield, CT, 06824","State":"Connecticut","City":"Fairfield","Street":"75 Hillside Road","Zip":"6824","Longitude":"-73.28371696450355","Latitude":"41.16227176916045","Dates":null,"Products":""},{"Type":"farmers market","ModifyDate":"Mar 20th, 2023","Image":"default-farmersmarket-4-3.jpg","ListingID":"309184","Name":"Greenwich Farmers Market","Description":null,"ContactName":null,"ContactEmail":"","ContactPhone":"203-380-0580","Website":"https:\/\/www.greenwichfarmersmarketct.com\/","Facebook":"","Twitter":null,"Instagram":null,"Pinterest":null,"Youtube":null,"Blog":null,"Address":"2 Horseneck Lane, Greenwich, CT","State":"Connecticut","City":"Greenwich","Street":"2 Horseneck Lane","Zip":"","Longitude":"-73.63211280833565","Latitude":"41.02009445820707","Dates":null,"Products":""},{"Type":"farmers market","ModifyDate":"Mar 20th, 2023","Image":"default-farmersmarket-4-3.jpg","ListingID":"309185","Name":"Hamden Farmers' Market","Description":null,"ContactName":null,"ContactEmail":"jsmith@hamden.com","ContactPhone":"","Website":"www.hamden.com\/content\/7089\/7846\/11600","Facebook":"","Twitter":null,"Instagram":null,"Pinterest":null,"Youtube":null,"Blog":null,"Address":"2901 Dixwell Ave., Hamden, CT, 06518","State":"Connecticut","City":"Hamden","Street":"2901 Dixwell Ave.","Zip":"#VALUE!","Longitude":"-72.90213299011877","Latitude":"41.38349561638856","Dates":null,"Products":""},{"Type":"farmers market","ModifyDate":"Mar 20th, 2023","Image":"default-farmersmarket-4-3.jpg","ListingID":"309186","Name":"Hartford Capitol Ave Farmers' Market","Description":null,"ContactName":null,"ContactEmail":"","ContactPhone":"860-633-1067","Website":"","Facebook":"","Twitter":null,"Instagram":null,"Pinterest":null,"Youtube":null,"Blog":null,"Address":"156 Capitol Avenue Hartford, CT 06106","State":"Connecticut","City":"HARTFORD","Street":"156 CAPITOL AVE","Zip":"6106","Longitude":"-72.67916825041277","Latitude":"41.76194718358938","Dates":null,"Products":""},{"Type":"farmers market","ModifyDate":"Mar 20th, 2023","Image":"default-farmersmarket-4-3.jpg","ListingID":"309187","Name":"Hartford Park Street Farmers' Market","Description":null,"ContactName":null,"ContactEmail":"","ContactPhone":"860-653-6856","Website":"http:\/\/www.hartfordfarmersmarkets.org\/park-street\/","Facebook":"","Twitter":null,"Instagram":null,"Pinterest":null,"Youtube":null,"Blog":null,"Address":"Corner of Park St. & Washington St., Walgreen's parking lot, Hartford, CT, 06101","State":"Connecticut","City":"Hartford","Street":"Corner of Park St. & Washington St.","Zip":"6101","Longitude":"-72.6823499671567","Latitude":"41.757919980100326","Dates":null,"Products":""},{"Type":"farmers market","ModifyDate":"Mar 20th, 2023","Image":"default-farmersmarket-4-3.jpg","ListingID":"309188","Name":"Hartford Regional Market","Description":null,"ContactName":null,"ContactEmail":"","ContactPhone":"","Website":"http:\/\/www.ctgrown.gov","Facebook":"","Twitter":null,"Instagram":null,"Pinterest":null,"Youtube":null,"Blog":null,"Address":"101 Reserve Road, Exit 27, I-91 Hartford, CT 06114","State":"Connecticut","City":"HARTFORD","Street":"101 RESERVE RD","Zip":"6114","Longitude":"-72.65722933319432","Latitude":"41.75140338167101","Dates":null,"Products":""},{"Type":"farmers market","ModifyDate":"Mar 20th, 2023","Image":"default-farmersmarket-4-3.jpg","ListingID":"309189","Name":"Hartford\/Farmers Market at Billings Forge","Description":null,"ContactName":null,"ContactEmail":"","ContactPhone":"860-548-9877","Website":"","Facebook":"http:\/\/www.facebook.com\/billingsforgeworks","Twitter":null,"Instagram":null,"Pinterest":null,"Youtube":null,"Blog":null,"Address":"536 Broad Street Hartford , CT 06106 On the green, next to the Firebox Restaraunt","State":"Connecticut","City":"HARTFORD","Street":"536 BROAD ST","Zip":"6106","Longitude":"-72.68677595442041","Latitude":"41.76219589139261","Dates":null,"Products":""},{"Type":"farmers market","ModifyDate":"Mar 20th, 2023","Image":"default-farmersmarket-4-3.jpg","ListingID":"309190","Name":"Hartford's North End Farmers' Market","Description":null,"ContactName":null,"ContactEmail":"","ContactPhone":"860-296-9325","Website":"http:\/\/www.hartfordfarmersmarkets.org\/north-end\/","Facebook":"","Twitter":null,"Instagram":null,"Pinterest":null,"Youtube":null,"Blog":null,"Address":"80 Coventry St Hartford, CT 06112","State":"Connecticut","City":"HARTFORD","Street":"80 COVENTRY ST","Zip":"6112","Longitude":"-72.69004073656777","Latitude":"41.798003140668285","Dates":null,"Products":""},{"Type":"farmers market","ModifyDate":"Mar 20th, 2023","Image":"default-farmersmarket-4-3.jpg","ListingID":"309191","Name":"Hebron Farmers Market","Description":null,"ContactName":null,"ContactEmail":"","ContactPhone":"860-748-8187","Website":"http:\/\/www.hebronfarmersmarket.com\/","Facebook":"","Twitter":null,"Instagram":null,"Pinterest":null,"Youtube":null,"Blog":null,"Address":"1 Main St. Hebron , CT 06248","State":"Connecticut","City":"HEBRON","Street":"1 MAIN ST","Zip":"6248","Longitude":"-72.36611897263775","Latitude":"41.65807921372745","Dates":null,"Products":""},{"Type":"farmers market","ModifyDate":"Mar 20th, 2023","Image":"default-farmersmarket-4-3.jpg","ListingID":"309192","Name":"Higganum Village Farmers' Market","Description":null,"ContactName":null,"ContactEmail":"manager@higganumvillagemarket.org","ContactPhone":"","Website":"http:\/\/www.higganumvillagefarmersmarket.org","Facebook":"https:\/\/www.facebook.com\/pages\/Higganum-Village-Farmers-Market\/122034221171750","Twitter":null,"Instagram":null,"Pinterest":null,"Youtube":null,"Blog":null,"Address":"Rte. 154 and Candlewood Rd., Higganum Town Green, Higganum, CT, 06441","State":"Connecticut","City":"Higganum","Street":"Rte. 154 and Candlewood Rd.","Zip":"6441","Longitude":"-72.55911000657785","Latitude":"41.49679000093451","Dates":null,"Products":""},{"Type":"farmers market","ModifyDate":"Mar 20th, 2023","Image":"default-farmersmarket-4-3.jpg","ListingID":"309193","Name":"Hill Market Farmers' Market","Description":null,"ContactName":null,"ContactEmail":"info@cityseed.org","ContactPhone":"203-773-3736","Website":"http:\/\/cityseed.org\/the-hill-market","Facebook":"https:\/\/www.facebook.com\/cityseed","Twitter":null,"Instagram":null,"Pinterest":null,"Youtube":null,"Blog":null,"Address":"Corner of Park St. and South St., Connecticut Mental Health Center, New Haven, CT, 06510","State":"Connecticut","City":"New Haven","Street":"Corner of Park St. and South St.","Zip":"6510","Longitude":"-72.93663997805521","Latitude":"41.30468000718611","Dates":null,"Products":""},{"Type":"farmers market","ModifyDate":"Mar 20th, 2023","Image":"default-farmersmarket-4-3.jpg","ListingID":"309194","Name":"Hill-Stead Museum Farmers Market","Description":null,"ContactName":null,"ContactEmail":"","ContactPhone":"860-677-4787x110","Website":"http:\/\/www.hillstead.org","Facebook":"","Twitter":null,"Instagram":null,"Pinterest":null,"Youtube":null,"Blog":null,"Address":"35 Mountain Road Farmington, CT 06032","State":"Connecticut","City":"FARMINGTON","Street":"35 MOUNTAIN RD","Zip":"6032","Longitude":"-72.82473326859387","Latitude":"41.719656400442894","Dates":null,"Products":""},{"Type":"farmers market","ModifyDate":"Mar 20th, 2023","Image":"default-farmersmarket-4-3.jpg","ListingID":"309195","Name":"Homestead Avenue Farmers Market at the Ch...","Description":null,"ContactName":null,"ContactEmail":"","ContactPhone":"","Website":"http:\/\/www.hartfordfarmersmarkets.org\/homestead-ave\/","Facebook":"","Twitter":null,"Instagram":null,"Pinterest":null,"Youtube":null,"Blog":null,"Address":"255 Homestead Ave., at the Chrysalis Center, Hartford, CT, 06112","State":"Connecticut","City":"Hartford","Street":"255 Homestead Ave.","Zip":"6112","Longitude":"-72.69558995721378","Latitude":"41.77779803266125","Dates":null,"Products":""},{"Type":"farmers market","ModifyDate":"Mar 20th, 2023","Image":"default-farmersmarket-4-3.jpg","ListingID":"309196","Name":"Kent Farmers Market","Description":null,"ContactName":null,"ContactEmail":"http:\/\/instagram.com\/kentctchamber","ContactPhone":"860-592-0061","Website":"https:\/\/www.kentct.com\/kent-ct-farmers-market","Facebook":"https:\/\/www.facebook.com\/kentctchamberofcommerce\/","Twitter":null,"Instagram":null,"Pinterest":null,"Youtube":null,"Blog":null,"Address":"9 South Main Street (Route 7) just south of the traffic light, Kent, CT","State":"Connecticut","City":"Kent","Street":"9 South Main Street","Zip":"","Longitude":"-73.47761223532162","Latitude":"41.72385051100448","Dates":null,"Products":""},{"Type":"farmers market","ModifyDate":"Mar 20th, 2023","Image":"default-farmersmarket-4-3.jpg","ListingID":"309197","Name":"Larson's Farm Market","Description":null,"ContactName":null,"ContactEmail":"","ContactPhone":"860-350-2676","Website":"http:\/\/larsonsfarmmarket.com","Facebook":"","Twitter":null,"Instagram":null,"Pinterest":null,"Youtube":null,"Blog":null,"Address":"547 Danbury Rd New Milford, CT 06776","State":"Connecticut","City":"NEW MILFORD","Street":"547 DANBURY RD","Zip":"6776","Longitude":"-73.42014087438226","Latitude":"41.50869105948317","Dates":null,"Products":""},{"Type":"farmers market","ModifyDate":"Mar 20th, 2023","Image":"default-farmersmarket-4-3.jpg","ListingID":"309198","Name":"Ledyard Farmers' Market","Description":null,"ContactName":null,"ContactEmail":"info@ledyardfarmersmarket.org","ContactPhone":"860-464-4290","Website":"http:\/\/www.ledyardfarmersmarket.org\/","Facebook":"https:\/\/www.facebook.com\/LedyardFarmersMarket\/","Twitter":null,"Instagram":null,"Pinterest":null,"Youtube":null,"Blog":null,"Address":"722 Colonel Ledyard Hwy., Ledyard Fairgrounds, Ledyard, CT, 06339","State":"Connecticut","City":"Ledyard","Street":"722 Colonel Ledyard Hwy.","Zip":"6339","Longitude":"-72.01673238559934","Latitude":"41.44141399349101","Dates":null,"Products":""},{"Type":"farmers market","ModifyDate":"Mar 20th, 2023","Image":"default-farmersmarket-4-3.jpg","ListingID":"309199","Name":"Litchfield Hills Farm-Fresh Market","Description":null,"ContactName":null,"ContactEmail":"MMLHFFM@gmail.com","ContactPhone":"203-249-5088","Website":"http:\/\/litchfieldhillsfarmfresh-ct.org\/","Facebook":"https:\/\/www.facebook.com\/LHFFM\/","Twitter":null,"Instagram":null,"Pinterest":null,"Youtube":null,"Blog":null,"Address":"125 West St., Litchfield, CT, 06759","State":"Connecticut","City":"Litchfield","Street":"125 West St.","Zip":"6759","Longitude":"-73.19578987189","Latitude":"41.7465007213235","Dates":null,"Products":""},{"Type":"farmers market","ModifyDate":"Mar 20th, 2023","Image":"default-farmersmarket-4-3.jpg","ListingID":"309200","Name":"Litchfield Hills Year Round Farmers Market--2022","Description":null,"ContactName":null,"ContactEmail":"","ContactPhone":"860-567-8302","Website":"http:\/\/www.litchfieldfarmersmarket.org\/","Facebook":"https:\/\/www.facebook.com\/LHFFM\/?ref=br_rs","Twitter":null,"Instagram":null,"Pinterest":null,"Youtube":null,"Blog":null,"Address":"Litchfield Community Center, 421 Bantam Road\/Center School Parking Lot, Woodruff Lane, Litchfield, CT","State":"Connecticut","City":"Litchfield","Street":"421 Bantam Road\/Woodruff Lane","Zip":"","Longitude":"-73.21526399497654","Latitude":"41.739399997396106","Dates":null,"Products":""},{"Type":"farmers market","ModifyDate":"Mar 20th, 2023","Image":"default-farmersmarket-4-3.jpg","ListingID":"309201","Name":"Lyme Farmers Market","Description":null,"ContactName":null,"ContactEmail":"","ContactPhone":"860-434-4261","Website":"http:\/\/farmcoffee.com","Facebook":"","Twitter":null,"Instagram":null,"Pinterest":null,"Youtube":null,"Blog":null,"Address":"78 Bill Hill Rd (Ashlawn Farm) Lyme, CT 06371","State":"Connecticut","City":"OLD LYME","Street":"78 BILL HILL RD","Zip":"6371","Longitude":"-72.33472299907292","Latitude":"41.361875215834786","Dates":null,"Products":""},{"Type":"farmers market","ModifyDate":"Mar 20th, 2023","Image":"default-farmersmarket-4-3.jpg","ListingID":"309202","Name":"Manchester Community Farmer's Market","Description":null,"ContactName":null,"ContactEmail":"","ContactPhone":"860-512-2708","Website":"","Facebook":"","Twitter":null,"Instagram":null,"Pinterest":null,"Youtube":null,"Blog":null,"Address":"161 Hillstown Road Manchester, CT 06040","State":"Connecticut","City":"MANCHESTER","Street":"161 HILLSTOWN RD","Zip":"6040","Longitude":"-72.56888549933596","Latitude":"41.76238176833459","Dates":null,"Products":""},{"Type":"farmers market","ModifyDate":"Mar 20th, 2023","Image":"default-farmersmarket-4-3.jpg","ListingID":"309203","Name":"Meriden Farmers Market","Description":null,"ContactName":null,"ContactEmail":"","ContactPhone":"203-238-7784","Website":"http:\/\/meridenfarmersmarket.org","Facebook":"http:\/\/www.facebook.com\/MeridenFarmersMarket\/","Twitter":null,"Instagram":null,"Pinterest":null,"Youtube":null,"Blog":null,"Address":"46 Pratt St. Meriden, CT 06450 across from Fire House, at the foot of the bridge","State":"Connecticut","City":"MERIDEN","Street":"46 PRATT ST","Zip":"6450","Longitude":"-72.79872282283424","Latitude":"41.53840274355134","Dates":null,"Products":""},{"Type":"farmers market","ModifyDate":"Mar 20th, 2023","Image":"default-farmersmarket-4-3.jpg","ListingID":"309204","Name":"Middletown Farmers' Market","Description":null,"ContactName":null,"ContactEmail":"rgottafarm@aol.com","ContactPhone":"860-342-1844","Website":"","Facebook":"","Twitter":null,"Instagram":null,"Pinterest":null,"Youtube":null,"Blog":null,"Address":"South Green on Old Church St., Middletown, CT, 06457","State":"Connecticut","City":"Middletown","Street":"South Green on Old Church St.","Zip":"6457","Longitude":"-72.6483067783377","Latitude":"41.55680187103693","Dates":null,"Products":""},{"Type":"farmers market","ModifyDate":"Mar 20th, 2023","Image":"default-farmersmarket-4-3.jpg","ListingID":"309205","Name":"Milford Woodmont Farmers' Market at the Robert Treat Farm","Description":null,"ContactName":null,"ContactEmail":"","ContactPhone":"203-878-4270","Website":"http:\/\/www.roberttreatfarm.com","Facebook":"","Twitter":null,"Instagram":null,"Pinterest":null,"Youtube":null,"Blog":null,"Address":"1339 New Haven Avenue Milford, CT 06460","State":"Connecticut","City":"MILFORD","Street":"1339 NEW HAVEN AVE","Zip":"6460","Longitude":"-72.99653610799642","Latitude":"41.22863851636671","Dates":null,"Products":""},{"Type":"farmers market","ModifyDate":"Mar 20th, 2023","Image":"default-farmersmarket-4-3.jpg","ListingID":"309206","Name":"Monroe Farmers' Market","Description":null,"ContactName":null,"ContactEmail":"info@monroefarmersmarket.org","ContactPhone":"203-520-9449","Website":"http:\/\/www.monroefarmersmarket.org","Facebook":"https:\/\/www.facebook.com\/ctfarmersmarket","Twitter":null,"Instagram":null,"Pinterest":null,"Youtube":null,"Blog":null,"Address":"7 Fan Hill Rd., Monroe, CT, 06468","State":"Connecticut","City":"Monroe","Street":"7 Fan Hill Rd.","Zip":"6468","Longitude":"-73.20733978416135","Latitude":"41.33242464232493","Dates":null,"Products":""},{"Type":"farmers market","ModifyDate":"Mar 20th, 2023","Image":"default-farmersmarket-4-3.jpg","ListingID":"309207","Name":"Mystic-Denison Farmers' Market","Description":null,"ContactName":null,"ContactEmail":"","ContactPhone":"860-536-8377","Website":"","Facebook":"","Twitter":null,"Instagram":null,"Pinterest":null,"Youtube":null,"Blog":null,"Address":"120 Pequotsepos Rd., Mystic, CT, 06355","State":"Connecticut","City":"Mystic","Street":"120 Pequotsepos Rd.","Zip":"6355","Longitude":"-71.94909496372853","Latitude":"41.36182520228053","Dates":null,"Products":""},{"Type":"farmers market","ModifyDate":"Mar 20th, 2023","Image":"default-farmersmarket-4-3.jpg","ListingID":"309208","Name":"Naugatuck Farmers' Market","Description":null,"ContactName":null,"ContactEmail":"Email not found","ContactPhone":"203-723-8885","Website":"http:\/\/www.naugatuck-ct.gov\/controls\/NewsFeed.aspx?FeedID=122","Facebook":"","Twitter":null,"Instagram":null,"Pinterest":null,"Youtube":null,"Blog":null,"Address":"Corner of Church St. & Division St., Town Green, Naugatuck, CT, 06770","State":"Connecticut","City":"Naugatuck","Street":"Corner of Church St. & Division St.","Zip":"6770","Longitude":"-73.05522001956366","Latitude":"41.490889979289335","Dates":null,"Products":""},{"Type":"farmers market","ModifyDate":"Mar 20th, 2023","Image":"default-farmersmarket-4-3.jpg","ListingID":"309209","Name":"New Britain Farmers' Market","Description":null,"ContactName":null,"ContactEmail":"","ContactPhone":"","Website":"http:\/\/www.ct.gov\/doag","Facebook":"","Twitter":null,"Instagram":null,"Pinterest":null,"Youtube":null,"Blog":null,"Address":"109 North St., New Britain, CT, 06051","State":"Connecticut","City":"New Britain","Street":"109 North St.","Zip":"6051","Longitude":"-72.77838530440323","Latitude":"41.67369445781331","Dates":null,"Products":""},{"Type":"farmers market","ModifyDate":"Mar 20th, 2023","Image":"default-farmersmarket-4-3.jpg","ListingID":"309210","Name":"New Canaan Farmers Market","Description":null,"ContactName":null,"ContactEmail":"","ContactPhone":"","Website":"http:\/\/newcanaanfarmersmarket.net","Facebook":"http:\/\/www.facebook.com\/NewCanaanFarmersMarket","Twitter":null,"Instagram":null,"Pinterest":null,"Youtube":null,"Blog":null,"Address":"64 Maple Street New Canaan, CT 06840 The New Canaan Farmers market summer outdoor market starts April 27, 2019 through Mid-December. On the corner of Main Street\/Maple Street\/South Ave.","State":"Connecticut","City":"NEW CANAAN","Street":"64 MAPLE ST","Zip":"6840","Longitude":"-73.49359306847397","Latitude":"41.144576124084544","Dates":null,"Products":""},{"Type":"farmers market","ModifyDate":"Mar 20th, 2023","Image":"default-farmersmarket-4-3.jpg","ListingID":"309211","Name":"New Canaan Winter Market","Description":null,"ContactName":null,"ContactEmail":"lexi@newcanaanfarmersmarket.net","ContactPhone":"","Website":"http:\/\/newcanaanfarmersmarket.net\/","Facebook":"https:\/\/www.facebook.com\/NewCanaanFarmersMarket","Twitter":null,"Instagram":null,"Pinterest":null,"Youtube":null,"Blog":null,"Address":"144 Oenoke Ridge Rd., New Canaan, CT, 06840","State":"Connecticut","City":"New Canaan","Street":"144 Oenoke Ridge Rd.","Zip":"6840","Longitude":"-73.49969088517645","Latitude":"41.15403018368925","Dates":null,"Products":""},{"Type":"farmers market","ModifyDate":"Mar 20th, 2023","Image":"default-farmersmarket-4-3.jpg","ListingID":"309212","Name":"New Haven Farmers Market II","Description":null,"ContactName":null,"ContactEmail":"","ContactPhone":"","Website":"","Facebook":"","Twitter":null,"Instagram":null,"Pinterest":null,"Youtube":null,"Blog":null,"Address":"224 College Street New Haven, CT 06501","State":"Connecticut","City":"NEW HAVEN","Street":"224 COLLEGE ST","Zip":"6510","Longitude":"-72.92947846101048","Latitude":"41.30622098637156","Dates":null,"Products":""},{"Type":"farmers market","ModifyDate":"Mar 20th, 2023","Image":"default-farmersmarket-4-3.jpg","ListingID":"309213","Name":"New London Field of Greens L&M Market","Description":null,"ContactName":null,"ContactEmail":"","ContactPhone":"","Website":"","Facebook":"http:\/\/www.facebook.com\/pages\/New-London-Field-of-Greens-Markets\/191513097562304","Twitter":null,"Instagram":null,"Pinterest":null,"Youtube":null,"Blog":null,"Address":"365 Montauk Ave New London, CT 06320","State":"Connecticut","City":"NEW LONDON","Street":"365 MONTAUK AVE","Zip":"6320","Longitude":"-72.10358222438995","Latitude":"41.33700972147062","Dates":null,"Products":""},{"Type":"farmers market","ModifyDate":"Mar 20th, 2023","Image":"default-farmersmarket-4-3.jpg","ListingID":"309214","Name":"New London Field of Greens Markets","Description":null,"ContactName":null,"ContactEmail":"","ContactPhone":"860-439-0016","Website":"http:\/\/fog.newlondonfarmersmarket.com\/","Facebook":"https:\/\/www.facebook.com\/NewLondonFieldofGreens","Twitter":null,"Instagram":null,"Pinterest":null,"Youtube":null,"Blog":null,"Address":"1 Water St., New London, CT, 06354","State":"Connecticut","City":"New London","Street":"1 Water St.","Zip":"6354","Longitude":"-72.09644100713938","Latitude":"41.358096602113","Dates":null,"Products":""},{"Type":"farmers market","ModifyDate":"Mar 20th, 2023","Image":"default-farmersmarket-4-3.jpg","ListingID":"309215","Name":"New Milford Farmers' Market","Description":null,"ContactName":null,"ContactEmail":"riverbankfarmct@yahoo.com","ContactPhone":"","Website":"http:\/\/www.newmilfordfarmersmarket.com\/","Facebook":"https:\/\/www.facebook.com\/newmilfordctfarmersmarket","Twitter":null,"Instagram":null,"Pinterest":null,"Youtube":null,"Blog":null,"Address":"Main St., New Milford Town Green, New Milford, CT, 06260","State":"Connecticut","City":"New Milford","Street":"Main St.","Zip":"6260","Longitude":"-73.41153147175154","Latitude":"41.578668594748436","Dates":null,"Products":""},{"Type":"farmers market","ModifyDate":"Mar 20th, 2023","Image":"default-farmersmarket-4-3.jpg","ListingID":"309216","Name":"Newington Farmers' Market","Description":null,"ContactName":null,"ContactEmail":"","ContactPhone":"860-665-8500","Website":"","Facebook":"https:\/\/www.facebook.com\/Newington-Farmers-Market-170851466322258\/","Twitter":null,"Instagram":null,"Pinterest":null,"Youtube":null,"Blog":null,"Address":"Market Square, Newington, CT, 06111","State":"Connecticut","City":"Newington","Street":"Market Square","Zip":"6111","Longitude":"-72.72097098917816","Latitude":"41.69651857509472","Dates":null,"Products":""},{"Type":"farmers market","ModifyDate":"Mar 20th, 2023","Image":"default-farmersmarket-4-3.jpg","ListingID":"309217","Name":"Niantic Farmers' Market","Description":null,"ContactName":null,"ContactEmail":"nianticmainstreet@sbcglobal.net","ContactPhone":"860-739-2550","Website":"http:\/\/www.nianticfarmersmarket.com\/","Facebook":"https:\/\/www.facebook.com\/nianticfarmersmarket","Twitter":null,"Instagram":null,"Pinterest":null,"Youtube":null,"Blog":null,"Address":"Methodist St. and Main St., Niantic, CT, 06357","State":"Connecticut","City":"Niantic","Street":"Methodist St. and Main St.","Zip":"6357","Longitude":"-72.19482998000217","Latitude":"41.32304999573299","Dates":null,"Products":""},{"Type":"farmers market","ModifyDate":"Mar 20th, 2023","Image":"default-farmersmarket-4-3.jpg","ListingID":"309218","Name":"North End Farmers Market","Description":null,"ContactName":null,"ContactEmail":"","ContactPhone":"860-346-4845","Website":"http:\/\/www.northendfarmersmarket.org","Facebook":"","Twitter":null,"Instagram":null,"Pinterest":null,"Youtube":null,"Blog":null,"Address":"575 Main St. Middletown, CT 06457","State":"Connecticut","City":"MIDDLETOWN","Street":"575 MAIN ST","Zip":"6457","Longitude":"-72.6513886601969","Latitude":"41.56305393364268","Dates":null,"Products":""},{"Type":"farmers market","ModifyDate":"Mar 20th, 2023","Image":"default-farmersmarket-4-3.jpg","ListingID":"309219","Name":"Norwalk Farmers' Market","Description":null,"ContactName":null,"ContactEmail":"","ContactPhone":"","Website":"","Facebook":"","Twitter":null,"Instagram":null,"Pinterest":null,"Youtube":null,"Blog":null,"Address":"205 Main St., Norwalk, CT, 06066","State":"Connecticut","City":"Norwalk","Street":"205 Main St.","Zip":"6066","Longitude":"-73.42267026914541","Latitude":"41.12931760386605","Dates":null,"Products":""},{"Type":"farmers market","ModifyDate":"Mar 20th, 2023","Image":"default-farmersmarket-4-3.jpg","ListingID":"309220","Name":"Old Greenwich Farmers Market","Description":null,"ContactName":null,"ContactEmail":"","ContactPhone":"","Website":"http:\/\/www.oldgreenwichfarmersmarket.com","Facebook":"","Twitter":null,"Instagram":null,"Pinterest":null,"Youtube":null,"Blog":null,"Address":"38 West End Avenue Old Greenwich, CT 06870","State":"Connecticut","City":"OLD GREENWICH","Street":"38 W END AVE","Zip":"6870","Longitude":"-73.57106714148017","Latitude":"41.031502795295545","Dates":null,"Products":""},{"Type":"farmers market","ModifyDate":"Mar 20th, 2023","Image":"default-farmersmarket-4-3.jpg","ListingID":"309221","Name":"Old Saybrook Farmers' Market","Description":null,"ContactName":null,"ContactEmail":"","ContactPhone":"860-633-1067","Website":"http:\/\/oldsaybrookfarmersmarket.com","Facebook":"http:\/\/www.facebook.com\/osfarmmarket","Twitter":null,"Instagram":null,"Pinterest":null,"Youtube":null,"Blog":null,"Address":"210 MAIN STREET OLD SAYBROOK, CT 06475","State":"Connecticut","City":"OLD SAYBROOK","Street":"210 MAIN ST","Zip":"6475","Longitude":"-72.37612343751029","Latitude":"41.29115899583254","Dates":null,"Products":""},{"Type":"farmers market","ModifyDate":"Mar 20th, 2023","Image":"default-farmersmarket-4-3.jpg","ListingID":"309222","Name":"Old Saybrook Summer Farmers Market","Description":null,"ContactName":null,"ContactEmail":"info@oldsaybrookfarmersmarket.com","ContactPhone":"","Website":"https:\/\/oldsaybrookfarmersmarket.com\/","Facebook":"","Twitter":null,"Instagram":null,"Pinterest":null,"Youtube":null,"Blog":null,"Address":"210 Main Street Old, Saybrook, CT","State":"Connecticut","City":"Saybrook","Street":"210 Main Street","Zip":"","Longitude":"-72.3758739756308","Latitude":"41.29261698168358","Dates":null,"Products":""},{"Type":"farmers market","ModifyDate":"Mar 20th, 2023","Image":"default-farmersmarket-4-3.jpg","ListingID":"309223","Name":"Oxford Farmers Market","Description":null,"ContactName":null,"ContactEmail":"","ContactPhone":"","Website":"http:\/\/oxfordisafarm.net","Facebook":"http:\/\/www.facebook.com\/oxfordisafarm","Twitter":null,"Instagram":null,"Pinterest":null,"Youtube":null,"Blog":null,"Address":"486 Oxford Rd Oxford, CT 06478 Located in the front side parking lot at town hall, next to the fire department. Oxford and CT grown fruits, vegetables, eggs, and a few surprises!","State":"Connecticut","City":"OXFORD","Street":"486 Oxford Rd","Zip":"6478","Longitude":"-73.12315798513102","Latitude":"41.43902476698592","Dates":null,"Products":""},{"Type":"farmers market","ModifyDate":"Mar 20th, 2023","Image":"default-farmersmarket-4-3.jpg","ListingID":"309224","Name":"Plainfield Farmers Market","Description":null,"ContactName":null,"ContactEmail":"Mmolodich@Snet","ContactPhone":"860-564-1117","Website":"https:\/\/www.nectfarmersmarket.org\/","Facebook":"https:\/\/www.facebook.com\/nectfarmersmarket\/","Twitter":null,"Instagram":null,"Pinterest":null,"Youtube":null,"Blog":null,"Address":"Early Learning Center, 651 Norwich Road \/ Route 12, Plainfield, CT","State":"Connecticut","City":"Plainfield","Street":"651 Norwich Road","Zip":"","Longitude":"-71.91631400581278","Latitude":"41.67600301172399","Dates":null,"Products":""},{"Type":"farmers market","ModifyDate":"Mar 20th, 2023","Image":"default-farmersmarket-4-3.jpg","ListingID":"309225","Name":"Plainville Farmers' Market","Description":null,"ContactName":null,"ContactEmail":"FarmersMarketPLV@gmail.com","ContactPhone":"","Website":"","Facebook":"https:\/\/www.facebook.com\/FarmersMarketOfPlainville\/","Twitter":null,"Instagram":null,"Pinterest":null,"Youtube":null,"Blog":null,"Address":"47 Robert Holcomb Way, Plainville, CT, 06062","State":"Connecticut","City":"Plainville","Street":"47 Robert Holcomb Way","Zip":"6062","Longitude":"-72.86129291992526","Latitude":"41.66735395981079","Dates":null,"Products":""},{"Type":"farmers market","ModifyDate":"Mar 20th, 2023","Image":"default-farmersmarket-4-3.jpg","ListingID":"309226","Name":"Putnam Summer Farmers Market","Description":null,"ContactName":null,"ContactEmail":"putnamfarmersmarket@gmail.com","ContactPhone":"860-963-6834","Website":"http:\/\/www.putnamfarmersmarket.org\/","Facebook":"https:\/\/www.facebook.com\/profile.php?id=100071793786453","Twitter":null,"Instagram":null,"Pinterest":null,"Youtube":null,"Blog":null,"Address":"Riverview Marketplace, 18 Kennedy Drive, Putnam, CT","State":"Connecticut","City":"Putnam","Street":"18 Kennedy Drive","Zip":"","Longitude":"-71.9053359757668","Latitude":"41.90637299879751","Dates":null,"Products":""},{"Type":"farmers market","ModifyDate":"Mar 20th, 2023","Image":"default-farmersmarket-4-3.jpg","ListingID":"309227","Name":"Salem Farmers' Market","Description":null,"ContactName":null,"ContactEmail":"","ContactPhone":"","Website":"","Facebook":"","Twitter":null,"Instagram":null,"Pinterest":null,"Youtube":null,"Blog":null,"Address":"82 Norwich Rd (RT 82) Salem, CT 06420","State":"Connecticut","City":"COLCHESTER","Street":"82 NORWICH RD","Zip":"6420","Longitude":"-72.25842394832503","Latitude":"41.4815303818999","Dates":null,"Products":""},{"Type":"farmers market","ModifyDate":"Mar 20th, 2023","Image":"default-farmersmarket-4-3.jpg","ListingID":"309228","Name":"Seymour Farmers' Market","Description":null,"ContactName":null,"ContactEmail":"gazybrothersfarm@sbcglobal.net","ContactPhone":"203-723-8885","Website":"http:\/\/www.seymourfarmersmarket.net\/","Facebook":"https:\/\/www.facebook.com\/SeymourFarmersMarket?ref=ts&fref=ts","Twitter":null,"Instagram":null,"Pinterest":null,"Youtube":null,"Blog":null,"Address":"20 Pine St., Seymour Community Center, Seymour, CT, 06497","State":"Connecticut","City":"Seymour","Street":"20 Pine St.","Zip":"6497","Longitude":"-73.07537296464452","Latitude":"41.39111800649721","Dates":null,"Products":""},{"Type":"farmers market","ModifyDate":"Mar 20th, 2023","Image":"default-farmersmarket-4-3.jpg","ListingID":"309229","Name":"Shelton CT Farmers Market","Description":null,"ContactName":null,"ContactEmail":"","ContactPhone":"203-404-0489","Website":"http:\/\/sheltonctfarmersmarket.com","Facebook":"http:\/\/www.facebook.com\/SheltonFarmMkt","Twitter":null,"Instagram":null,"Pinterest":null,"Youtube":null,"Blog":null,"Address":"100 Canal St. Shelton, CT 06484 Public Parking lot next to farmers market building","State":"Connecticut","City":"SHELTON","Street":"100 CANAL ST W","Zip":"6484","Longitude":"-73.09296498658412","Latitude":"41.3178990819013","Dates":null,"Products":""},{"Type":"farmers market","ModifyDate":"Mar 20th, 2023","Image":"default-farmersmarket-4-3.jpg","ListingID":"309230","Name":"Simsbury Farmers Market","Description":null,"ContactName":null,"ContactEmail":"","ContactPhone":"","Website":"http:\/\/www.simsburyfarmmersmarket.com","Facebook":"","Twitter":null,"Instagram":null,"Pinterest":null,"Youtube":null,"Blog":null,"Address":"540 Hopmeadow Street Simsbury, CT 06070","State":"Connecticut","City":"SIMSBURY","Street":"540 HOPMEADOW ST","Zip":"6070","Longitude":"-72.80997178647556","Latitude":"41.86200664072559","Dates":null,"Products":""},{"Type":"farmers market","ModifyDate":"Mar 20th, 2023","Image":"default-farmersmarket-4-3.jpg","ListingID":"309231","Name":"Southbury Farmers' Market","Description":null,"ContactName":null,"ContactEmail":"","ContactPhone":"","Website":"http:\/\/www.southburyfarmersmarket.org","Facebook":"https:\/\/www.facebook.com\/Southbury-Farmers-Market-107453909313458\/","Twitter":null,"Instagram":null,"Pinterest":null,"Youtube":null,"Blog":null,"Address":"501 Main St. S., Southbury, CT, 06488","State":"Connecticut","City":"Southbury","Street":"501 Main St. S.","Zip":"6488","Longitude":"-73.225573730372","Latitude":"41.46951186011678","Dates":null,"Products":""},{"Type":"farmers market","ModifyDate":"Mar 20th, 2023","Image":"default-farmersmarket-4-3.jpg","ListingID":"309232","Name":"Southington Farmers Market","Description":null,"ContactName":null,"ContactEmail":"mgauger@snet.net","ContactPhone":"","Website":"http:\/\/nwctfarmersmarkets.com\/southington\/","Facebook":"","Twitter":null,"Instagram":null,"Pinterest":null,"Youtube":null,"Blog":null,"Address":"Main St., The Town Green, Southington, CT, 06479","State":"Connecticut","City":"Southington","Street":"Main St.","Zip":"6479","Longitude":"-72.87863199406634","Latitude":"41.594665741495945","Dates":null,"Products":""},{"Type":"farmers market","ModifyDate":"Mar 20th, 2023","Image":"default-farmersmarket-4-3.jpg","ListingID":"309233","Name":"Spruce Street Farmers Market","Description":null,"ContactName":null,"ContactEmail":"","ContactPhone":"","Website":"","Facebook":"https:\/\/www.facebook.com\/SpruceStreetMarketCT\/","Twitter":null,"Instagram":null,"Pinterest":null,"Youtube":null,"Blog":null,"Address":"153 Spruce Street, Manchester, CT","State":"Connecticut","City":"Manchester","Street":"153 Spruce Street","Zip":"","Longitude":"-72.51609092110102","Latitude":"41.77093562756583","Dates":null,"Products":""},{"Type":"farmers market","ModifyDate":"Mar 20th, 2023","Image":"default-farmersmarket-4-3.jpg","ListingID":"309234","Name":"Stamford Downtown Farmers' Market","Description":null,"ContactName":null,"ContactEmail":"","ContactPhone":"","Website":"http:\/\/stamford-downtown.com\/events\/farmers-market","Facebook":"","Twitter":null,"Instagram":null,"Pinterest":null,"Youtube":null,"Blog":null,"Address":"Bedford St. at Forest, Stamford, CT, 06084","State":"Connecticut","City":"Stamford","Street":"Bedford St. at Forest","Zip":"6084","Longitude":"-73.5381299599717","Latitude":"41.05718000841196","Dates":null,"Products":""},{"Type":"farmers market","ModifyDate":"Mar 20th, 2023","Image":"default-farmersmarket-4-3.jpg","ListingID":"309235","Name":"Stamford Museum & Nature Center - Friday Farm Market","Description":null,"ContactName":null,"ContactEmail":"","ContactPhone":"203-322-1646","Website":"http:\/\/stamfordmuseum.org","Facebook":"","Twitter":null,"Instagram":null,"Pinterest":null,"Youtube":null,"Blog":null,"Address":"39 Scofieldtown Road Stamford, CT 06903","State":"Connecticut","City":"STAMFORD","Street":"39 SCOFIELDTOWN RD","Zip":"6903","Longitude":"-73.54579687940593","Latitude":"41.123735803888394","Dates":null,"Products":""},{"Type":"farmers market","ModifyDate":"Mar 20th, 2023","Image":"default-farmersmarket-4-3.jpg","ListingID":"309236","Name":"Stratford Farmers Market","Description":null,"ContactName":null,"ContactEmail":"","ContactPhone":"203-268-2716","Website":"http:\/\/plaskosfarm.com","Facebook":"","Twitter":null,"Instagram":null,"Pinterest":null,"Youtube":null,"Blog":null,"Address":"2725 Main Street DeLuca Field Stratford, CT 06615","State":"Connecticut","City":"STRATFORD","Street":"2725 MAIN ST","Zip":"6615","Longitude":"-73.13190164046054","Latitude":"41.19724638204813","Dates":null,"Products":""},{"Type":"farmers market","ModifyDate":"Mar 20th, 2023","Image":"default-farmersmarket-4-3.jpg","ListingID":"309237","Name":"Suffield Farmers' Market","Description":null,"ContactName":null,"ContactEmail":"info@SuffieldFarmersMarket.com","ContactPhone":"860-668-3848","Website":"http:\/\/www.suffieldfarmersmarket.com\/","Facebook":"","Twitter":null,"Instagram":null,"Pinterest":null,"Youtube":null,"Blog":null,"Address":"N. Main St. and High St., Town Green, Suffield, CT, 06078","State":"Connecticut","City":"Suffield","Street":"N. Main St. and High St.","Zip":"6078","Longitude":"-72.64958996914774","Latitude":"41.98648002091164","Dates":null,"Products":""},{"Type":"farmers market","ModifyDate":"Mar 20th, 2023","Image":"default-farmersmarket-4-3.jpg","ListingID":"309238","Name":"The Morris Marketplace","Description":null,"ContactName":null,"ContactEmail":"erica@themorrismarket.org","ContactPhone":"860-567-9847","Website":"http:\/\/www.themorrismarket.org\/themorrismarketplace.org\/home.html","Facebook":"https:\/\/www.facebook.com\/The-Morris-Marketplace-342715585832817\/","Twitter":null,"Instagram":null,"Pinterest":null,"Youtube":null,"Blog":null,"Address":"21 Higbie Rd., Morris, CT, 06763","State":"Connecticut","City":"Morris","Street":"21 Higbie Rd.","Zip":"6763","Longitude":"-73.18417022816968","Latitude":"41.686010101819136","Dates":null,"Products":""},{"Type":"farmers market","ModifyDate":"Mar 20th, 2023","Image":"default-farmersmarket-4-3.jpg","ListingID":"309239","Name":"Thomaston Farmers' Market","Description":null,"ContactName":null,"ContactEmail":"","ContactPhone":"","Website":"http:\/\/nwctfarmersmarkets.com\/","Facebook":"","Twitter":null,"Instagram":null,"Pinterest":null,"Youtube":null,"Blog":null,"Address":"100 S. Main St., Seth Thomas Park, Thomaston, CT, 06105","State":"Connecticut","City":"Thomaston","Street":"100 S. Main St.","Zip":"6105","Longitude":"-73.07739400913817","Latitude":"41.67024699117533","Dates":null,"Products":""},{"Type":"farmers market","ModifyDate":"Mar 20th, 2023","Image":"default-farmersmarket-4-3.jpg","ListingID":"309240","Name":"Torrington Farmers' Market","Description":null,"ContactName":null,"ContactEmail":"","ContactPhone":"860-485-0815","Website":"http:\/\/nwctfarmersmarkets.com\/torrington\/","Facebook":"","Twitter":null,"Instagram":null,"Pinterest":null,"Youtube":null,"Blog":null,"Address":"1000 E. Main S., Sky Top Lanes parking lot, Torrington, CT, 06790","State":"Connecticut","City":"Torrington","Street":"1000 E. Main S.","Zip":"6790","Longitude":"-73.0988560451301","Latitude":"41.81344218630678","Dates":null,"Products":""},{"Type":"farmers market","ModifyDate":"Mar 20th, 2023","Image":"default-farmersmarket-4-3.jpg","ListingID":"309241","Name":"Trumbull Farmers' Market","Description":null,"ContactName":null,"ContactEmail":"","ContactPhone":"203-400-1147","Website":"http:\/\/www.niatrumbull.org\/farmers","Facebook":"","Twitter":null,"Instagram":null,"Pinterest":null,"Youtube":null,"Blog":null,"Address":"1773 Huntington Tpke., Nichols Improvement Association Green, Trumbull, CT, 06883","State":"Connecticut","City":"Trumbull","Street":"1773 Huntington Tpke.","Zip":"6883","Longitude":"-73.16189998511213","Latitude":"41.24103400244118","Dates":null,"Products":""},{"Type":"farmers market","ModifyDate":"Mar 20th, 2023","Image":"default-farmersmarket-4-3.jpg","ListingID":"309242","Name":"Upper State Street Farmers' Market","Description":null,"ContactName":null,"ContactEmail":"info@upperstatestreet.org","ContactPhone":"","Website":"","Facebook":"https:\/\/www.facebook.com\/upperstatestreet","Twitter":null,"Instagram":null,"Pinterest":null,"Youtube":null,"Blog":null,"Address":"1010 State St., New Haven, CT, 06511","State":"Connecticut","City":"New Haven","Street":"1010 State St.","Zip":"6511","Longitude":"-72.90931246602227","Latitude":"41.31592587727105","Dates":null,"Products":""},{"Type":"farmers market","ModifyDate":"Mar 20th, 2023","Image":"default-farmersmarket-4-3.jpg","ListingID":"309243","Name":"Village of Devon Farmer's Market","Description":null,"ContactName":null,"ContactEmail":"","ContactPhone":"","Website":"","Facebook":"http:\/\/www.facebook.com\/pages\/Village-of-Devon-Farmers-Market\/308864369173448","Twitter":null,"Instagram":null,"Pinterest":null,"Youtube":null,"Blog":null,"Address":"120 Bridgeport Ave (RT. 1) Milford, CT 06460","State":"Connecticut","City":"MILFORD","Street":"120 BRIDGEPORT AVE","Zip":"6460","Longitude":"-73.10430234507113","Latitude":"41.2012767915233","Dates":null,"Products":""},{"Type":"farmers market","ModifyDate":"Mar 20th, 2023","Image":"default-farmersmarket-4-3.jpg","ListingID":"309244","Name":"Wallingford Farmers' Market","Description":null,"ContactName":null,"ContactEmail":"Wallingford350@gmail.com","ContactPhone":"","Website":"http:\/\/www.wallingfordcenterinc.com\/","Facebook":"","Twitter":null,"Instagram":null,"Pinterest":null,"Youtube":null,"Blog":null,"Address":"Jct. Rte. 5 and Rte. 150, Railroad Station Green, Wallingford, CT, 06492","State":"Connecticut","City":"Wallingford","Street":"Jct. Rte. 5 and Rte. 150","Zip":"6492","Longitude":"-72.82349499999998","Latitude":"41.45392000000004","Dates":null,"Products":""},{"Type":"farmers market","ModifyDate":"Mar 20th, 2023","Image":"default-farmersmarket-4-3.jpg","ListingID":"309245","Name":"Waterford Farmers' Market","Description":null,"ContactName":null,"ContactEmail":"","ContactPhone":"","Website":"","Facebook":"https:\/\/www.facebook.com\/WaterfordFarmersMarket\/","Twitter":null,"Instagram":null,"Pinterest":null,"Youtube":null,"Blog":null,"Address":"15 Rope Ferry Rd., Waterford, CT, 06385","State":"Connecticut","City":"Waterford","Street":"15 Rope Ferry Rd.","Zip":"6385","Longitude":"-72.13536065352429","Latitude":"41.341527000183326","Dates":null,"Products":""},{"Type":"farmers market","ModifyDate":"Mar 20th, 2023","Image":"default-farmersmarket-4-3.jpg","ListingID":"309246","Name":"Watertown Farmers' Market","Description":null,"ContactName":null,"ContactEmail":"breen@watertownct.org","ContactPhone":"860-945-5246","Website":"","Facebook":"https:\/\/www.facebook.com\/pages\/Watertown-CT-Farmers-Market\/121176481302305","Twitter":null,"Instagram":null,"Pinterest":null,"Youtube":null,"Blog":null,"Address":"470 Main St., Watertown, CT, 06795","State":"Connecticut","City":"Watertown","Street":"470 Main St.","Zip":"6795","Longitude":"-73.1173594944568","Latitude":"41.60439780574959","Dates":null,"Products":""},{"Type":"farmers market","ModifyDate":"Mar 20th, 2023","Image":"default-farmersmarket-4-3.jpg","ListingID":"309247","Name":"West End Farmers' Market","Description":null,"ContactName":null,"ContactEmail":"manager@wefm.org","ContactPhone":"","Website":"http:\/\/www.wefm.org\/","Facebook":"https:\/\/www.facebook.com\/pages\/West-End-Farmers-Market-of-Hartford\/119899984759033","Twitter":null,"Instagram":null,"Pinterest":null,"Youtube":null,"Blog":null,"Address":"385 Farmington Ave., Clemens Green, Hartford, CT, 06105","State":"Connecticut","City":"Hartford","Street":"385 Farmington Ave","Zip":"6105","Longitude":"-72.70275528817238","Latitude":"41.76730419107546","Dates":null,"Products":""},{"Type":"farmers market","ModifyDate":"Mar 20th, 2023","Image":"default-farmersmarket-4-3.jpg","ListingID":"309248","Name":"West Hartford Farmers' Market","Description":null,"ContactName":null,"ContactEmail":"whfarmersmkt@sbcglobal.net","ContactPhone":"860-872-1941","Website":"https:\/\/www.westhartfordct.gov\/things_to_do\/gardens.asp","Facebook":"","Twitter":null,"Instagram":null,"Pinterest":null,"Youtube":null,"Blog":null,"Address":"102 LaSalle Rd., Arapahoe Rd. at and LaSalle Rd., West Hartford, CT, 06107","State":"Connecticut","City":"West Hartford","Street":"102 LaSalle Rd","Zip":"6107","Longitude":"-72.74396097880972","Latitude":"41.75903900608375","Dates":null,"Products":""},{"Type":"farmers market","ModifyDate":"Mar 20th, 2023","Image":"default-farmersmarket-4-3.jpg","ListingID":"309249","Name":"Westport Farmers Market","Description":null,"ContactName":null,"ContactEmail":"","ContactPhone":"","Website":"https:\/\/www.westportfarmersmarket.com\/","Facebook":"https:\/\/www.facebook.com\/westportfarmersmarket","Twitter":null,"Instagram":null,"Pinterest":null,"Youtube":null,"Blog":null,"Address":"50 Imperial Avenue, Westport, CT","State":"Connecticut","City":"Westport","Street":"50 Imperial Avenue","Zip":"","Longitude":"-73.35880696048685","Latitude":"41.1378277263946","Dates":null,"Products":""},{"Type":"farmers market","ModifyDate":"Mar 20th, 2023","Image":"default-farmersmarket-4-3.jpg","ListingID":"309250","Name":"Westport Summer Evening Market Series","Description":null,"ContactName":null,"ContactEmail":"","ContactPhone":"203-227-6858","Website":"http:\/\/www.wholefoodsmarket.com\/stores\/westport\/","Facebook":"","Twitter":null,"Instagram":null,"Pinterest":null,"Youtube":null,"Blog":null,"Address":"399 Post Rd. West Westport, CT 06880","State":"Connecticut","City":"WESTPORT","Street":"399 POST RD W","Zip":"6880","Longitude":"-73.37890970893734","Latitude":"41.12941119928588","Dates":null,"Products":""},{"Type":"farmers market","ModifyDate":"Mar 20th, 2023","Image":"default-farmersmarket-4-3.jpg","ListingID":"309251","Name":"Wethersfield Farmers' Market","Description":null,"ContactName":null,"ContactEmail":"info@wethersfieldfarmersmarket.com","ContactPhone":"860-578-8650","Website":"http:\/\/wfmarket.org\/","Facebook":"https:\/\/www.facebook.com\/WethersfieldFarmersMarket","Twitter":null,"Instagram":null,"Pinterest":null,"Youtube":null,"Blog":null,"Address":"220 Hartford Ave., Wethersfield, CT, 06109","State":"Connecticut","City":"Wethersfield","Street":"220 Hartford Ave.","Zip":"6109","Longitude":"-72.66061114549197","Latitude":"41.71941619124536","Dates":null,"Products":""},{"Type":"farmers market","ModifyDate":"Mar 20th, 2023","Image":"default-farmersmarket-4-3.jpg","ListingID":"309252","Name":"Whole Foods Market of Westport Winter Farmers' Market","Description":null,"ContactName":null,"ContactEmail":"","ContactPhone":"203-227-6858","Website":"http:\/\/www.wholefoodsmarket.com\/stores\/westport\/","Facebook":"","Twitter":null,"Instagram":null,"Pinterest":null,"Youtube":null,"Blog":null,"Address":"399 Post Rd. West Westport, CT 06880","State":"Connecticut","City":"WESTPORT","Street":"399 POST RD W","Zip":"6880","Longitude":"-73.37890970893734","Latitude":"41.12941119928588","Dates":null,"Products":""},{"Type":"farmers market","ModifyDate":"Mar 20th, 2023","Image":"default-farmersmarket-4-3.jpg","ListingID":"309253","Name":"Wilton Farmers Market","Description":null,"ContactName":null,"ContactEmail":"farmersmarket@wiltonchamber.com","ContactPhone":"203-762-0567","Website":"http:\/\/wiltonfarmersmarket.com\/","Facebook":"https:\/\/www.facebook.com\/pages\/Wilton-Farmers-Market\/114644171953420","Twitter":null,"Instagram":null,"Pinterest":null,"Youtube":null,"Blog":null,"Address":"224 Danbury Rd., Wilton, CT, 06897","State":"Connecticut","City":"Wilton","Street":"224 Danbury Rd.","Zip":"6897","Longitude":"-73.42499508596394","Latitude":"41.188003473532646","Dates":null,"Products":""},{"Type":"farmers market","ModifyDate":"Mar 20th, 2023","Image":"default-farmersmarket-4-3.jpg","ListingID":"309254","Name":"Winsted Farmers Market","Description":null,"ContactName":null,"ContactEmail":"","ContactPhone":"","Website":"http:\/\/www.winstedfarmersmarket.org","Facebook":"","Twitter":null,"Instagram":null,"Pinterest":null,"Youtube":null,"Blog":null,"Address":"1 Park Place Winsted, CT 06098","State":"Connecticut","City":"WINSTED","Street":"1 PARK PL W","Zip":"6098","Longitude":"-73.0604073831492","Latitude":"41.921284285851655","Dates":null,"Products":""},{"Type":"farmers market","ModifyDate":"Mar 20th, 2023","Image":"default-farmersmarket-4-3.jpg","ListingID":"309255","Name":"Winter Farmers Market Greenfield Hill Grange, Fairfield, CT","Description":null,"ContactName":null,"ContactEmail":"","ContactPhone":"203-913-5055","Website":"","Facebook":"http:\/\/www.facebook.com\/greenfieldhillgrangefarmersmaret?ref=br_tf","Twitter":null,"Instagram":null,"Pinterest":null,"Youtube":null,"Blog":null,"Address":"1873 Hillside Road Greenfield Grange Hall Fairfield, CT 06824","State":"Connecticut","City":"FAIRFIELD","Street":"1873 HILLSIDE RD","Zip":"6824","Longitude":"-73.29331809456833","Latitude":"41.18442242153827","Dates":null,"Products":""},{"Type":"farmers market","ModifyDate":"Mar 20th, 2023","Image":"default-farmersmarket-4-3.jpg","ListingID":"309256","Name":"Wooster Square Farmers' Market","Description":null,"ContactName":null,"ContactEmail":"info@cityseed.org","ContactPhone":"203-773-3736","Website":"http:\/\/cityseed.org\/wooster-square","Facebook":"https:\/\/www.facebook.com\/cityseed","Twitter":null,"Instagram":null,"Pinterest":null,"Youtube":null,"Blog":null,"Address":"Corner of Chapel St. and DePalma Ct., Russo Park, New Haven , CT, 06511","State":"Connecticut","City":"New Haven","Street":"Corner of Chapel St. and DePalma Ct.","Zip":"6511","Longitude":"-72.9179500103546","Latitude":"41.30379001670693","Dates":null,"Products":""},{"Type":"farmers market","ModifyDate":"Mar 20th, 2023","Image":"default-farmersmarket-4-3.jpg","ListingID":"309257","Name":"Wooster Square Summer Farmers Market","Description":null,"ContactName":null,"ContactEmail":"info@cityseed.org","ContactPhone":"","Website":"https:\/\/cityseed.org\/wooster-square-market\/","Facebook":"https:\/\/www.facebook.com\/cityseed","Twitter":null,"Instagram":null,"Pinterest":null,"Youtube":null,"Blog":null,"Address":"Conte West Middle School, 511 Chapel Street, New Haven, CT","State":"Connecticut","City":"New Haven","Street":"511 Chapel Street","Zip":"","Longitude":"-72.91558731742963","Latitude":"41.303758647877274","Dates":null,"Products":""},{"Type":"farmers market","ModifyDate":"Mar 30th, 2022","Image":"default-farmersmarket-4-3.jpg","ListingID":"300130","Name":"Danbury Farmers' Market","Description":null,"ContactName":"Peggy Zamore","ContactEmail":"peggyz18@gmail.com","ContactPhone":"203 792-1711","Website":"www.danburyfarmersmarket.org","Facebook":"danburyconnecticutfarmersmarket","Twitter":"danburyfarmersmarket","Instagram":null,"Pinterest":null,"Youtube":"dadnburyfarmerwmarket","Blog":null,"Address":"1 Patriot Drive, Danbury, Connecticut 06810, USA","State":"Connecticut","City":"Danbury","Street":"1 Patriot Drive","Zip":"06810","Longitude":"-73.4487846","Latitude":"41.3961518","Dates":"","Products":"Fresh fruits, Fresh vegetables, Baked goods, Bedding plants, Canned or preserved fruits\/vegetables, Coffee\/tea, Crafts\/woodworking items, Cut flowers, Dairy products., Dry beans, Eggs, Fresh\/dried herbs, Honey, Maple products, Mushrooms, Pet food, Prepared foods, Soap\/body care products"},{"Type":"farmers market","ModifyDate":"Sep 10th, 2020","Image":"default-farmersmarket-4-3.jpg","ListingID":"300222","Name":"Milford - Downtown Farmers Market","Description":null,"ContactName":"Greg Ferro and Tracy Bonosconi","ContactEmail":"info@downtownmilfordfarmersmarket.com","ContactPhone":"516-639-6889","Website":"www.downtowntownmilfordfarmersmarket.com","Facebook":"https:\/\/www.facebook.com\/Milfordmarket","Twitter":null,"Instagram":null,"Pinterest":null,"Youtube":null,"Blog":null,"Address":"108 West Main Street (Wasson Field), Milford, Connecticut 06460","State":"Connecticut","City":"Milford","Street":"108 West Main Street (Wasson Field)","Zip":"06460","Longitude":"-73.062096","Latitude":"41.226598","Dates":"June to October","Products":"Fresh fruits, Fresh vegetables, Baked goods, Bedding plants, Canned or preserved fruits\/vegetables, Coffee\/tea, Crafts\/woodworking items, Cut flowers, Eggs, Fresh\/dried herbs, Honey, Juices\/non-alcoholic ciders, Maple products, Mushrooms, Nursery stock, Poultry\/fowl meat and products, Prepared foods, Red\/other non-poultry meat and products, Soap\/body care products"},{"Type":"on-farm market","ModifyDate":"Aug 13th, 2014","Image":"default-onfarmmarket-4-3.jpg","ListingID":"700033","Name":"StandingStone Farm\/Flatland Alpacas","Description":null,"ContactName":"LoriA","ContactEmail":"info@standingstonefainters.com","ContactPhone":"860-376-4658","Website":"https:\/\/www.standingstonefarm.com","Facebook":"https:\/\/www.facebook.com\/StandingStoneFainters","Twitter":null,"Instagram":null,"Pinterest":null,"Youtube":null,"Blog":null,"Address":"285 Sam Chikan Rd, Griswold, Connecticut 06351","State":"Connecticut","City":"Griswold","Street":"285 Sam Chikan Rd","Zip":"06351","Longitude":"-71.941041","Latitude":"41.5576601","Dates":null,"Products":""},{"Type":"on-farm market","ModifyDate":"Aug 13th, 2014","Image":"default-onfarmmarket-4-3.jpg","ListingID":"700790","Name":"Old Fitch Farm Vineyard","Description":null,"ContactName":"Warren strong","ContactEmail":"fitchclaremont@yahoo.com","ContactPhone":"860 8890260","Website":"Http:\/\/fitchclaremonthouse.com","Facebook":null,"Twitter":null,"Instagram":null,"Pinterest":null,"Youtube":null,"Blog":null,"Address":"83 Fitchville Road, Bozrah, Connecticut 06334","State":"Connecticut","City":"Bozrah","Street":"83 Fitchville Road","Zip":"06334","Longitude":"-72.138952","Latitude":"41.563339","Dates":null,"Products":""},{"Type":"on-farm market","ModifyDate":"Aug 15th, 2014","Image":"default-onfarmmarket-4-3.jpg","ListingID":"700598","Name":"Pell Farm","Description":null,"ContactName":"Tracy","ContactEmail":"Pellfarms@gmail.com","ContactPhone":"860-763-1643","Website":"www.pell-farms.com","Facebook":"https:\/\/www.facebook.com\/pages\/Pell-Farm\/1448216858744306","Twitter":"https:\/\/twitter.com\/PellFarm","Instagram":null,"Pinterest":null,"Youtube":null,"Blog":null,"Address":"96 Kibbe Grove Road, Somers , Connecticut 06071","State":"Connecticut","City":"Somers","Street":"96 Kibbe Grove Road","Zip":"06071","Longitude":"-72.459035","Latitude":"42.0281882","Dates":null,"Products":""},{"Type":"on-farm market","ModifyDate":"Aug 1st, 2014","Image":"default-onfarmmarket-4-3.jpg","ListingID":"700721","Name":"Walnut Ledge Farm, LLC","Description":null,"ContactName":"Joanna Kamis","ContactEmail":"info@walnutledgefarm.com","ContactPhone":"860-633-2286","Website":"www.walnutledgefarm.com","Facebook":"https:\/\/www.facebook.com\/pages\/Walnut-Ledge-Farm\/421246841298079","Twitter":null,"Instagram":null,"Pinterest":null,"Youtube":null,"Blog":null,"Address":"360 Matson Hill Road, South Glastonbury, Connecticut 06073","State":"Connecticut","City":"South Glastonbury","Street":"360 Matson Hill Road","Zip":"06073","Longitude":"-72.583278","Latitude":"41.6535280","Dates":null,"Products":""},{"Type":"on-farm market","ModifyDate":"Aug 26th, 2014","Image":"default-onfarmmarket-4-3.jpg","ListingID":"700332","Name":"Averill Farm","Description":null,"ContactName":"Susan Averill","ContactEmail":"info@averillfarm.com","ContactPhone":"860-868-2777","Website":"Www.averillfarm.com","Facebook":"https:\/\/www.facebook.com\/pages\/Averill-Farm\/159088404122324?ref=ts","Twitter":null,"Instagram":null,"Pinterest":null,"Youtube":null,"Blog":"N\/a","Address":"250 Calhoun St, Washington Depot, Connecticut 6794","State":"Connecticut","City":"Washington Depot","Street":"250 Calhoun St","Zip":"6794","Longitude":"-73.342029","Latitude":"41.664274","Dates":null,"Products":""},{"Type":"on-farm market","ModifyDate":"Aug 4th, 2014","Image":"default-onfarmmarket-4-3.jpg","ListingID":"700719","Name":"Buell's Orchard","Description":null,"ContactName":"Patty Sandness","ContactEmail":"information@buellsorchard.com","ContactPhone":"(860) 974-1150","Website":"www.buellsorchard.com","Facebook":"www.facebook.com\/pages\/Buells-Orchard\/132499357322","Twitter":"https:\/\/twitter.com\/BuellsOrchard","Instagram":null,"Pinterest":null,"Youtube":null,"Blog":null,"Address":"108 Crystal Pond Road, Eastford, Connecticut 06242","State":"Connecticut","City":"Eastford","Street":"108 Crystal Pond Road","Zip":"06242","Longitude":"-72.104312","Latitude":"41.917985","Dates":null,"Products":""},{"Type":"on-farm market","ModifyDate":"Dec 4th, 2014","Image":"default-onfarmmarket-4-3.jpg","ListingID":"701178","Name":"Pakulis Farm LLC","Description":null,"ContactName":"Sandra F Brodeur","ContactEmail":"sandy.brodeur@gmail.com","ContactPhone":"860-450-6744","Website":null,"Facebook":"https:\/\/www.facebook.com\/pakulis.farm","Twitter":null,"Instagram":null,"Pinterest":null,"Youtube":null,"Blog":null,"Address":"63 Creamery Brook Road, Brooklyn, Connecticut 06234","State":"Connecticut","City":"Brooklyn","Street":"63 Creamery Brook Road","Zip":"06234","Longitude":"-71.934901","Latitude":"41.772394","Dates":null,"Products":""},{"Type":"on-farm market","ModifyDate":"Jan 5th, 2015","Image":"default-onfarmmarket-4-3.jpg","ListingID":"701187","Name":"Blue Hills Orchard","Description":null,"ContactName":"Eric Henry","ContactEmail":"eric@bluehillsorchard.com","ContactPhone":"2032693189","Website":"bluehillsorchard.com","Facebook":"Blue Hills Orchard","Twitter":null,"Instagram":null,"Pinterest":null,"Youtube":null,"Blog":null,"Address":"141Blue Hills Rd., Wallingford, Connecticut 06492","State":"Connecticut","City":"Wallingford","Street":"141Blue Hills Rd.","Zip":"06492","Longitude":"-72.866826","Latitude":"41.4486597","Dates":null,"Products":""},{"Type":"on-farm market","ModifyDate":"Jul 20th, 2016","Image":"default-onfarmmarket-4-3.jpg","ListingID":"701362","Name":"White Stone Acres","Description":null,"ContactName":"Gina White","ContactEmail":"whitestoneacres@hotmail.com","ContactPhone":"8607104616","Website":"www.whitestoneacres.com","Facebook":"www.facebook.com\/whitestoneacres","Twitter":null,"Instagram":null,"Pinterest":null,"Youtube":null,"Blog":null,"Address":"113 South Rd, Winchester Center, Connecticut 06098","State":"Connecticut","City":"Winchester Center","Street":"113 South Rd","Zip":"06098","Longitude":"-73.131064","Latitude":"41.896949","Dates":null,"Products":""},{"Type":"on-farm market","ModifyDate":"Jul 26th, 2014","Image":"default-onfarmmarket-4-3.jpg","ListingID":"700253","Name":"Sepe Farm LLC","Description":null,"ContactName":"Peter Sepe","ContactEmail":"pasepe@juno.com","ContactPhone":"203-270-9507","Website":"www.sepefarm.com","Facebook":"https:\/\/www.facebook.com\/SepeFarm","Twitter":null,"Instagram":null,"Pinterest":null,"Youtube":null,"Blog":null,"Address":"83 Toddy Hill Road, Sandy Hook, Connecticut 06482","State":"Connecticut","City":"Sandy Hook","Street":"83 Toddy Hill Road","Zip":"06482","Longitude":"-73.258523","Latitude":"41.391519","Dates":null,"Products":""},{"Type":"on-farm market","ModifyDate":"Jul 26th, 2014","Image":"default-onfarmmarket-4-3.jpg","ListingID":"700475","Name":"Starberry Farm","Description":null,"ContactName":"Bob and Sally Futh","ContactEmail":"Starberry@snet.net","ContactPhone":"(860) 868-2863  Fax:","Website":null,"Facebook":null,"Twitter":null,"Instagram":null,"Pinterest":null,"Youtube":null,"Blog":null,"Address":"47 & 81 Kielwasser Road, Washington Depot, Connecticut 06794","State":"Connecticut","City":"Washington Depot","Street":"47 & 81 Kielwasser Road","Zip":"06794","Longitude":"-73.335148","Latitude":"41.664623","Dates":null,"Products":""},{"Type":"on-farm market","ModifyDate":"Jul 27th, 2014","Image":"default-onfarmmarket-4-3.jpg","ListingID":"700008","Name":"Whippoorwill Farm","Description":null,"ContactName":"Allen and Robin Cockerline","ContactEmail":"info@whippoorwillfarmct.com","ContactPhone":"860-435-2089","Website":"WhippoorwillFarmCT.com","Facebook":"https:\/\/www.facebook.com\/WhippoorwillFarm","Twitter":null,"Instagram":null,"Pinterest":null,"Youtube":null,"Blog":null,"Address":"189 Salmon Kill Rd, Salisbury, Connecticut 06039","State":"Connecticut","City":"Salisbury","Street":"189 Salmon Kill Rd","Zip":"06039","Longitude":"-73.401747","Latitude":"41.964324","Dates":null,"Products":""},{"Type":"on-farm market","ModifyDate":"Jul 27th, 2014","Image":"default-onfarmmarket-4-3.jpg","ListingID":"700780","Name":"Lost Acres Orchard","Description":null,"ContactName":null,"ContactEmail":"ginny@lostacres.com","ContactPhone":"(860) 653-6600","Website":"www.lostacres.com","Facebook":null,"Twitter":null,"Instagram":null,"Pinterest":null,"Youtube":null,"Blog":null,"Address":"130 Lost Acres Road, North Granby, Connecticut 6060","State":"Connecticut","City":"North Granby","Street":"130 Lost Acres Road","Zip":"6060","Longitude":"-72.861531","Latitude":"42.0095720","Dates":null,"Products":""},{"Type":"on-farm market","ModifyDate":"Jul 28th, 2014","Image":"default-onfarmmarket-4-3.jpg","ListingID":"700522","Name":"Cheney Family Farm","Description":null,"ContactName":"Cheney Family Farm","ContactEmail":"cheneyfamilyfarm@gmail.com","ContactPhone":"860-866-8355","Website":"www.cheneyfamilyfarm.com","Facebook":"https:\/\/www.facebook.com\/CheneyFamilyFarm?ref_type=bookmark","Twitter":null,"Instagram":null,"Pinterest":null,"Youtube":null,"Blog":null,"Address":"144 Mansfield Rd, Harwinton, Connecticut 06791","State":"Connecticut","City":"Harwinton","Street":"144 Mansfield Rd","Zip":"06791","Longitude":"-73.100964","Latitude":"41.745224","Dates":null,"Products":""},{"Type":"on-farm market","ModifyDate":"Jul 30th, 2014","Image":"default-onfarmmarket-4-3.jpg","ListingID":"700225","Name":"Staehly Farms","Description":null,"ContactName":"Christopher Staehly","ContactEmail":"staehlys@att.net","ContactPhone":"860-873-9774","Website":"http:\/\/www.staehlys.com\/","Facebook":"https:\/\/www.facebook.com\/Staehlys","Twitter":null,"Instagram":null,"Pinterest":null,"Youtube":null,"Blog":null,"Address":"278 Town Street, East Haddam, Connecticut 6423","State":"Connecticut","City":"East Haddam","Street":"278 Town Street","Zip":"6423","Longitude":"-72.432965","Latitude":"41.453149","Dates":null,"Products":""},{"Type":"on-farm market","ModifyDate":"Jul 6th, 2016","Image":"default-onfarmmarket-4-3.jpg","ListingID":"700687","Name":"The Village Farm","Description":null,"ContactName":"Lise goedewaagen","ContactEmail":"LGoed@aol.com","ContactPhone":"860 354-7008","Website":null,"Facebook":"The  Village Farm and World\\'s Best Wreaths","Twitter":null,"Instagram":null,"Pinterest":null,"Youtube":null,"Blog":null,"Address":"682 Kent Rd., Gaylordsville, Connecticut 06755","State":"Connecticut","City":"Gaylordsville","Street":"682 Kent Rd.","Zip":"06755","Longitude":"-73.483988","Latitude":"41.643795","Dates":null,"Products":""},{"Type":"on-farm market","ModifyDate":"Jun 10th, 2016","Image":"default-onfarmmarket-4-3.jpg","ListingID":"700727","Name":"Raspberry Knoll Farm LLC","Description":null,"ContactName":"Mary Concklin","ContactEmail":"mary@raspberryknoll.com","ContactPhone":"860-786-7486","Website":"www.raspberryknoll.com","Facebook":"www\/facebook.com\/raspberryknoll","Twitter":null,"Instagram":null,"Pinterest":null,"Youtube":null,"Blog":null,"Address":"163 North Windham Rd, North Windham, Connecticut 06256","State":"Connecticut","City":"North Windham","Street":"163 North Windham Rd","Zip":"06256","Longitude":"-72.166800","Latitude":"41.721441","Dates":null,"Products":""},{"Type":"on-farm market","ModifyDate":"Mar 23rd, 2015","Image":"default-onfarmmarket-4-3.jpg","ListingID":"700286","Name":"Laurel Ridge Grass Fed Beef","Description":null,"ContactName":"John Morosani","ContactEmail":"john@lrgfb.com","ContactPhone":"860-567-8122","Website":"www.lrgfb.com","Facebook":null,"Twitter":null,"Instagram":null,"Pinterest":null,"Youtube":null,"Blog":null,"Address":"66 Wigwam Road, Litchfield, Connecticut 6759","State":"Connecticut","City":"Litchfield","Street":"66 Wigwam Road","Zip":"6759","Longitude":"-73.134770","Latitude":"41.703911","Dates":null,"Products":""},{"Type":"on-farm market","ModifyDate":"Mar 24th, 2015","Image":"default-onfarmmarket-4-3.jpg","ListingID":"700584","Name":"Bishops Orchards location 1","Description":null,"ContactName":null,"ContactEmail":"pyoinfo@bishopsorchards.com","ContactPhone":"(203) 458-7425","Website":"www.bishopsorchards.com","Facebook":null,"Twitter":null,"Instagram":null,"Pinterest":null,"Youtube":null,"Blog":null,"Address":"1355 Boston Post Road, Guilford, Connecticut 06437","State":"Connecticut","City":"Guilford","Street":"1355 Boston Post Road","Zip":"06437","Longitude":"-72.694628","Latitude":"41.289406","Dates":null,"Products":""},{"Type":"on-farm market","ModifyDate":"Mar 30th, 2022","Image":"csa_200704_10242_20220330133407.png","ListingID":"701652","Name":"Howling Flats Farm","Description":"Howling Flats Farm is a small family farm in the NW Corner of Connecticut raising Certified Humane Grass fed Angus, pasture raised pork and lamb utilizing holistic management practices.","ContactName":"Kelley Babbin","ContactEmail":"howlingflatsfarm@gmail.com","ContactPhone":"860-379-8961","Website":"www.howlingflatsfarm.com","Facebook":"www.facebook.com\/howlingflatsfarm","Twitter":"","Instagram":"https:\/\/www.instagram.com\/howlingflatsfarmer\/","Pinterest":"","Youtube":"","Blog":"","Address":"19 Raymond Avenue, North Canaan, Connecticut 06018","State":"Connecticut","City":"North Canaan","Street":"19 Raymond Ave","Zip":"06018","Longitude":"-73.3552462","Latitude":"42.0103946","Dates":"Year-round","Products":"Poultry\/fowl meat and products"},{"Type":"on-farm market","ModifyDate":"Nov 30th, 2016","Image":"default-onfarmmarket-4-3.jpg","ListingID":"701375","Name":"Rose Orchards","Description":null,"ContactName":"Tyler Rose","ContactEmail":"roseorchardsfarm.com","ContactPhone":"203-488-7996","Website":"roseorchardsfarm.com","Facebook":"https:\/\/www.facebook.com\/roseorchardsfarm\/","Twitter":null,"Instagram":null,"Pinterest":null,"Youtube":null,"Blog":null,"Address":"33 Branford rd., North Branford, Connecticut 06471","State":"Connecticut","City":"North Branford","Street":"33 Branford rd.","Zip":"06471","Longitude":"-72.771086","Latitude":"41.3078192","Dates":null,"Products":""},{"Type":"on-farm market","ModifyDate":"Oct 15th, 2014","Image":"default-onfarmmarket-4-3.jpg","ListingID":"700157","Name":"Common Ground CSA","Description":null,"ContactName":"Jessica & Jeffrey","ContactEmail":"commongroundcsa@gmail.com","ContactPhone":"860-316-8368","Website":"www.commongroundcsa.com","Facebook":"https:\/\/www.facebook.com\/commongroundcsa","Twitter":null,"Instagram":null,"Pinterest":null,"Youtube":null,"Blog":null,"Address":"46 Lake Hayward Town Road, Colchester, Connecticut 06415","State":"Connecticut","City":"Colchester","Street":"46 Lake Hayward Town Road","Zip":"06415","Longitude":"-72.337980","Latitude":"41.519525","Dates":null,"Products":""},{"Type":"on-farm market","ModifyDate":"Oct 15th, 2014","Image":"default-onfarmmarket-4-3.jpg","ListingID":"701138","Name":"COLD SPRING FARM at Lake Hayward","Description":null,"ContactName":"Jessica & Jeffrey","ContactEmail":"coldspringfarm@icloud.com","ContactPhone":"860-316-8368","Website":null,"Facebook":null,"Twitter":null,"Instagram":null,"Pinterest":null,"Youtube":null,"Blog":null,"Address":", East Haddam, Connecticut 06423","State":"Connecticut","City":"East Haddam","Street":null,"Zip":"06423","Longitude":"-72.475776","Latitude":"41.5034351","Dates":null,"Products":""},{"Type":"on-farm market","ModifyDate":"Sep 14th, 2014","Image":"default-onfarmmarket-4-3.jpg","ListingID":"700494","Name":"Devon Point Farm","Description":null,"ContactName":"Patty Taylor","ContactEmail":"devonpointfarm@gmail.com","ContactPhone":"860-974-9004","Website":"http:\/\/www.devonpointfarm.com","Facebook":null,"Twitter":null,"Instagram":null,"Pinterest":null,"Youtube":null,"Blog":null,"Address":"54 Joy Road, Woodstock, Connecticut 6281","State":"Connecticut","City":"Woodstock","Street":"54 Joy Road","Zip":"6281","Longitude":"-71.986364","Latitude":"41.955761","Dates":null,"Products":""},{"Type":"on-farm market","ModifyDate":"Sep 16th, 2014","Image":"default-onfarmmarket-4-3.jpg","ListingID":"700683","Name":"Oak Haven Farm","Description":null,"ContactName":"ROBERT BRAUTIGAM","ContactEmail":"lmsmith@snet.net","ContactPhone":"(860) 456-3333","Website":"lmsmith@snet.net","Facebook":null,"Twitter":null,"Instagram":null,"Pinterest":null,"Youtube":null,"Blog":null,"Address":"113 Khourie Road, Scotland, Connecticut 06264","State":"Connecticut","City":"Scotland","Street":"113 Khourie Road","Zip":"06264","Longitude":"-72.077528","Latitude":"41.684190","Dates":null,"Products":""},{"Type":"on-farm market","ModifyDate":"Sep 23rd, 2014","Image":"default-onfarmmarket-4-3.jpg","ListingID":"701092","Name":"Holbrook Farm Market and Bakery","Description":null,"ContactName":"Jessica Wong","ContactEmail":"jwong1817@gmail.com","ContactPhone":"203-979-1817","Website":"http:\/\/holbrookfarm.net\/index.html","Facebook":"https:\/\/www.facebook.com\/pages\/Holbrook-Farm\/201052823263981?ref=br_tf","Twitter":null,"Instagram":null,"Pinterest":null,"Youtube":null,"Blog":null,"Address":"45 Turkey Plain RD, Bethel, Connecticut 06801","State":"Connecticut","City":"Bethel","Street":"45 Turkey Plain RD","Zip":"06801","Longitude":"-73.416749","Latitude":"41.3462840","Dates":null,"Products":""},{"Type":"on-farm market","ModifyDate":"Sep 27th, 2014","Image":"default-onfarmmarket-4-3.jpg","ListingID":"701103","Name":"Mike's Beehives LLC","Description":null,"ContactName":"Mike\\'s Beehives LLC","ContactEmail":"mikesbeehives@gmail.com","ContactPhone":"2036482942","Website":"www.mikesbeehives.com","Facebook":"Mike\\'s Beehives LLC","Twitter":"Mike\\'s  Beehives","Instagram":null,"Pinterest":null,"Youtube":null,"Blog":"www.mikesbeehives.com","Address":"94 Mallory Rd, Roxbury, Connecticut 06783","State":"Connecticut","City":"Roxbury","Street":"94 Mallory Rd","Zip":"06783","Longitude":"-73.291478","Latitude":"41.516591","Dates":null,"Products":""},{"Type":"on-farm market","ModifyDate":"Sep 30th, 2014","Image":"default-onfarmmarket-4-3.jpg","ListingID":"700222","Name":"Stone Bridge Farm Alpacas","Description":null,"ContactName":"Denise Curran","ContactEmail":"stonebridgealpacas@ct.metrocast.net","ContactPhone":"860-376-5027","Website":"http:\/\/www.stonebridgealpacas.com\/","Facebook":"https:\/\/www.facebook.com\/stonebridgealpacas","Twitter":null,"Instagram":null,"Pinterest":null,"Youtube":null,"Blog":null,"Address":"116 Crary Rd., Griswold, Connecticut 06351","State":"Connecticut","City":"Griswold","Street":"116 Crary Rd.","Zip":"06351","Longitude":"-71.950160","Latitude":"41.568413","Dates":null,"Products":""}]