[{"type":"farm","street":"3390 John Adams Road","city":"Willow Spring","state":"NC","zip":"27592","longitude":"-78.676316","latitude":"35.583117","name":"Adams Vineyards","website":"marketing@adamsvineyards.com","facebook":"https://www.facebook.com/pages/Adams-Vineyard-And-Winery/157209567677328","twitter":"","tags":"canned preserved fresh-fruits wine spirits beer hard-cider"},{"type":"farm","street":"640 Mariposa Road","city":"Stanley","state":"NC","zip":"28164","longitude":"-81.0885170","latitude":"35.3848569","name":"Apple Orchard Farm","website":"appleorchardfarmnc.com","facebook":"","twitter":"","tags":"eggs honey red-meat non-poultry-meat"},{"type":"farm","street":"6709 Liberty Road","city":"Julian","state":"NC","zip":"27283","longitude":"-79.6526990","latitude":"35.9050400","name":"Barn Door Nursery and Produce","website":"","facebook":"Barn Door Nursery and Produce","twitter":"","tags":"bedding plants herbs fresh-fruits fresh-vegetables honey nursery-stock wild-harvested forest-products"},{"type":"farm","street":"6126 Jonquil Drive","city":"Greensboro","state":"NC","zip":"27407","longitude":"-79.880202","latitude":"35.958562","name":"Bernies Berries and Produce","website":"Bernies Berries. com","facebook":"https://www.facebook.com/pages/Bernies-Berries/102612806495165","twitter":"","tags":"fresh-fruits fresh-vegetables honey"},{"type":"farm","street":"8796 Cottonville Road","city":"Norwood","state":"NC","zip":"28128","longitude":"-80.1803630","latitude":"35.2200460","name":"Berry Busy Farm LLC","website":"","facebook":"","twitter":"","tags":"canned preserved fresh-fruits fresh-vegetables honey"},{"type":"farm","street":"6691 Little Mountain Road","city":"Sherrills Ford","state":"NC","zip":"28673","longitude":"-81.030019","latitude":"35.595735","name":"BirdBrain Ostrich Ranch Inc.","website":"www.birdbrainranch.com","facebook":"","twitter":"","tags":"crafts woodworking eggs poultry fowl red-meat non-poultry-meat soap body-care"},{"type":"farm","street":"6938 Eaglesfield Rd","city":"Gibconville","state":"NC","zip":"27249","longitude":"-79.578009","latitude":"36.140093","name":"Blueberry Thrill Farm","website":"www.blueberrythrillfarm.com ","facebook":"https://www.facebook.com/pages/Blueberry-Thrill-Farm/553052434714755","twitter":"","tags":"cut-flowers"},{"type":"farm","street":"3241 Buffalo Creek Farm Road","city":"Germanton","state":"NC","zip":"27019","longitude":"-80.237223","latitude":"36.256532","name":"Buffalo Creek Farm and Creamery, LLC","website":"http://www.buffalocreekfarmandcreamery.com","facebook":"https://www.facebook.com/BuffaloCreekFarmAndCreameryLLC","twitter":"https://twitter.com/bcfarmcreamery","tags":"canned preserved crafts woodworking dairy products eggs herbs honey juices ciders mushrooms nuts red-meat non-poultry-meat soap body-care"},{"type":"farm","street":"1092 Dewitt Smith Rd.","city":"Pittsboro ","state":"NC","zip":"27312","longitude":"-79.276152","latitude":"35.654036","name":"Busy Bee Farm","website":"chathamcountybeeman@yahoo.com","facebook":"BUSY BEE FARM Pittsboro nc","twitter":"","tags":"fresh-vegetables honey"},{"type":"farm","street":"1905 Gwyn Road","city":"Burlington","state":"NC","zip":"27217","longitude":"-79.4616800","latitude":"36.2079770","name":"Buttermilk Creek Farm","website":"www.buttermilkcreek.net","facebook":"https://www.facebook.com/pages/Buttermilk-Creek-Farm/116714891672770","twitter":"","tags":"fresh-fruits"},{"type":"farm","street":"6909 Efland-Cedar Grove Rd","city":"cedar Grove","state":"NC","zip":"","longitude":"-79.1657420","latitude":"36.1987310","name":"Captain John's Lamb LLC","website":"http://www.dorperscedargrovenc.com/","facebook":"https://www.facebook.com/CaptainJohnSPopesFarm","twitter":"","tags":""},{"type":"farm","street":"700 Cauble Farm Road","city":"Salisbury","state":"NC","zip":"28147","longitude":"-80.574481","latitude":"35.663271","name":"Cauble Creek Vineyard","website":"www.caublecreekvineyard.com","facebook":"","twitter":"","tags":"fresh-fruits juices ciders nuts soap body-care wine spirits beer hard-cider"},{"type":"farm","street":"7466 Richland Church Road","city":"Liberty","state":"NC","zip":"27298","longitude":"-79.550016","latitude":"35.897453","name":"Cedar View Farm","website":"7466 Richland Ch. RD.","facebook":"","twitter":"","tags":"fresh-fruits fresh-vegetables honey"},{"type":"farm","street":"688 Van Thomas Rd","city":"Pittsboro","state":"NC","zip":"27312","longitude":"-79.327858","latitude":"35.826227","name":"Cohen Farm","website":"www.cohenfarm.com","facebook":"Cohen Farm","twitter":"","tags":"dry beans eggs"},{"type":"farm","street":"194 Maple Road","city":"Maple","state":"NC","zip":"27956","longitude":"-76.011026","latitude":"36.411586","name":"Coinjock Creek Farms","website":"www.coinjockcreek.com/","facebook":"www.facebook.com/coinjockcreek","twitter":"www.twitter.com/coinjockcreek","tags":"eggs fresh-fruits fresh-vegetables"},{"type":"farm","street":"300 Pine Tree Road","city":"Selma","state":"NC","zip":"27576","longitude":"-78.2991790","latitude":"35.6856420","name":"Creekside Farm","website":"www.creeksidefarmberries.com","facebook":"Creekside Farm","twitter":"","tags":"canned preserved fresh-fruits fresh-vegetables honey juices ciders"},{"type":"farm","street":"136 Sunset Ridge Trail","city":"Lowgap ","state":"NC","zip":"27024","longitude":"-80.874308","latitude":"36.525269","name":"Davis Boxwood & Daylily Nursery","website":"http://davisdaylilynursery.com","facebook":"https://www.facebook.com/Davis-Boxwood-Daylily-Nursery","twitter":"","tags":"nursery-stock"},{"type":"farm","street":"771 Hwy 150","city":"Reidsville,","state":"NC","zip":"27320","longitude":"-79.603397","latitude":"36.260555","name":"Devil Dog Orchard","website":"","facebook":"","twitter":"","tags":"fresh-fruits"},{"type":"farm","street":"","city":"Monroe","state":"NC","zip":"","longitude":"-80.550290","latitude":"34.988821","name":"Flag Branch Farm","website":"","facebook":"","twitter":"","tags":"poultry fowl red-meat non-poultry-meat"},{"type":"farm","street":"3625 Old Julian Rd","city":"Whitsett","state":"NC","zip":"27377","longitude":"-79.624879","latitude":"36.000752","name":"Foust Family Farms","website":"www.FoustFamilyFarms.com","facebook":"","twitter":"","tags":"bedding plants crafts woodworking eggs herbs fresh-fruits fresh-vegetables honey nuts"},{"type":"farm","street":"669 Wright Road","city":"Tabor City","state":"NC","zip":"28463","longitude":"-78.8084934","latitude":"34.0945770","name":"Fowler Farms Fresh Produce","website":"","facebook":"","twitter":"","tags":"crafts woodworking cut-flowers eggs fresh-fruits fresh-vegetables nuts"},{"type":"farm","street":"1164 Lowes Lane","city":"Iron Station","state":"NC","zip":"28080","longitude":"-81.0667409","latitude":"35.4384950","name":"Gilcrest Natural Far","website":"www.gilcrestnc.com","facebook":"Gilcrest Natural Farm","twitter":"","tags":"fresh-vegetables pet-food poultry fowl red-meat non-poultry-meat"},{"type":"farm","street":"2951 chimney rock rd","city":"Hendersonville","state":"NC","zip":"28792","longitude":"-82.4122390","latitude":"35.3648170","name":"Grandads apples","website":"Www.grandadsapples.com","facebook":"","twitter":"","tags":"baked-goods canned preserved coffee tea fresh-fruits fresh-vegetables honey juices ciders maple-products"},{"type":"farm","street":"10103 Highway 108 E","city":"Mill Spring","state":"NC","zip":"28756","longitude":"-82.075981","latitude":"35.325402","name":"Green River Farm Millspring","website":"","facebook":"","twitter":"","tags":"fresh-fruits"},{"type":"farm","street":"7360 Brooks Bridge Rd","city":"Gibsonville","state":"NC","zip":"27249","longitude":"-79.554995","latitude":"36.218335","name":"Grove Winery","website":"GroveWinery.com ","facebook":"https://www.facebook.com/pages/Grove-Winery-Vineyards/54085131096","twitter":"https://www.twitter.com/GroveWinery","tags":"canned preserved fresh-fruits fresh-vegetables wine spirits beer hard-cider"},{"type":"farm","street":"210 Wright Rd.","city":"Roanoke Rapids","state":"NC","zip":"27870","longitude":"-77.775615","latitude":"36.393834","name":"Happy Acres Farm","website":"http://www.happyacresfarm.net","facebook":"https://www.facebook.com/pages/Happy-Acres-Farm/227602303939750","twitter":"","tags":"fresh-fruits nursery-stock"},{"type":"farm","street":"","city":"Red Springs ","state":"NC","zip":"","longitude":"-79.206190","latitude":"34.895259","name":"Hawkeye Farms","website":"http://hawkeyeindianculturalcenter.com","facebook":"https://www.facebook.com/HawkeyeIndianCulturalCenterRedSpringsNC","twitter":"","tags":"herbs fresh-fruits fresh-vegetables"},{"type":"farm","street":"6345 Christmas Tree Ln.","city":"Vale","state":"NC","zip":"28168","longitude":"-81.417835","latitude":"35.514165","name":"Helms Christmas Tree Farm","website":"www.HelmsChristmasTreeFarm","facebook":"","twitter":"","tags":"fresh-fruits"},{"type":"farm","street":"7110 Massey Chapel Road (Barbee Road)","city":"Durham","state":"NC","zip":"27713","longitude":"-78.932214","latitude":"35.900638","name":"Herndon Hills Farm","website":"","facebook":"https://www.facebook.com/HerndonHillsFarm","twitter":"","tags":"fresh-fruits"},{"type":"farm","street":"","city":"Angier","state":"NC","zip":"27501","longitude":"-78.716179","latitude":"35.512589","name":"In Theory Farm","website":"http://www.intheoryfarm.com/","facebook":"https://www.facebook.com/intheoryfarm","twitter":"","tags":"dairy products eggs pet-food poultry fowl red-meat non-poultry-meat soap body-care"},{"type":"farm","street":"4505 Tryon Road","city":"Raleigh","state":"NC","zip":"27606","longitude":"-78.715832","latitude":"35.748489","name":"Inter-Faith Food Shuttle Tryon Road Farm Stand","website":"http://foodshuttle.org/","facebook":"https://www.facebook.com/InterFaithFoodShuttle","twitter":"https://twitter.com/FoodShuttle","tags":"cut-flowers eggs herbs fresh-vegetables"},{"type":"farm","street":"2547 Dry Ponds Rd","city":"Granite Falls","state":"NC","zip":"28630","longitude":"-81.493406","latitude":"35.799054","name":"Johnny Wilson Farm LLC","website":"johnnywilsonfarm.com","facebook":"https://www.facebook.com/pages/Johnny-Wilson-farm/205491109522790","twitter":"","tags":"eggs honey"},{"type":"farm","street":"407 US Hwy 15 501","city":"Carthage","state":"NC","zip":"28327","longitude":"-79.288952","latitude":"35.377614","name":"Johnson Family Produce and General Store","website":"johnsonfamilyproduce.com","facebook":"https://www.facebook.com/johnsonfamilyproduceandgeneralstore","twitter":"","tags":"baked-goods canned preserved coffee tea dairy products dry beans eggs fresh-fruits fresh-vegetables grains flour honey juices ciders nuts poultry fowl prepared-foods red-meat non-poultry-meat soap body-care"},{"type":"farm","street":"187 Garren Road","city":"Hendersonville","state":"NC","zip":"28792","longitude":"-82.380306","latitude":"35.397792","name":"Justus Orchard","website":"www.justusorchard.com","facebook":"https://www.facebook.com/pages/Justus-Orchard/119052544801944","twitter":"","tags":"baked-goods canned preserved coffee tea cut-flowers fresh-fruits fresh-vegetables honey juices ciders prepared-foods soap body-care"},{"type":"farm","street":"4680 US HWY 15-501","city":"Carthage ","state":"NC","zip":"28327","longitude":"-79.4117750","latitude":"35.3219800","name":"Karefree Produce","website":"www.karefreeproduce.com","facebook":"https://www.facebook.com/pages/Karefree-Produce","twitter":"","tags":"baked-goods bedding plants canned preserved crafts woodworking eggs fresh-fruits fresh-vegetables honey maple-products nursery-stock nuts poultry fowl prepared-foods"},{"type":"farm","street":"438 Suggs-Taylor Road","city":"Elizabethtown","state":"NC","zip":"28337","longitude":"-78.713877","latitude":"34.668223","name":"Lu Mil Vineyard","website":"","facebook":"","twitter":"","tags":""},{"type":"farm","street":"4408 Fallston Rd","city":"Shelby ","state":"NC","zip":"28150","longitude":"-81.498988","latitude":"35.420490","name":"Martins' Charolais Farm","website":"","facebook":"Martins' Charolais Farm","twitter":"","tags":""},{"type":"farm","street":"20750 NC 73 Hwy","city":"Albemarle ","state":"NC","zip":"28001","longitude":"-80.3184642","latitude":"35.3816927","name":"Muddy Boots Farms","website":"www.muddybootsfarms.com","facebook":"","twitter":"","tags":""},{"type":"farm","street":"230 Goshen Rd","city":"Pollocksville","state":"NC","zip":"28573","longitude":"-77.2373731","latitude":"35.0129475","name":"Parker Farm","website":"","facebook":"Parkerfarm1@hotmail.com","twitter":"","tags":""},{"type":"farm","street":"236 Williamsburg Road","city":"Olin ","state":"NC","zip":"28660","longitude":"-80.821754","latitude":"35.978319","name":"Prevette Family Farm","website":"prevettefamilyfarm.com","facebook":"https://www.facebook.com/pages/Prevette-Family-Farm/530975036935098","twitter":"","tags":"bedding plants fresh-fruits fresh-vegetables nursery-stock"},{"type":"farm","street":"913 Arthur Minnis Road","city":"Hillsborough","state":"NC","zip":"27278","longitude":"-79.125907","latitude":"35.997654","name":"RambleRill Farm","website":"www.ramblerillfarm.com","facebook":"https://www.facebook.com/RambleRill/","twitter":"","tags":"baked-goods canned preserved crafts woodworking cut-flowers eggs fresh-fruits fresh-vegetables mushrooms"},{"type":"farm","street":"4024 Highway 903 South","city":"Winterville","state":"NC","zip":"28590","longitude":"-77.460700","latitude":"35.507746","name":"Renston Garden Market","website":"renstongardenmarket.com","facebook":"","twitter":"","tags":"fresh-fruits fresh-vegetables honey nursery-stock"},{"type":"farm","street":"328 Blueberry Road","city":"Reidsville","state":"NC","zip":"27320","longitude":"-79.749689","latitude":"36.376527","name":"Rivers' Finest LLC","website":"www.riversfinest.com","facebook":"Rivers' Finest","twitter":"","tags":"bedding plants canned preserved cut-flowers herbs fresh-fruits fresh-vegetables nursery-stock"},{"type":"farm","street":"18409 nc 210 hwy","city":"27501Angier ","state":"NC","zip":"","longitude":"-78.365685","latitude":"35.5175965","name":"Ronnie's Berry Farm","website":"ronniesberryfarm.com","facebook":"ronnie's berry farm","twitter":"","tags":"canned preserved fresh-fruits honey nuts"},{"type":"farm","street":"12720 Rocky River Church Road","city":"Charlotte ","state":"NC","zip":"28215","longitude":"-80.629710","latitude":"35.241105","name":"Scallys Natural Beef","website":"scallysnaturalbeef.com","facebook":"","twitter":"","tags":""},{"type":"farm","street":"340 Goodman Rd","city":"Leland ","state":"NC","zip":"28451","longitude":"-78.0810050","latitude":"34.2007270","name":"Shelton Herb Farm","website":"www.SheltonHerbFarmNC.com","facebook":"https://www.facebook.com/pages/Shelton-Herb-Farm/279357342893?ref=br_rs&pnref=lhc","twitter":"","tags":"bedding plants cut-flowers eggs nuts"},{"type":"farm","street":"7215 Allison Road","city":"Pelham","state":"NC","zip":"27311","longitude":"-79.4107700","latitude":"36.4586870","name":"SleepyGoat Cheese LLC","website":"www.sleepygoatfarm.com","facebook":"https://www.facebook.com/SleepyGoatFarm","twitter":"","tags":"dairy products eggs"},{"type":"farm","street":"320 Harding Lane","city":"Chocowinity","state":"NC","zip":"27817","longitude":"-77.101552","latitude":"35.461994","name":"Southside Farms","website":"www.southsidefarms.com","facebook":"https://www.facebook.com/pages/Southside-Farms/138931649490630","twitter":"","tags":"canned preserved fresh-fruits fresh-vegetables honey juices ciders nuts"},{"type":"farm","street":"3430 Rimer Road","city":"Concord","state":"NC","zip":"28025","longitude":"-80.486933","latitude":"35.462955","name":"Summerberry Farm","website":"","facebook":"","twitter":"","tags":""},{"type":"farm","street":"5521 Rl Lewis Lane","city":"Bolivia","state":"NC","zip":"28422","longitude":"-78.0878880","latitude":"34.0702920","name":"Sunrise Farms","website":"","facebook":"","twitter":"","tags":"eggs"},{"type":"farm","street":"769 Bray Ford Rd","city":"Dobson ","state":"NC","zip":"27017","longitude":"-80.666138","latitude":"36.334153","name":"The Farm Dobson","website":"www.letsgotothefarm.com","facebook":"www.facebook.com/thefarmdobson","twitter":"","tags":"canned preserved dairy products eggs fresh-fruits fresh-vegetables red-meat non-poultry-meat"},{"type":"farm","street":"3349 US Hwy 220","city":"Madison","state":"NC","zip":"27025","longitude":"-79.942518","latitude":"36.338661","name":"Tucker's Farm and Nursery","website":"www.tuckersfarmnc.com","facebook":"","twitter":"","tags":"bedding plants cut-flowers fresh-fruits fresh-vegetables nursery-stock"},{"type":"farm","street":"193 Old US 421 Hwy S ","city":"Dunn","state":"NC","zip":"28334","longitude":"-78.562895","latitude":"35.255078","name":"Twin Oaks Heritage Farm, LLC ","website":"www.graysonspremiumpork.com","facebook":"https://www.facebook.com/graysonspremiumpork/timeline","twitter":"","tags":""},{"type":"farm","street":"1121 Philadelphia Church rd","city":"Dallas ","state":"NC","zip":"28034","longitude":"-81.183183","latitude":"35.317935","name":"Walnut Hollow farms","website":"","facebook":"Walnut Hollow Farms","twitter":"","tags":""},{"type":"farm","street":"5247 Plateau Road","city":"Vale","state":"NC","zip":"28168","longitude":"-81.3767860","latitude":"35.5735979","name":"Windy Wool Windings","website":"saintsandstars.powweb.com","facebook":"Windy Wool Windings","twitter":"","tags":"red-meat non-poultry-meat"},{"type":"farm","street":"3198 Hannah Creek Road","city":"Benson","state":"NC","zip":"27504","longitude":"-78.4934360","latitude":"35.3596940","name":"Wood Family Farm","website":"www.woodfamilyfarmnc.com","facebook":"","twitter":"","tags":"eggs red-meat non-poultry-meat"},{"type":"market","name":"Carrboro Farmers' Market","website":"http://www.carrborofarmersmarket.com","facebook":"https://www.facebook.com/carrborofarmersmarket","twitter":"","street":"301 W Main St","city":"Carrboro","state":"NC","zip":"27510","longitude":"-79.077607","latitude":"35.910781","tags":"organic baked goods cheese crafts flowers eggs seafood herbs vegetables honey jams meat nuts poultry prepared-foods soap trees wine coffee fruits grains mushrooms"},{"type":"market","name":"Catawba County Public Health Farmers Market","website":"http://www.catawbacountync.gov/phealth/Adult/FarmersMarket.asp","facebook":"https://www.facebook.com/catawbacountypublichealth","twitter":"","street":"3070 11th Ave Dr. SE","city":"Hickory","state":"NC","zip":"28602","longitude":"-81.269507","latitude":"35.712066","tags":"flowers eggs herbs vegetables honey jams fruits"},{"type":"market","name":"Cedar Point Farmers Market","website":"","facebook":"The Market at Cedar Point","twitter":"","street":"1046 Cedar Point Blvd.","city":"Cedar Point","state":"NC","zip":"28584","longitude":"-77.083526","latitude":"34.682610","tags":"organic baked goods cheese crafts flowers eggs seafood herbs vegetables honey jams maple meat plants poultry prepared-foods soap coffee beans fruits grains juices mushrooms wild"},{"type":"market","name":"Charlotte Regional Farmers Market","website":"http://www.charlottefarmersmarket.com","facebook":"https://www.facebook.com/CharlotteRegionalFarmersMarket","twitter":"","street":"1801 Yorkmont Road","city":"Charlotte","state":"NC","zip":"28217","longitude":"","latitude":"","tags":"baked goods cheese crafts flowers eggs seafood herbs vegetables honey jams maple meat nuts plants poultry prepared-foods soap trees wine coffee beans fruits grains juices mushrooms pet food wild"},{"type":"market","name":"China Grove Farmers Market","website":"","facebook":"https://www.facebook.com/chinagrovefarmersmarket/","twitter":"","street":"308 North Main Street","city":"China Grove","state":"NC","zip":"28023","longitude":"-80.5778246","latitude":"35.5709810","tags":"baked goods flowers vegetables meat fruits"},{"type":"market","name":"Clemmons Farmers Market","website":"https://www.clemmons.org/243/Clemmons-Farmers-Market","facebook":"https://www.facebook.com/clemmonsfarmersmarket","twitter":"","street":"1150 S Peace Haven Road","city":"Clemmons","state":"NC","zip":"27012","longitude":"-80.386699","latitude":"36.033223","tags":"baked goods cheese crafts eggs vegetables honey jams meat plants poultry fruits"},{"type":"market","name":"Durham Farmers' Market","website":"http://www.durhamfarmersmarket.com","facebook":"www.facebook.com/durhamfarmersmarketnc","twitter":"www.twitter.com/DurhamFarmerMkt","street":"501 Foster Street","city":"Durham","state":"NC","zip":"27701","longitude":"-78.901856","latitude":"36.000559","tags":"organic baked goods cheese crafts flowers eggs herbs vegetables honey jams meat nuts plants poultry prepared-foods soap trees wine coffee beans fruits grains juices mushrooms tofu wild"},{"type":"market","name":"Edenton Farmers Market","website":"http://www.edentonfarmersmarket.com","facebook":"https://www.facebook.com/edentonfarmersmarket/","twitter":"","street":"200 North Broad St","city":"Edenton","state":"NC","zip":"27932","longitude":"-76.607401","latitude":"36.062086","tags":"baked goods cheese crafts flowers eggs seafood herbs vegetables honey jams meat nuts plants poultry prepared-foods soap coffee fruits mushrooms"},{"type":"market","name":"Enka-Candler Tailgate Market","website":"http://www.ashevillefarmstead.org/enka-candler-tailgate-market","facebook":"www.facebook.com/enkacandlertailgatemarket","twitter":"","street":"70 Pisgah Hwy","city":"Candler","state":"NC","zip":"28715","longitude":"-82.684674","latitude":"35.540990","tags":"organic baked goods crafts flowers eggs vegetables honey meat soap trees coffee fruits"},{"type":"market","name":"Fearrington Farmers' Market","website":"http://fearringtonfarmersmarket.com","facebook":"https://www.facebook.com/fearringtonfarmersmarket","twitter":"","street":"East Camden","city":"Fearrington Village","state":"NC","zip":"27312","longitude":"-79.090143","latitude":"35.800209","tags":"organic baked goods cheese flowers eggs herbs vegetables honey jams meat plants poultry prepared-foods soap wine beans fruits juices mushrooms pet food wild"},{"type":"market","name":"Hammond's Grandson's Produce","website":"","facebook":"hammondsgrandsonsproduce","twitter":"","street":"7165 Ramsey Street","city":"Fayetteville ","state":"NC","zip":"28310","longitude":"-78.8531625","latitude":"35.1865196","tags":"baked goods vegetables fruits"},{"type":"market","name":"Henderson County Tailgate Market","website":"http://www.hendersoncountytailgatemarket.com","facebook":"@hendersoncountytailgatemarket","twitter":"@hctgm","street":"100 North King Street","city":"Hendersonville","state":"NC","zip":"28739","longitude":"-82.458271","latitude":"35.314825","tags":"baked goods crafts flowers eggs herbs vegetables honey jams nuts plants poultry soap trees fruits mushrooms"},{"type":"market","name":"High Point Farmers Market","website":"https://www.highpointnc.gov/1753/High-Point-Farmers-Market","facebook":"https://www.facebook.com/hpncfarmersmarket/","twitter":"","street":"901 N Main Street","city":"High Point ","state":"NC","zip":"27262","longitude":"-80.012645","latitude":"35.966162","tags":"baked goods cheese crafts flowers eggs seafood herbs vegetables honey jams meat plants poultry prepared-foods soap trees coffee fruits pet food"},{"type":"market","name":"Historic Marion Tailgate Market","website":"","facebook":"mariontailgatemarket","twitter":"marionevents","street":"67 West Henderson Street","city":"Marion","state":"NC","zip":"28752","longitude":"-82.0088150","latitude":"35.6824650","tags":"baked goods cheese crafts flowers eggs seafood herbs vegetables honey jams meat nuts plants poultry prepared-foods soap trees fruits grains mushrooms pet food"},{"type":"market","name":"Holly Springs Farmers Market","website":"","facebook":"https://www.facebook.com/hsfarmersmarket/","twitter":"https://twitter.com/HSFarmersMarket","street":"300 West Ballentine Street","city":"Holly Springs","state":"NC","zip":"27540","longitude":"-78.836190","latitude":"35.650573","tags":"baked goods cheese crafts flowers eggs seafood herbs vegetables honey jams maple meat nuts plants poultry prepared-foods soap trees wine coffee fruits juices mushrooms pet food"},{"type":"market","name":"Jackson County Farmers Market - Outdoor Market","website":"http://www.jacksoncountyfarmersmarket.org","facebook":"www.facebook.com/thegloriousjacksoncountyfarmersmarket","twitter":"","street":"110 Railroad Avenue","city":"Sylva ","state":"NC","zip":"28779","longitude":"-83.218394","latitude":"35.375375","tags":"baked goods cheese crafts flowers eggs seafood herbs vegetables honey maple meat nuts plants poultry prepared-foods soap trees coffee fruits mushrooms"},{"type":"market","name":"Jackson County Winter Farmers Market","website":"http://www.jacksoncountyfarmersmarket.org","facebook":"www.facebook.com/TheGloriousJacksonCountyFarmersMarket/","twitter":"","street":"23 Central Street","city":"Sylva","state":"NC","zip":"28779","longitude":"-83.224149","latitude":"35.375581","tags":"baked goods cheese crafts flowers eggs herbs vegetables honey meat poultry soap coffee mushrooms"},{"type":"market","name":"King Farmers' Market","website":"http://www.kingfarmersmarket.com","facebook":"www.facebook.com/KingFarmersMarket","twitter":"https://twitter.com/KingFarmersMkt","street":"105 Moore Road","city":"King ","state":"NC","zip":"27021","longitude":"-80.341178","latitude":"36.276367","tags":"baked goods crafts flowers eggs herbs vegetables honey jams meat plants poultry soap trees fruits wild"},{"type":"market","name":"Lenoir County Farmers Market","website":"","facebook":"Lenoir County Farmers Market","twitter":"","street":"100N. Herritage Street","city":"Kinston","state":"NC","zip":"2804","longitude":"-77.584119","latitude":"35.260631","tags":"baked goods crafts eggs vegetables honey jams prepared-foods soap fruits"},{"type":"market","name":"Martin County Main Street Market","website":"","facebook":"www.facebook.com/mcmainstreetmarket","twitter":"","street":"Main St. and Smithwick St. ","city":"Williamston","state":"NC","zip":"27892","longitude":"-77.055113","latitude":"35.855219","tags":"baked goods crafts vegetables jams prepared-foods"},{"type":"market","name":"Morganton Farmer's Market","website":"http://www.downtownmorganton.com/index.php/shop/farmers-markets","facebook":"www.facebook.com/morgantonfarmersmarket","twitter":"","street":"111 North Green Street","city":"Morganton","state":"NC","zip":"28655","longitude":"-81.6884880","latitude":"35.7466269","tags":"baked goods crafts flowers eggs vegetables honey jams meat poultry prepared-foods soap coffee fruits mushrooms wild"},{"type":"market","name":"Nash County Farmers Market in Rocky Mount","website":"http://nash.ces.ncsu.edu","facebook":"Nash County Farmers Market in Rocky Mount","twitter":"","street":"1006 Peachtree St.","city":"Rocky Mount","state":"NC","zip":"27804","longitude":"-77.802729","latitude":"35.955256","tags":"baked goods cheese crafts flowers eggs seafood herbs vegetables honey jams maple meat nuts plants poultry prepared-foods soap trees wine coffee fruits grains mushrooms wild"},{"type":"market","name":"Olde Beaufort Farmers' Market","website":"http://oldebeaufortfarmersmarket.org","facebook":"www.facebook.com/oldebeaufortfarmersmarket","twitter":"@BeaufortFarmers","street":"300 Courthouse Square","city":"Beaufort","state":"NC","zip":"28516","longitude":"-76.663201","latitude":"34.719572","tags":"baked goods cheese crafts flowers eggs seafood herbs vegetables honey jams meat nuts plants poultry prepared-foods soap wine coffee beans fruits mushrooms pet food"},{"type":"market","name":"Onslow County Farmers Market","website":"https://www.onslowcountyfarmersmarket.com/","facebook":"https://www.facebook.com/OnslowCountyFarmersMarket/","twitter":"https://twitter.com/OnslowCoFarmer","street":"4024 RIchlands Hwy","city":"Jacksonville","state":"NC","zip":"28540","longitude":"-77.493260","latitude":"34.782418","tags":"baked goods crafts flowers eggs herbs vegetables honey jams meat plants poultry prepared-foods soap coffee fruits"},{"type":"market","name":"Oxford Farmers Market","website":"","facebook":"https://www.facebook.com/OxfordMarket","twitter":"","street":"Corner of Lanier and McClanahan Streets","city":"Oxford","state":"NC","zip":"27565","longitude":"-78.5866163","latitude":"36.3148277","tags":"baked goods crafts flowers eggs herbs vegetables honey jams nuts plants trees fruits"},{"type":"market","name":"Pfafftown Farmer's Market","website":"https://www.instagram.com/pfafftownfarmersmarket/?hl=en","facebook":"","twitter":"","street":"4725 Yadkinville Rd","city":"Pfafftown","state":"NC","zip":"27040","longitude":"-80.256362","latitude":"36.1304034","tags":"organic baked goods crafts flowers eggs herbs vegetables honey jams meat plants soap trees coffee fruits mushrooms wild"},{"type":"market","name":"Piedmont Triad Farmers Market","website":"http://www.triadfarmersmarket.com","facebook":"https://www.facebook.com/pages/Robert-G-Shaw-Piedmont-Triad-Farmers-Market/144426648949461","twitter":"","street":"2914 Sandy Ridge Road","city":"Colfax","state":"NC","zip":"27235","longitude":"-79.992657","latitude":"36.087691","tags":"organic baked goods cheese crafts flowers eggs seafood herbs vegetables honey jams maple meat nuts plants poultry prepared-foods soap trees wine coffee beans fruits grains juices mushrooms pet food wild"},{"type":"market","name":"Reidsville Market Square Farmers' Market","website":"http://www.ci.reidsville.nc.us/planning_a_visit/market_square/farmer_market.php","facebook":"https://www.facebook.com/reidsvillefarmersmarket/","twitter":"","street":"303 S. Scales Street","city":"Reidsville","state":"NC","zip":"27320","longitude":"-79.6640029","latitude":"36.3586088","tags":"baked goods crafts vegetables fruits"},{"type":"market","name":"Riverfront Farmers Market","website":"http://www.riverfrontfarmersmarket.org","facebook":"www.facebook.com/riverfrontfarmersmarket","twitter":"www.twitter.com@RFMWilmingtonNC","street":"116 Dock St.","city":"Wilmington","state":"NC","zip":"28401","longitude":"-77.947930","latitude":"34.234207","tags":"baked goods cheese crafts flowers eggs seafood herbs vegetables honey jams meat nuts plants poultry prepared-foods soap wine coffee fruits mushrooms pet food wild"},{"type":"market","name":"Rosa Parks Farmers Market","website":"","facebook":"Friends of the Rosa Parks Farmers Market Community Advisory Council","twitter":"","street":"2020 Beatties Ford Road","city":"Charlotte ","state":"NC","zip":"28216","longitude":"-80.854493","latitude":"35.262802","tags":"herbs vegetables coffee fruits"},{"type":"market","name":"Secotan Market","website":"https://secotanmarket.com/","facebook":"https://www.facebook.com/secotanmarket/","twitter":"","street":"2868 NC-345","city":"Wanchese","state":"NC","zip":"27981","longitude":"-75.645391","latitude":"35.854615","tags":"organic baked goods crafts flowers eggs herbs vegetables honey jams meat nuts plants poultry prepared-foods soap trees coffee fruits juices mushrooms"},{"type":"market","name":"Seed2Seed Farmerâ€™s Market","website":"","facebook":"https://m.facebook.com/Seed2Seed-Farmers-Market-2419667011596134/","twitter":"","street":"100 north main st.","city":"Winston-Salem ","state":"NC","zip":"27101","longitude":"-80.244023","latitude":"36.095980","tags":"flowers eggs herbs vegetables honey jams meat poultry fruits mushrooms"},{"type":"market","name":"Shallotte Farmers Market/Market on Mulberry ","website":"http://www.townofshallotte.org","facebook":"https://www.facebook.com/ShallotteFarmersMarket","twitter":"","street":"123 Mulberry Street","city":"Shallotte","state":"NC","zip":"28470","longitude":"-78.386035","latitude":"33.975058","tags":"baked goods crafts flowers eggs herbs vegetables honey jams nuts plants prepared-foods soap trees fruits pet food"},{"type":"market","name":"South End Market at Atherton","website":"https://southendmkt.com/","facebook":"https://www.facebook.com/southendmarketclt","twitter":"","street":"2000 South Blvd.","city":"Charlotte","state":"NC","zip":"28203","longitude":"-80.860801","latitude":"35.209110","tags":"organic baked goods cheese crafts flowers eggs seafood herbs vegetables honey jams meat poultry prepared-foods soap coffee fruits grains mushrooms pet food"},{"type":"market","name":"Stanly Commons Farmers Market","website":"","facebook":"Stanly Commons Farmers Market","twitter":"","street":"1000 N. First St.","city":"Albemarle ","state":"NC","zip":"28001","longitude":"-80.197218","latitude":"35.366184","tags":"baked goods cheese flowers eggs seafood herbs vegetables honey jams meat nuts prepared-foods fruits mushrooms"},{"type":"market","name":"The 'Whee Market","website":"http://thewheemarket.org","facebook":"https://www.facebook.com/WheeMarket/?view_public_for=461052543905947","twitter":"","street":"113 Market Street","city":"Cullowhee ","state":"NC","zip":"28723","longitude":"-83.185690","latitude":"35.301188","tags":"baked goods cheese crafts flowers eggs herbs vegetables honey jams meat plants poultry soap trees wine coffee fruits juices mushrooms pet food wild"},{"type":"market","name":"The Corner Farmers Market","website":"http://www.cornermarketgso.com","facebook":"https://www.facebook.com/walkerelamcornermarket/","twitter":"","street":"2200 Walker Avenue","city":"Greensboro","state":"NC","zip":"27403","longitude":"-79.828293","latitude":"36.069019","tags":"organic baked goods cheese crafts flowers eggs herbs vegetables honey jams maple meat plants poultry soap trees coffee beans fruits grains juices mushrooms pet food tofu wild"},{"type":"market","name":"Uptown Greenville Umbrella Market","website":"http://uptowngreenville.com/play/umbrella-market/","facebook":"https://www.facebook.com/uptownumbrellamarket/","twitter":"https://twitter.com/Umbrella_Market","street":"Fifth Street and Evans Street","city":"Greenville","state":"NC","zip":"27858","longitude":"-77.373338","latitude":"35.611005","tags":"baked goods crafts flowers eggs herbs vegetables honey jams meat poultry prepared-foods soap wine coffee fruits juices pet food"},{"type":"market","name":"Vance County Regional Farmers Market","website":"http://vancecounty.org","facebook":"Vance County Regional Farmers Market","twitter":"Vance County Regional Farmers Market","street":"210 Southpark Dr.","city":"Henderson","state":"NC","zip":"27536","longitude":"-78.4244013","latitude":"36.3378971","tags":"organic baked goods crafts flowers eggs herbs vegetables honey jams meat nuts plants prepared-foods soap trees fruits juices mushrooms pet food wild"},{"type":"market","name":"Wilkes County Farmers' Market","website":"http://www.downtownnorthwilkesboro.com","facebook":"https://www.facebook.com/wilkescountyfarmersmarket/","twitter":"","street":"842 CBD Loop","city":"North Wilkesboro","state":"NC","zip":"28659","longitude":"-81.145200","latitude":"36.159075","tags":"organic baked goods cheese crafts eggs herbs vegetables honey jams meat plants poultry prepared-foods soap coffee fruits"},{"type":"market","name":"Winters Farmers Market at The Crossing at Hollar Mill","website":"","facebook":"","twitter":"","street":"883 Highland Avenue SE","city":"Hickory","state":"NC","zip":"28602","longitude":"-81.3258422","latitude":"35.7353920","tags":"organic baked goods cheese crafts eggs seafood vegetables honey meat poultry soap coffee fruits mushrooms"},{"type":"market","name":"WNC Farmers Market","website":"https://www.ncagr.gov/markets/facilities/markets/asheville/","facebook":"https://www.facebook.com/WncFarmersMarket/","twitter":"","street":"570 Brevard Road, Asheville, NC  28806","city":"Asheville","state":"NC","zip":"28806","longitude":"-82.598648","latitude":"35.555133","tags":"organic baked goods cheese crafts flowers eggs seafood herbs vegetables honey jams maple meat nuts plants poultry prepared-foods soap trees wine coffee beans fruits grains juices mushrooms pet food tofu wild"},{"type":"market","name":"Zebulon Farm Fresh Market","website":"https://www.townofzebulon.org/departments/parks-and-recreation/farm-fresh-market","facebook":"https://www.facebook.com/zebulonfarmfreshmarket/","twitter":"","street":"103 N Arendell Ave","city":"Zebulon","state":"NC","zip":"27597","longitude":"-78.314111","latitude":"35.821835","tags":"baked goods crafts flowers eggs seafood herbs vegetables honey jams meat plants poultry prepared-foods soap wine fruits pet food"}]
