[{"Type":"on-farm market","ModifyDate":"Apr 1st, 2015","Image":"default-onfarmmarket-4-3.jpg","ListingID":"700351","Name":"Green Family Farm","Description":null,"ContactName":"Betsy Green","ContactEmail":"gangreen@frontiernet.net","ContactPhone":"304-289-3565","Website":"greenfamilyfarm.org","Facebook":null,"Twitter":null,"Instagram":null,"Pinterest":null,"Youtube":null,"Blog":null,"Address":"Rt 1 Box 79A, Burlington, West Virginia 26710","State":"West Virginia","City":"Burlington","Street":"Rt 1 Box 79A","Zip":"26710","Longitude":"-78.869068","Latitude":"39.367164","Dates":null,"Products":""},{"Type":"on-farm market","ModifyDate":"Aug 29th, 2018","Image":"default-onfarmmarket-4-3.jpg","ListingID":"701460","Name":"Harmony Hill Farm","Description":null,"ContactName":"Christopher Gorman","ContactEmail":"harmonyhill.farm@yahoo.com","ContactPhone":"304-886-0547","Website":"www.HarmonyHillFarmWV.com","Facebook":null,"Twitter":null,"Instagram":null,"Pinterest":null,"Youtube":null,"Blog":null,"Address":"6920 Flowing Springs Rd, Shenandoah Junction, West Virginia 25442","State":"West Virginia","City":"Shenandoah Junction","Street":"6920 Flowing Springs Rd","Zip":"25442","Longitude":"-77.816832","Latitude":"39.3861820","Dates":null,"Products":""},{"Type":"on-farm market","ModifyDate":"Dec 1st, 2018","Image":"default-onfarmmarket-4-3.jpg","ListingID":"700812","Name":"L & M Farms","Description":null,"ContactName":"Marilyn Blake","ContactEmail":"mrfrank654@aol.com","ContactPhone":"3048383506","Website":null,"Facebook":"https:\/\/www.facebook.com\/pages\/L-M-Farms\/168574719871551","Twitter":null,"Instagram":null,"Pinterest":null,"Youtube":null,"Blog":null,"Address":"1806 Buffalo Creek Rd., Lost Creek, West Virginia 26385","State":"West Virginia","City":"Lost Creek","Street":"1806 Buffalo Creek Rd.","Zip":"26385","Longitude":"-80.440978","Latitude":"39.212277","Dates":null,"Products":""},{"Type":"on-farm market","ModifyDate":"Jan 12th, 2016","Image":"default-onfarmmarket-4-3.jpg","ListingID":"701311","Name":"Shepherd's Whey Creamery","Description":null,"ContactName":"Suzanne Behrmann","ContactEmail":"seedlings@earthlink.net","ContactPhone":"3042835203","Website":"shepherdswheycreamery.com","Facebook":"shepherd\\'s Whey Creamery","Twitter":null,"Instagram":null,"Pinterest":null,"Youtube":null,"Blog":null,"Address":"825 Jenny Wren Drive, Martinsburg, West Virginia 25404","State":"West Virginia","City":"Martinsburg","Street":"825 Jenny Wren Drive","Zip":"25404","Longitude":"-77.929560","Latitude":"39.461883","Dates":null,"Products":""},{"Type":"on-farm market","ModifyDate":"Jul 11th, 2016","Image":"default-onfarmmarket-4-3.jpg","ListingID":"701353","Name":"Wardensville Garden Market","Description":null,"ContactName":"Emma Kiser","ContactEmail":"emma@wardensvillegardenmarket.org","ContactPhone":"3048972083","Website":"wardensvillegardenmarket.org","Facebook":"https:\/\/www.facebook.com\/wardensvillegardenmarket\/","Twitter":null,"Instagram":null,"Pinterest":null,"Youtube":null,"Blog":null,"Address":"28813 SR 55, Wardensville, West Virginia 26851","State":"West Virginia","City":"Wardensville","Street":"28813 SR 55","Zip":"26851","Longitude":"-78.592018","Latitude":"39.0835447","Dates":null,"Products":""},{"Type":"on-farm market","ModifyDate":"Jul 26th, 2014","Image":"default-onfarmmarket-4-3.jpg","ListingID":"700173","Name":"Beeappy Farm","Description":null,"ContactName":"Jane Caswell","ContactEmail":"jane@beeappy.com","ContactPhone":"304-372-2280","Website":"beeappy.com","Facebook":"https:\/\/www.facebook.com\/BeeappyFarmLLC","Twitter":null,"Instagram":null,"Pinterest":null,"Youtube":null,"Blog":null,"Address":"1918 Brush Run Road, Gay, West Virginia 25244","State":"West Virginia","City":"Gay","Street":"1918 Brush Run Road","Zip":"25244","Longitude":"-81.555851","Latitude":"38.770123","Dates":null,"Products":""},{"Type":"on-farm market","ModifyDate":"Jul 26th, 2014","Image":"default-onfarmmarket-4-3.jpg","ListingID":"700263","Name":"Mountain Diamond Longhorns, LLC","Description":null,"ContactName":"Barbara Miller","ContactEmail":"mountaindiamondlonghorns2004@msn.com","ContactPhone":"3045682322","Website":null,"Facebook":null,"Twitter":null,"Instagram":null,"Pinterest":null,"Youtube":null,"Blog":null,"Address":"98 Atlantic Road, Tunnelton, West Virginia 26444","State":"West Virginia","City":"Tunnelton","Street":"98 Atlantic Road","Zip":"26444","Longitude":"-79.748395","Latitude":"39.39176","Dates":null,"Products":""},{"Type":"on-farm market","ModifyDate":"Jul 26th, 2014","Image":"default-onfarmmarket-4-3.jpg","ListingID":"700407","Name":"Sunshine Farm & Gardens","Description":null,"ContactName":"Barry Glick","ContactEmail":"barry@sunfarm.com","ContactPhone":"304-497-2208","Website":"www.sunfarm.com","Facebook":"https:\/\/www.facebook.com\/Glickster","Twitter":"https:\/\/www.twitter.com\/sunfarmtweets","Instagram":null,"Pinterest":null,"Youtube":null,"Blog":null,"Address":"696 Glicks Rd, Renick, West Virginia 24966","State":"West Virginia","City":"Renick","Street":"696 Glicks Rd","Zip":"24966","Longitude":"-80.437171","Latitude":"38.066520","Dates":null,"Products":""},{"Type":"on-farm market","ModifyDate":"Jul 27th, 2014","Image":"default-onfarmmarket-4-3.jpg","ListingID":"700001","Name":"Working H Farms","Description":null,"ContactName":"Terrie Hardesty","ContactEmail":"tj@workinghfarms.com","ContactPhone":"304-789-2225","Website":"www.workinghfarms.com","Facebook":"https:\/\/www.facebook.com\/workinghfarms","Twitter":null,"Instagram":null,"Pinterest":null,"Youtube":null,"Blog":null,"Address":"17 Reckart Mill, Terra Alta, West Virginia 26764","State":"West Virginia","City":"Terra Alta","Street":"17 Reckart Mill","Zip":"26764","Longitude":"-79.528025","Latitude":"39.5535670","Dates":null,"Products":""},{"Type":"on-farm market","ModifyDate":"Jul 27th, 2014","Image":"default-onfarmmarket-4-3.jpg","ListingID":"700413","Name":"White Oak Farm","Description":null,"ContactName":"Max and Anne Robinson","ContactEmail":"whiteoakberryfarm@gmail.com","ContactPhone":"304-497-3577","Website":"www.whiteoakberryfarm.com","Facebook":"https:\/\/www.facebook.com\/whiteoakberryfarm","Twitter":null,"Instagram":null,"Pinterest":null,"Youtube":null,"Blog":null,"Address":"1700 Brownstown Road, Renick, West Virginia 24966","State":"West Virginia","City":"Renick","Street":"1700 Brownstown Road","Zip":"24966","Longitude":"-80.336382","Latitude":"37.9994470","Dates":null,"Products":""},{"Type":"on-farm market","ModifyDate":"Jul 29th, 2014","Image":"default-onfarmmarket-4-3.jpg","ListingID":"700350","Name":"Garden Treasures WV","Description":null,"ContactName":"Melissa Dennison","ContactEmail":"gardentreasures@hotmail.com","ContactPhone":"304-364-5589","Website":"www.gardentreasureswv.com","Facebook":"https:\/\/www.facebook.com\/gardentreasureswv","Twitter":null,"Instagram":null,"Pinterest":null,"Youtube":null,"Blog":null,"Address":"HC 69 Box 30-Tate Creek Road, Clem, West Virginia 26623","State":"West Virginia","City":"Clem","Street":"HC 69 Box 30-Tate Creek Road","Zip":"26623","Longitude":"-80.914271","Latitude":"38.6342643","Dates":null,"Products":""},{"Type":"on-farm market","ModifyDate":"Mar 23rd, 2015","Image":"default-onfarmmarket-4-3.jpg","ListingID":"700059","Name":"Possum Tail Farm","Description":null,"ContactName":"Brian and Jennifer Kahly","ContactEmail":"possumtailfarm@gmail.com","ContactPhone":"304-789-5556","Website":"www.possumtailfarm.com","Facebook":"https:\/\/www.facebook.com\/PossumTailFarm","Twitter":null,"Instagram":null,"Pinterest":null,"Youtube":null,"Blog":null,"Address":"1771 Oak Grove Rd, Terra Alta, West Virginia 26764","State":"West Virginia","City":"Terra Alta","Street":"1771 Oak Grove Rd","Zip":"26764","Longitude":"-79.514470","Latitude":"39.4845137","Dates":null,"Products":""},{"Type":"on-farm market","ModifyDate":"May 11th, 2017","Image":"default-onfarmmarket-4-3.jpg","ListingID":"701408","Name":"TarryLeas Farms","Description":null,"ContactName":"Terence L. Washburn","ContactEmail":"tarryleas@yahoo.com","ContactPhone":"745-5353","Website":null,"Facebook":"https:\/\/www.facebook.com\/WVGrassfedMeats\/","Twitter":null,"Instagram":null,"Pinterest":null,"Youtube":null,"Blog":"https:\/\/wvgrassfedmeats.wordpress.com","Address":"State Route 19 , Good Hope, West Virginia 26385","State":"West Virginia","City":"Good Hope","Street":"State Route 19","Zip":"26385","Longitude":"-80.439108","Latitude":"39.175611","Dates":null,"Products":""},{"Type":"on-farm market","ModifyDate":"Nov 2nd, 2014","Image":"default-onfarmmarket-4-3.jpg","ListingID":"701160","Name":"Ridge View Farm","Description":null,"ContactName":"Suzanne Dietz","ContactEmail":"sbdietz@frontier.com","ContactPhone":"304-375-4989","Website":"ridgeviewfarmbeef.com","Facebook":null,"Twitter":null,"Instagram":null,"Pinterest":null,"Youtube":null,"Blog":null,"Address":"1260 Keller Lane, Williamstown, West Virginia 26187","State":"West Virginia","City":"Williamstown","Street":"1260 Keller Lane","Zip":"26187","Longitude":"-81.480821","Latitude":"39.345092","Dates":null,"Products":""},{"Type":"on-farm market","ModifyDate":"Oct 3rd, 2014","Image":"default-onfarmmarket-4-3.jpg","ListingID":"701123","Name":"Mountain Meadows Farm","Description":null,"ContactName":"John Stroud","ContactEmail":"john@mtmeadowsfarm.com","ContactPhone":"304-645-7169","Website":"http:\/\/www.mtmeadowsfarm.com","Facebook":"http:\/\/www.facebook.com\/mountainmeadowsfarmwv","Twitter":null,"Instagram":null,"Pinterest":null,"Youtube":null,"Blog":"http:\/\/www.mountainmeadowsfarmwv.com\/blog\/","Address":"699 Nolen Lane, Williamsburg, West Virginia 24991","State":"West Virginia","City":"Williamsburg","Street":"699 Nolen Lane","Zip":"24991","Longitude":"-80.492302","Latitude":"37.9701195","Dates":null,"Products":""},{"Type":"on-farm market","ModifyDate":"Sep 2nd, 2014","Image":"default-onfarmmarket-4-3.jpg","ListingID":"701005","Name":"JP Family Farms","Description":null,"ContactName":"Peggy Burgess","ContactEmail":"pdburgess@msn.com","ContactPhone":"304-873-2056","Website":null,"Facebook":null,"Twitter":null,"Instagram":null,"Pinterest":null,"Youtube":null,"Blog":null,"Address":"554 Joy Cabin Run Road, West Union, West Virginia 26456","State":"West Virginia","City":"West Union","Street":"554 Joy Cabin Run Road","Zip":"26456","Longitude":"-80.873430","Latitude":"39.226951","Dates":null,"Products":""}]