[{"Type":"farmers market","ModifyDate":"Aug 5th, 2020","Image":"default-farmersmarket-4-3.jpg","ListingID":"300207","Name":"Webster Springs Farmer's Market","Description":null,"ContactName":"Mike Hall","ContactEmail":"mlhall@mail.wvu.edu","ContactPhone":"304-847-2727","Website":null,"Facebook":null,"Twitter":null,"Instagram":null,"Pinterest":null,"Youtube":null,"Blog":null,"Address":"Baker's Island, Webster Springs, West Virginia 26288","State":"West Virginia","City":"Webster Springs","Street":"Baker's Island","Zip":"26288","Longitude":"-80.415459","Latitude":"38.478420","Dates":"July to October","Products":"Fresh fruits, Fresh vegetables, Baked goods, Honey"},{"Type":"farmers market","ModifyDate":"Jan 11th, 2021","Image":"default-farmersmarket-4-3.jpg","ListingID":"301371","Name":"Putnam Farmer's Market","Description":null,"ContactName":"Gene Bennett","ContactEmail":"theputnamfarmersmarket@gmail.com","ContactPhone":"3045615770","Website":"www.pfmwv.com","Facebook":"Putnam Farmers Market","Twitter":null,"Instagram":null,"Pinterest":null,"Youtube":null,"Blog":null,"Address":"1 Valley Park Drive, Hurricane, West Virginia 25526","State":"West Virginia","City":"Hurricane","Street":"1 Valley Park Drive","Zip":"25526","Longitude":"-81.995042","Latitude":"38.440335","Dates":"May to October","Products":"Fresh fruits, Fresh vegetables, Baked goods, Bedding plants, Canned or preserved fruits\/vegetables, Coffee\/tea, Crafts\/woodworking items, Cut flowers, Dry beans, Eggs, Fresh\/dried herbs, Honey, Maple products, Mushrooms, Poultry\/fowl meat and products, Prepared foods, Soap\/body care products"},{"Type":"farmers market","ModifyDate":"Jan 26th, 2021","Image":"default-farmersmarket-4-3.jpg","ListingID":"300363","Name":"Putnam Farmers Market","Description":null,"ContactName":"Elizabeth Mosteller","ContactEmail":"theputnamfarmersmarket@gmail.com","ContactPhone":"13045615770","Website":"https:\/\/www.pfmwv.com","Facebook":"putnamfarmersmarket","Twitter":null,"Instagram":null,"Pinterest":null,"Youtube":null,"Blog":null,"Address":"1 Valley Way, Hurricane, West Virginia 25526","State":"West Virginia","City":"Hurricane","Street":"1 Valley Way","Zip":"25526","Longitude":"-81.995540","Latitude":"38.441892","Dates":"May to October","Products":"Fresh fruits, Fresh vegetables, Baked goods, Canned or preserved fruits\/vegetables, Coffee\/tea, Crafts\/woodworking items, Eggs, Fresh\/dried herbs, Honey, Maple products, Mushrooms, Poultry\/fowl meat and products, Prepared foods, Red\/other non-poultry meat and products, Soap\/body care products"},{"Type":"farmers market","ModifyDate":"Jan 27th, 2021","Image":"default-farmersmarket-4-3.jpg","ListingID":"300810","Name":"Williamson Farmers Market","Description":null,"ContactName":"Kristin DeBoard","ContactEmail":"kdeboard@williamsonhealthwellness.com","ContactPhone":"304-235-3400","Website":"www.healthyinthehills.com","Facebook":"https:\/\/www.facebook.com\/WilliamsonFarmersMarket\/","Twitter":null,"Instagram":null,"Pinterest":null,"Youtube":null,"Blog":null,"Address":"54 3rd. Ave. W., Williamson, West Virginia 25661","State":"West Virginia","City":"Williamson","Street":"54 3rd. Ave. W.","Zip":"25661","Longitude":"-82.277984","Latitude":"37.674029","Dates":"June to September","Products":"Fresh fruits, Fresh vegetables, Baked goods, Canned or preserved fruits\/vegetables, Crafts\/woodworking items, Eggs, Fresh\/dried herbs, Honey, Mushrooms, Red\/other non-poultry meat and products, Soap\/body care products"},{"Type":"farmers market","ModifyDate":"Jan 4th, 2021","Image":"default-farmersmarket-4-3.jpg","ListingID":"300598","Name":"Charles Town Farmers Market","Description":null,"ContactName":"Fiona","ContactEmail":"charlestownfarmersmarket@gmail.com","ContactPhone":"304-579-0924","Website":"https:\/\/ctfm.jeffersongap.org","Facebook":"Charles Town Farmers Market, WV","Twitter":null,"Instagram":null,"Pinterest":null,"Youtube":null,"Blog":null,"Address":"100 block of South Samuel Street, Charles Town, West Virginia 25414","State":"West Virginia","City":"Charles Town","Street":"100 block of South Samuel Street","Zip":"25414","Longitude":"-77.858454","Latitude":"39.289073","Dates":"May to October","Products":"Fresh fruits, Fresh vegetables, Baked goods, Bedding plants, Canned or preserved fruits\/vegetables, Coffee\/tea, Crafts\/woodworking items, Cut flowers, Dairy products., Eggs, Fish\/seafood, Fresh\/dried herbs, Honey, Juices\/non-alcoholic ciders, Maple products, Mushrooms, Poultry\/fowl meat and products, Red\/other non-poultry meat and products, Soap\/body care products"},{"Type":"farmers market","ModifyDate":"Mar 27th, 2023","Image":"default-farmersmarket-4-3.jpg","ListingID":"313639","Name":"Alderson Community Market","Description":null,"ContactName":null,"ContactEmail":"aldersonmarket@gmail.com","ContactPhone":"304-445-7893","Website":"http:\/\/aldersonfoodhub.org\/community-market.html","Facebook":"https:\/\/www.facebook.com\/aldersonfood\/","Twitter":null,"Instagram":null,"Pinterest":null,"Youtube":null,"Blog":null,"Address":"109 Cherry Ave., Alderson, WV, 24910","State":"West Virginia","City":"Alderson","Street":"109 Cherry Ave.","Zip":"24910","Longitude":"-80.63532689919406","Latitude":"37.724808351790216","Dates":null,"Products":""},{"Type":"farmers market","ModifyDate":"Mar 27th, 2023","Image":"default-farmersmarket-4-3.jpg","ListingID":"313640","Name":"Almost Heaven Farmers' Market","Description":null,"ContactName":null,"ContactEmail":null,"ContactPhone":null,"Website":"http:\/\/www.cityofbluefield.com\/Default.asp?ID=228&pg=Almost+Heaven+Farmer%27s+Market","Facebook":null,"Twitter":null,"Instagram":null,"Pinterest":null,"Youtube":null,"Blog":null,"Address":"3977 E. Cumberland Rd., Bluefield, WV, 24701","State":"West Virginia","City":"Bluefield","Street":"3977 E. Cumberland Rd.","Zip":"24701","Longitude":"-81.18723968033382","Latitude":"37.26222546782276","Dates":null,"Products":""},{"Type":"farmers market","ModifyDate":"Mar 27th, 2023","Image":"default-farmersmarket-4-3.jpg","ListingID":"313641","Name":"Arnettsville Farmers' Market","Description":null,"ContactName":null,"ContactEmail":"mcmaster38@msn.com","ContactPhone":"304-278-2021","Website":null,"Facebook":null,"Twitter":null,"Instagram":null,"Pinterest":null,"Youtube":null,"Blog":null,"Address":"4120 Fairmont Rd., Arnettsville Community Center, Morgantown, WV, 26501","State":"West Virginia","City":"Morgantown","Street":"4120 Fairmont Rd.","Zip":"26501","Longitude":"-80.09147602913143","Latitude":"39.58785514173653","Dates":null,"Products":""},{"Type":"farmers market","ModifyDate":"Mar 27th, 2023","Image":"default-farmersmarket-4-3.jpg","ListingID":"313642","Name":"Barbour County Community Garden Market","Description":null,"ContactName":null,"ContactEmail":"gardenmarket@heartandhandhouse.org","ContactPhone":"304-457-5774","Website":"http:\/\/www.heartandhandhouse.org\/home\/ministries\/garden-market","Facebook":"https:\/\/www.facebook.com\/bccgardenmarket","Twitter":null,"Instagram":null,"Pinterest":null,"Youtube":null,"Blog":null,"Address":"106 S. Main St., Philippi, WV, 26416","State":"West Virginia","City":"Philippi","Street":"106 S. Main St.","Zip":"26416","Longitude":"-80.03707255001179","Latitude":"39.150611208869485","Dates":null,"Products":""},{"Type":"farmers market","ModifyDate":"Mar 27th, 2023","Image":"default-farmersmarket-4-3.jpg","ListingID":"313643","Name":"Beckley Uptown Farmers' Market","Description":null,"ContactName":null,"ContactEmail":"david.richmond@mail.wvu.edu","ContactPhone":"304-255-9321","Website":null,"Facebook":null,"Twitter":null,"Instagram":null,"Pinterest":null,"Youtube":null,"Blog":null,"Address":"W. Neville St. and Prince St., Beckley, WV, 25801","State":"West Virginia","City":"Beckley","Street":"W. Neville St. and Prince St.","Zip":"25801","Longitude":"-81.19569001775034","Latitude":"37.77607001260671","Dates":null,"Products":""},{"Type":"farmers market","ModifyDate":"Mar 27th, 2023","Image":"default-farmersmarket-4-3.jpg","ListingID":"313644","Name":"Berkeley Springs Farmers' Market","Description":null,"ContactName":null,"ContactEmail":"info@berkeleyspringsfarmersmarket.com","ContactPhone":"304-258-8400","Website":"http:\/\/www.berkeleyspringsfarmersmarket.org\/","Facebook":"https:\/\/www.facebook.com\/Berkeley.Springs.Farmers.Market","Twitter":null,"Instagram":null,"Pinterest":null,"Youtube":null,"Blog":null,"Address":"129 Fairfax St., Berkeley Springs, WV, 25411","State":"West Virginia","City":"Berkeley Springs","Street":"129 Fairfax St.","Zip":"25411","Longitude":"-78.22649896993605","Latitude":"39.62660300062345","Dates":null,"Products":""},{"Type":"farmers market","ModifyDate":"Mar 27th, 2023","Image":"default-farmersmarket-4-3.jpg","ListingID":"313645","Name":"Braxton County Tailgate Market","Description":null,"ContactName":null,"ContactEmail":"JNidiffer10@hotmail.com","ContactPhone":null,"Website":null,"Facebook":null,"Twitter":null,"Instagram":null,"Pinterest":null,"Youtube":null,"Blog":null,"Address":"742 Elk St., Gassaway, WV, 26624","State":"West Virginia","City":"Gassaway","Street":"742 Elk St.","Zip":"26624","Longitude":"-80.77183217380906","Latitude":"38.67565355029936","Dates":null,"Products":""},{"Type":"farmers market","ModifyDate":"Mar 27th, 2023","Image":"default-farmersmarket-4-3.jpg","ListingID":"313646","Name":"Bridgeport Farmers' Market","Description":null,"ContactName":null,"ContactEmail":"bridgeportfarmersmarket@yahoo.com","ContactPhone":null,"Website":"http:\/\/www.bridgeportfarmersmarket.com\/","Facebook":"https:\/\/www.facebook.com\/pages\/Bridgeport-Farmers-Market\/181228659667?sk=timeline","Twitter":null,"Instagram":null,"Pinterest":null,"Youtube":null,"Blog":null,"Address":"600 Marketplace Ave., Bridgeport, WV, 26330","State":"West Virginia","City":"Bridgeport","Street":"600 Marketplace Ave.","Zip":"26330","Longitude":"-80.2285329719207","Latitude":"39.32275599302852","Dates":null,"Products":""},{"Type":"farmers market","ModifyDate":"Mar 27th, 2023","Image":"default-farmersmarket-4-3.jpg","ListingID":"313647","Name":"Brooke County Farmers' Market","Description":null,"ContactName":null,"ContactEmail":"brookecountyfarmersmarket@hotmail.com","ContactPhone":"304-737-3666","Website":"https:\/\/www.facebook.com\/Brookecountyfarmersmarketwv","Facebook":null,"Twitter":null,"Instagram":null,"Pinterest":null,"Youtube":null,"Blog":null,"Address":"1500 Main St., Follansbee, WV, 26037","State":"West Virginia","City":"Follansbee","Street":"1500 Main St.","Zip":"26037","Longitude":"-80.59610730477215","Latitude":"40.33542447840023","Dates":null,"Products":""},{"Type":"farmers market","ModifyDate":"Mar 27th, 2023","Image":"default-farmersmarket-4-3.jpg","ListingID":"313648","Name":"Capitol Market","Description":null,"ContactName":null,"ContactEmail":"tammy@capitolmarket.net","ContactPhone":"304-334-1905","Website":"http:\/\/www.capitolmarket.net","Facebook":"https:\/\/www.facebook.com\/Capitol-Market-Charleston-WV-129154487155286","Twitter":null,"Instagram":null,"Pinterest":null,"Youtube":null,"Blog":null,"Address":"800 Smith St., Charleston, WV, 25301","State":"West Virginia","City":"Charleston","Street":"800 Smith St.","Zip":"25301","Longitude":"-81.62864547501457","Latitude":"38.352821975682716","Dates":null,"Products":""},{"Type":"farmers market","ModifyDate":"Mar 27th, 2023","Image":"default-farmersmarket-4-3.jpg","ListingID":"313649","Name":"Crook Brothers Market","Description":null,"ContactName":null,"ContactEmail":null,"ContactPhone":"304-252-7711","Website":null,"Facebook":null,"Twitter":null,"Instagram":null,"Pinterest":null,"Youtube":null,"Blog":null,"Address":"599 Market Road Beckley, WV 25801","State":"West Virginia","City":"BECKLEY","Street":"599 MARKET RD","Zip":"25801","Longitude":"-81.19060759525837","Latitude":"37.817546036503984","Dates":null,"Products":""},{"Type":"farmers market","ModifyDate":"Mar 27th, 2023","Image":"default-farmersmarket-4-3.jpg","ListingID":"313650","Name":"East Wheeling Farmers Market","Description":null,"ContactName":null,"ContactEmail":null,"ContactPhone":"304-218-1781","Website":null,"Facebook":null,"Twitter":null,"Instagram":null,"Pinterest":null,"Youtube":null,"Blog":null,"Address":"129 18th St. (in front of Laughlin Chapel) Wheeling, WV 26003","State":"West Virginia","City":"BETHLEHEM","Street":"129 18TH ST","Zip":"26003","Longitude":"-80.71578785363332","Latitude":"40.06271832809159","Dates":null,"Products":""},{"Type":"farmers market","ModifyDate":"Mar 27th, 2023","Image":"default-farmersmarket-4-3.jpg","ListingID":"313651","Name":"Fairview Farm Market","Description":null,"ContactName":null,"ContactEmail":"faberwana@aol.com","ContactPhone":"304-775-3366","Website":null,"Facebook":null,"Twitter":null,"Instagram":null,"Pinterest":null,"Youtube":null,"Blog":null,"Address":"318 Main St., Fairview, WV, 26570","State":"West Virginia","City":"Fairview","Street":"318 Main St.","Zip":"26570","Longitude":"-80.24768503394336","Latitude":"39.5923060130292","Dates":null,"Products":""},{"Type":"farmers market","ModifyDate":"Mar 27th, 2023","Image":"default-farmersmarket-4-3.jpg","ListingID":"313652","Name":"Farm to Table Market at Greenbrier...","Description":null,"ContactName":null,"ContactEmail":"jimmonroe@greenbriernurseries.com","ContactPhone":"304-256-5775","Website":"http:\/\/greenbriernurseries.com\/","Facebook":"https:\/\/www.facebook.com\/Farm-to-Table-Market-at-Greenbrier-Nurseries-541609199250941","Twitter":null,"Instagram":null,"Pinterest":null,"Youtube":null,"Blog":null,"Address":"225 Pinewood Dr., Beckley, WV, 25891","State":"West Virginia","City":"Beckley","Street":"225 Pinewood Dr.","Zip":"25891","Longitude":"-81.18874393619478","Latitude":"37.80921671241722","Dates":null,"Products":""},{"Type":"farmers market","ModifyDate":"Mar 27th, 2023","Image":"default-farmersmarket-4-3.jpg","ListingID":"313653","Name":"Farmers' Market of Boone County","Description":null,"ContactName":null,"ContactEmail":"mmsbunchbailey@hotmail.com","ContactPhone":"304-369-5869","Website":null,"Facebook":null,"Twitter":null,"Instagram":null,"Pinterest":null,"Youtube":null,"Blog":null,"Address":"Ellis Plaza on Main St., Madison, WV, 25130","State":"West Virginia","City":"Madison","Street":"Ellis Plaza on Main St.","Zip":"25130","Longitude":"-81.82291005223487","Latitude":"38.06233755299086","Dates":null,"Products":""},{"Type":"farmers market","ModifyDate":"Mar 27th, 2023","Image":"default-farmersmarket-4-3.jpg","ListingID":"313654","Name":"Fayette County Farmers' Market","Description":null,"ContactName":null,"ContactEmail":"fayettecountyfarmersmarket@gmail.com","ContactPhone":"304-673-0053","Website":null,"Facebook":"https:\/\/www.facebook.com\/FayetteCountyFarmersMarket","Twitter":null,"Instagram":null,"Pinterest":null,"Youtube":null,"Blog":null,"Address":"312 N. Court St., Fayetteville, WV, 25840","State":"West Virginia","City":"Fayetteville","Street":"312 N. Court St.","Zip":"25840","Longitude":"-81.10493792530555","Latitude":"38.05703404086667","Dates":null,"Products":""},{"Type":"farmers market","ModifyDate":"Mar 27th, 2023","Image":"default-farmersmarket-4-3.jpg","ListingID":"313655","Name":"Gilmer County Farmers' Market","Description":null,"ContactName":null,"ContactEmail":"glenvillemarket@gmail.com","ContactPhone":null,"Website":"http:\/\/glenvillemarket.blogspot.com\/","Facebook":"https:\/\/www.facebook.com\/glenvillemarket","Twitter":null,"Instagram":null,"Pinterest":null,"Youtube":null,"Blog":null,"Address":"720 N. Lewis St., Glenville, WV, 26351","State":"West Virginia","City":"Glenville","Street":"720 N. Lewis St.","Zip":"26351","Longitude":"-80.82365935068782","Latitude":"38.941178237589305","Dates":null,"Products":""},{"Type":"farmers market","ModifyDate":"Mar 27th, 2023","Image":"default-farmersmarket-4-3.jpg","ListingID":"313656","Name":"Greenbrier Valley Farmers' Market","Description":null,"ContactName":null,"ContactEmail":"GreenbrierValleyFarmersMarket@yahoo.com","ContactPhone":"304-647-8195","Website":"http:\/\/www.greenbrierfarmersmarket.com\/","Facebook":"https:\/\/www.facebook.com\/GreenbrierValleyFarmersMarket","Twitter":null,"Instagram":null,"Pinterest":null,"Youtube":null,"Blog":null,"Address":"111 Arbuckle Ln., Lewisburg, WV, 24901","State":"West Virginia","City":"Lewisburg","Street":"111 Arbuckle Ln.","Zip":"24901","Longitude":"-80.4431596014093","Latitude":"37.80422207436882","Dates":null,"Products":""},{"Type":"farmers market","ModifyDate":"Mar 27th, 2023","Image":"default-farmersmarket-4-3.jpg","ListingID":"313657","Name":"Greenfields Farm Market","Description":null,"ContactName":null,"ContactEmail":null,"ContactPhone":"304-263-6225","Website":null,"Facebook":"https:\/\/www.facebook.com\/Greenfields-Farm-Market-277293702472765","Twitter":null,"Instagram":null,"Pinterest":null,"Youtube":null,"Blog":null,"Address":"135 Copperhead Ln., Martinsburg, WV, 25403","State":"West Virginia","City":"Martinsburg","Street":"135 Copperhead Ln.","Zip":"25403","Longitude":"-78.03197661550344","Latitude":"39.48224254538281","Dates":null,"Products":""},{"Type":"farmers market","ModifyDate":"Mar 27th, 2023","Image":"default-farmersmarket-4-3.jpg","ListingID":"313658","Name":"Grow OV Mobile Farmers Market","Description":null,"ContactName":null,"ContactEmail":null,"ContactPhone":"304-233-4769","Website":"http:\/\/www.growov.org","Facebook":"http:\/\/www.facebook.com\/growov","Twitter":null,"Instagram":null,"Pinterest":null,"Youtube":null,"Blog":null,"Address":"1006 Grandview st Wheeling, WV 26003 We visit 15 stops in the Wheeling area. Please see below for a full schedule.","State":"West Virginia","City":"WHEELING","Street":"1006 GRANDVIEW ST","Zip":"26003","Longitude":"-80.71878932875633","Latitude":"40.07043318343467","Dates":null,"Products":""},{"Type":"farmers market","ModifyDate":"Mar 27th, 2023","Image":"default-farmersmarket-4-3.jpg","ListingID":"313659","Name":"Hometown Marketers","Description":null,"ContactName":null,"ContactEmail":null,"ContactPhone":null,"Website":"http:\/\/www.frontiernet.net\/~hattieshardware\/page4.html","Facebook":null,"Twitter":null,"Instagram":null,"Pinterest":null,"Youtube":null,"Blog":null,"Address":"52 Waynesburg Ave., Cameron, WV, 26033","State":"West Virginia","City":"Cameron","Street":"52 Waynesburg Ave.","Zip":"26033","Longitude":"-80.56528382181266","Latitude":"39.828922241157755","Dates":null,"Products":""},{"Type":"farmers market","ModifyDate":"Mar 27th, 2023","Image":"default-farmersmarket-4-3.jpg","ListingID":"313660","Name":"Inwood Farmers Market","Description":null,"ContactName":null,"ContactEmail":null,"ContactPhone":"304-229-5011","Website":null,"Facebook":null,"Twitter":null,"Instagram":null,"Pinterest":null,"Youtube":null,"Blog":null,"Address":"178 Pilgrim Street Inwood, WV 25428","State":"West Virginia","City":"INWOOD","Street":"178 PILGRIM ST","Zip":"25428","Longitude":"-78.04314272145356","Latitude":"39.360965649456006","Dates":null,"Products":""},{"Type":"farmers market","ModifyDate":"Mar 27th, 2023","Image":"default-farmersmarket-4-3.jpg","ListingID":"313661","Name":"Kimball Farmers' Market","Description":null,"ContactName":null,"ContactEmail":"creeksidefarm2014@gmail.com","ContactPhone":"304-800-7787","Website":null,"Facebook":null,"Twitter":null,"Instagram":null,"Pinterest":null,"Youtube":null,"Blog":null,"Address":"138 E. Main St., Kimball, WV, 24853","State":"West Virginia","City":"Kimball","Street":"138 E. Main St.","Zip":"24853","Longitude":"-81.50683712862025","Latitude":"37.42643913877544","Dates":null,"Products":""},{"Type":"farmers market","ModifyDate":"Mar 27th, 2023","Image":"default-farmersmarket-4-3.jpg","ListingID":"313662","Name":"Kingwood Farmers' Market","Description":null,"ContactName":null,"ContactEmail":"Bill.Shockey@mail.wvu.edu","ContactPhone":"304-329-1391","Website":null,"Facebook":null,"Twitter":null,"Instagram":null,"Pinterest":null,"Youtube":null,"Blog":null,"Address":"106 W. Main St., Kingwood, WV, 26537","State":"West Virginia","City":"Kingwood","Street":"106 W. Main St.","Zip":"26537","Longitude":"-79.68811307524948","Latitude":"39.47201934009441","Dates":null,"Products":""},{"Type":"farmers market","ModifyDate":"Mar 27th, 2023","Image":"default-farmersmarket-4-3.jpg","ListingID":"313663","Name":"Lewisburg Farmers' Market","Description":null,"ContactName":null,"ContactEmail":"lewisburgfarmersmarket@gmail.com","ContactPhone":"814-777-0562","Website":"http:\/\/lewisburgfarmersmarket.com\/","Facebook":"https:\/\/www.facebook.com\/LewisburgFarmersMarket","Twitter":null,"Instagram":null,"Pinterest":null,"Youtube":null,"Blog":null,"Address":"214 E. Washington St., Lewisburg, WV, 24901","State":"West Virginia","City":"Lewisburg","Street":"214 E. Washington St.","Zip":"24901","Longitude":"-80.44430369186784","Latitude":"37.80104792281453","Dates":null,"Products":""},{"Type":"farmers market","ModifyDate":"Mar 27th, 2023","Image":"default-farmersmarket-4-3.jpg","ListingID":"313664","Name":"Logan County Farmers' Market","Description":null,"ContactName":null,"ContactEmail":null,"ContactPhone":null,"Website":null,"Facebook":null,"Twitter":null,"Instagram":null,"Pinterest":null,"Youtube":null,"Blog":null,"Address":"US Route 119 on Old Logan Rd., Chapmanville, WV, 25508","State":"West Virginia","City":"Chapmanville","Street":"US Route 119 on Old Logan Rd.","Zip":"25508","Longitude":"-82.00486084217005","Latitude":"37.93560982587639","Dates":null,"Products":""},{"Type":"farmers market","ModifyDate":"Mar 27th, 2023","Image":"default-farmersmarket-4-3.jpg","ListingID":"313665","Name":"Lost River Farmers' Market","Description":null,"ContactName":null,"ContactEmail":"farmhouse@hardynet.com","ContactPhone":"304-897-8207","Website":null,"Facebook":"https:\/\/www.facebook.com\/Lost-River-Farmers-Market-136533009882924\/","Twitter":null,"Instagram":null,"Pinterest":null,"Youtube":null,"Blog":null,"Address":"1089 Mill Gap Rd., Lost City, WV, 26810","State":"West Virginia","City":"Lost City","Street":"1089 Mill Gap Rd.","Zip":"26810","Longitude":"-78.75667396464799","Latitude":"38.96718901925323","Dates":null,"Products":""},{"Type":"farmers market","ModifyDate":"Mar 27th, 2023","Image":"default-farmersmarket-4-3.jpg","ListingID":"313666","Name":"Mainstreet Martinsburg Farmers' Market","Description":null,"ContactName":null,"ContactEmail":"rlewis@mainstreetmartinsburg.com","ContactPhone":"304-262-4200","Website":"http:\/\/www.mainstreetmartinsburg.com\/","Facebook":null,"Twitter":null,"Instagram":null,"Pinterest":null,"Youtube":null,"Blog":null,"Address":"King and Queen St., Public Square, Martinsburg, WV, 25401","State":"West Virginia","City":"Martinsburg","Street":"King and Queen St.","Zip":"25401","Longitude":"-77.96395999284645","Latitude":"39.45624999676656","Dates":null,"Products":""},{"Type":"farmers market","ModifyDate":"Mar 27th, 2023","Image":"default-farmersmarket-4-3.jpg","ListingID":"313667","Name":"Market at Hendricks Station","Description":null,"ContactName":null,"ContactEmail":null,"ContactPhone":null,"Website":null,"Facebook":"https:\/\/www.facebook.com\/Hendricks-Station-128540163833144\/","Twitter":null,"Instagram":null,"Pinterest":null,"Youtube":null,"Blog":null,"Address":"504 Main St., Hendricks, WV, 26271","State":"West Virginia","City":"Hendricks","Street":"504 Main St.","Zip":"26271","Longitude":"-79.63255601917979","Latitude":"39.07505202064061","Dates":null,"Products":""},{"Type":"farmers market","ModifyDate":"Mar 27th, 2023","Image":"default-farmersmarket-4-3.jpg","ListingID":"313668","Name":"Mason County Farmers' Market","Description":null,"ContactName":null,"ContactEmail":"grannycst@hotmail.com","ContactPhone":"304-675-5412","Website":null,"Facebook":null,"Twitter":null,"Instagram":null,"Pinterest":null,"Youtube":null,"Blog":null,"Address":"1st St., Under the Jones Bridge, Point Pleasant, WV, 25550","State":"West Virginia","City":"Point Pleasant","Street":"1st St.","Zip":"25550","Longitude":"-82.12761109502337","Latitude":"38.83154941939624","Dates":null,"Products":""},{"Type":"farmers market","ModifyDate":"Mar 27th, 2023","Image":"default-farmersmarket-4-3.jpg","ListingID":"313669","Name":"Mercer County Tailgate Produce Market","Description":null,"ContactName":null,"ContactEmail":"jodi.richmond@mail.wvu.edu","ContactPhone":"304-425-3079","Website":"http:\/\/mercer.ext.wvu.edu\/agriculture_natural_resources\/mercer_county_tailgate_produce_market","Facebook":"https:\/\/www.facebook.com\/pages\/Mercer-County-Tailgate-Produce-Market\/471664046177003","Twitter":null,"Instagram":null,"Pinterest":null,"Youtube":null,"Blog":null,"Address":"1391 Stafford Dr., Mercer County Technical Education Center Parking Lot, Princeton, WV, 24740","State":"West Virginia","City":"Princeton","Street":"1391 Stafford Dr.","Zip":"24740","Longitude":"-81.10430336604888","Latitude":"37.3604405428098","Dates":null,"Products":""},{"Type":"farmers market","ModifyDate":"Mar 27th, 2023","Image":"default-farmersmarket-4-3.jpg","ListingID":"313670","Name":"Mineral County Farmers' Market","Description":null,"ContactName":null,"ContactEmail":"stacey.hamric@mail.wvu.edu","ContactPhone":"304-788-3621","Website":null,"Facebook":"http:\/\/www.facebook.com\/pages\/Mineral-County-Farmers-Market\/139241596089005","Twitter":null,"Instagram":null,"Pinterest":null,"Youtube":null,"Blog":null,"Address":"U.S. 220, Keyser Assembly of God, Keyser, WV, 26726","State":"West Virginia","City":"Keyser","Street":"U.S. 220","Zip":"26726","Longitude":"-78.98219226247238","Latitude":"39.43616754315637","Dates":null,"Products":""},{"Type":"farmers market","ModifyDate":"Mar 27th, 2023","Image":"default-farmersmarket-4-3.jpg","ListingID":"313671","Name":"Montgomery Farmers' Market","Description":null,"ContactName":null,"ContactEmail":"ukvedc@wvdsl.net","ContactPhone":"304-981-6400","Website":null,"Facebook":null,"Twitter":null,"Instagram":null,"Pinterest":null,"Youtube":null,"Blog":null,"Address":"702 3rd Ave., Montgomery, WV, 25136","State":"West Virginia","City":"Montgomery","Street":"702 3rd Ave.","Zip":"25136","Longitude":"-81.32842061651752","Latitude":"38.18069591128126","Dates":null,"Products":""},{"Type":"farmers market","ModifyDate":"Mar 27th, 2023","Image":"default-farmersmarket-4-3.jpg","ListingID":"313672","Name":"Morgantown Farmers' Market","Description":null,"ContactName":null,"ContactEmail":"morgantownfarmersmarket@gmail.com","ContactPhone":null,"Website":"http:\/\/www.morgantownfarmers.org\/morgantown-farmers-market.html","Facebook":"https:\/\/www.facebook.com\/MorgantownFarmersMarket","Twitter":null,"Instagram":null,"Pinterest":null,"Youtube":null,"Blog":null,"Address":"400 Spruce St., Morgantown, WV, 26505","State":"West Virginia","City":"Morgantown","Street":"400 Spruce St.","Zip":"26505","Longitude":"-79.95404410844628","Latitude":"39.63047396452723","Dates":null,"Products":""},{"Type":"farmers market","ModifyDate":"Mar 27th, 2023","Image":"default-farmersmarket-4-3.jpg","ListingID":"313673","Name":"Pocahontas County Farmers' Market","Description":null,"ContactName":null,"ContactEmail":"mtnlaska@gmail.com","ContactPhone":null,"Website":"https:\/\/www.facebook.com\/PocahontasCountyFarmersMarket","Facebook":null,"Twitter":null,"Instagram":null,"Pinterest":null,"Youtube":null,"Blog":null,"Address":"1st Ave., Next to the Mini Park, Marlinton, WV, 24954","State":"West Virginia","City":"Marlinton","Street":"1st Ave.","Zip":"24954","Longitude":"-80.09778358849684","Latitude":"38.22108835296848","Dates":null,"Products":""},{"Type":"farmers market","ModifyDate":"Mar 27th, 2023","Image":"default-farmersmarket-4-3.jpg","ListingID":"313674","Name":"Point Park Marketplace","Description":null,"ContactName":null,"ContactEmail":"kgant@parkersburg-wv.com","ContactPhone":"304-424-8416","Website":"http:\/\/pointparkmarketplace.com","Facebook":"https:\/\/www.facebook.com\/pages\/Point-Park-Marketplace\/354915743984","Twitter":null,"Instagram":null,"Pinterest":null,"Youtube":null,"Blog":null,"Address":"113 Ann St., Parkersburg, WV, 26101","State":"West Virginia","City":"Parkersburg","Street":"113 Ann St.","Zip":"26101","Longitude":"-81.5667334706895","Latitude":"39.26533747255742","Dates":null,"Products":""},{"Type":"farmers market","ModifyDate":"Mar 27th, 2023","Image":"default-farmersmarket-4-3.jpg","ListingID":"313675","Name":"Preston Farmers' Market","Description":null,"ContactName":null,"ContactEmail":"prestonfarmersmarket@frontier.com","ContactPhone":"304-789-2788","Website":null,"Facebook":null,"Twitter":null,"Instagram":null,"Pinterest":null,"Youtube":null,"Blog":null,"Address":"345 Sanders St., Terra Alta, WV, 26764","State":"West Virginia","City":"Terra Alta","Street":"345 Sanders St.","Zip":"26764","Longitude":"-79.54060788062469","Latitude":"39.45251308191082","Dates":null,"Products":""},{"Type":"farmers market","ModifyDate":"Mar 27th, 2023","Image":"default-farmersmarket-4-3.jpg","ListingID":"313676","Name":"Pullman Square Farmers' Market","Description":null,"ContactName":null,"ContactEmail":"kymyork-blake@clearchannel.com","ContactPhone":"304-633-1108","Website":null,"Facebook":null,"Twitter":null,"Instagram":null,"Pinterest":null,"Youtube":null,"Blog":null,"Address":"285 9th St. , Pullman Square Stage, 3rd Ave., next to Starbucks, Huntington, WV, 25701","State":"West Virginia","City":"Huntington","Street":"285 9th St.","Zip":"25701","Longitude":"-82.44431404919109","Latitude":"38.42228237705599","Dates":null,"Products":""},{"Type":"farmers market","ModifyDate":"Mar 27th, 2023","Image":"default-farmersmarket-4-3.jpg","ListingID":"313677","Name":"Ritchie County Farmers' Market","Description":null,"ContactName":null,"ContactEmail":"hansrcfrn@yahoo.com","ContactPhone":"304-643-4187","Website":null,"Facebook":"https:\/\/www.facebook.com\/pages\/Ritchie-County-Farmers-Market\/198862033489278","Twitter":null,"Instagram":null,"Pinterest":null,"Youtube":null,"Blog":null,"Address":"1501 E. Main St., Harrisville, WV, 26362","State":"West Virginia","City":"Harrisville","Street":"1501 E. Main St.","Zip":"26362","Longitude":"-81.04118103209937","Latitude":"39.21457298994744","Dates":null,"Products":""},{"Type":"farmers market","ModifyDate":"Mar 27th, 2023","Image":"default-farmersmarket-4-3.jpg","ListingID":"313678","Name":"Romney Farmers' Market","Description":null,"ContactName":null,"ContactEmail":"gingercakesbakeshop@gmail.com","ContactPhone":"703-475-1845","Website":"http:\/\/romneywvfarmersmarket.weebly.com\/","Facebook":"https:\/\/www.facebook.com\/RomneyFarmersMarket","Twitter":null,"Instagram":null,"Pinterest":null,"Youtube":null,"Blog":null,"Address":"1000 Heritage Cir., Romney, WV, 26757","State":"West Virginia","City":"Romney","Street":"1000 Heritage Cir.","Zip":"26757","Longitude":"-78.70159563412317","Latitude":"39.329235504325176","Dates":null,"Products":""},{"Type":"farmers market","ModifyDate":"Mar 27th, 2023","Image":"default-farmersmarket-4-3.jpg","ListingID":"313679","Name":"Shepherdstown Farmers' Market","Description":null,"ContactName":null,"ContactEmail":null,"ContactPhone":null,"Website":null,"Facebook":"https:\/\/www.facebook.com\/ShepherdstownFarmersMarket","Twitter":null,"Instagram":null,"Pinterest":null,"Youtube":null,"Blog":null,"Address":"100 S. King St., Shepherdstown, WV, 25443","State":"West Virginia","City":"Shepherdstown","Street":"100 S. King St.","Zip":"25443","Longitude":"-77.80590220046766","Latitude":"39.43068095236531","Dates":null,"Products":""},{"Type":"farmers market","ModifyDate":"Mar 27th, 2023","Image":"default-farmersmarket-4-3.jpg","ListingID":"313680","Name":"South Morgantown Community Farmers' Market","Description":null,"ContactName":null,"ContactEmail":"kenyonpat@aol.com","ContactPhone":null,"Website":"http:\/\/www.tourmorgantown.com\/business\/south-community-farmers-market\/","Facebook":null,"Twitter":null,"Instagram":null,"Pinterest":null,"Youtube":null,"Blog":null,"Address":"1966 Grafton Rd., Morgantown, WV, 26508","State":"West Virginia","City":"Morgantown","Street":"1966 Grafton Rd.","Zip":"26508","Longitude":"-79.93427543391802","Latitude":"39.54491159838781","Dates":null,"Products":""},{"Type":"farmers market","ModifyDate":"Mar 27th, 2023","Image":"default-farmersmarket-4-3.jpg","ListingID":"313681","Name":"Summers County Farmers' Market","Description":null,"ContactName":null,"ContactEmail":"davidrichmond@mail.wvu.edu","ContactPhone":"304-255-9321","Website":null,"Facebook":"https:\/\/www.facebook.com\/summerscountyfarmersmarket","Twitter":null,"Instagram":null,"Pinterest":null,"Youtube":null,"Blog":null,"Address":"505 Stokes Dr., Hinton, WV, 25951","State":"West Virginia","City":"Hinton","Street":"505 Stokes Dr.","Zip":"25951","Longitude":"-80.88908603456295","Latitude":"37.65807699768715","Dates":null,"Products":""},{"Type":"farmers market","ModifyDate":"Mar 27th, 2023","Image":"default-farmersmarket-4-3.jpg","ListingID":"313682","Name":"Summersville Tailgate Market","Description":null,"ContactName":null,"ContactEmail":"brian.sparks@mail.wvu.edu","ContactPhone":"304-872-7894","Website":null,"Facebook":null,"Twitter":null,"Instagram":null,"Pinterest":null,"Youtube":null,"Blog":null,"Address":"Broad St. and Rte. 19, Summersville, WV, 26651","State":"West Virginia","City":"Summersville","Street":"Broad St. and Rte. 19","Zip":"26651","Longitude":"-80.84194000849591","Latitude":"38.2684800020738","Dates":null,"Products":""},{"Type":"farmers market","ModifyDate":"Mar 27th, 2023","Image":"default-farmersmarket-4-3.jpg","ListingID":"313683","Name":"The Lewisburg Farmers' Market","Description":null,"ContactName":null,"ContactEmail":null,"ContactPhone":null,"Website":"http:\/\/lewisburgfarmersmarket.com","Facebook":"http:\/\/www.facebook.com\/LewisburgFarmersMarket\/","Twitter":null,"Instagram":null,"Pinterest":null,"Youtube":null,"Blog":null,"Address":"214 East Washington Steet Parking lot between Post Office and Churc Lewisburg, WV 24901 Open Saturdays April 14, 2018- the end of October, 8:30am-1pm","State":"West Virginia","City":"LEWISBURG","Street":"214 E WASHINGTON ST","Zip":"24901","Longitude":"-80.44430369186784","Latitude":"37.80104792281453","Dates":null,"Products":""},{"Type":"farmers market","ModifyDate":"Mar 27th, 2023","Image":"default-farmersmarket-4-3.jpg","ListingID":"313684","Name":"The Serbian Sun Market","Description":null,"ContactName":null,"ContactEmail":null,"ContactPhone":"304-559-5341","Website":null,"Facebook":"http:\/\/www.facebook.com\/TheSerbianSunMarket","Twitter":null,"Instagram":null,"Pinterest":null,"Youtube":null,"Blog":null,"Address":"1000 Colliers Way Weirton, WV 26062","State":"West Virginia","City":"WEIRTON","Street":"1000 COLLIERS WAY","Zip":"26062","Longitude":"-80.53520011328276","Latitude":"40.38281491347026","Dates":null,"Products":""},{"Type":"farmers market","ModifyDate":"Mar 27th, 2023","Image":"default-farmersmarket-4-3.jpg","ListingID":"313685","Name":"Wayne County Farmers' Market","Description":null,"ContactName":null,"ContactEmail":"dstewart7552@yahoo.com","ContactPhone":"304-272-6422","Website":null,"Facebook":"https:\/\/www.facebook.com\/WayneFreshMarket","Twitter":null,"Instagram":null,"Pinterest":null,"Youtube":null,"Blog":null,"Address":"221 Central Ave., Wayne , WV, 25570","State":"West Virginia","City":"Wayne","Street":"221 Central Ave.","Zip":"25570","Longitude":"-82.44444053228642","Latitude":"38.22325129670026","Dates":null,"Products":""},{"Type":"farmers market","ModifyDate":"Mar 27th, 2023","Image":"default-farmersmarket-4-3.jpg","ListingID":"313686","Name":"Weirton Farmers' Market","Description":null,"ContactName":null,"ContactEmail":null,"ContactPhone":"304-564-3805","Website":null,"Facebook":"https:\/\/www.facebook.com\/WeirtonFarmersMarket","Twitter":null,"Instagram":null,"Pinterest":null,"Youtube":null,"Blog":null,"Address":"306 Penco Rd., Weirton, WV, 26062","State":"West Virginia","City":"Weirton","Street":"306 Penco Rd.","Zip":"26062","Longitude":"-80.54741028521248","Latitude":"40.40863125527409","Dates":null,"Products":""},{"Type":"farmers market","ModifyDate":"Mar 27th, 2023","Image":"default-farmersmarket-4-3.jpg","ListingID":"313687","Name":"West Side Farmers' Market","Description":null,"ContactName":null,"ContactEmail":"ashworthbrenda@Yahoo.com","ContactPhone":"304-542-2839","Website":"http:\/\/wsfmcharleston.com\/","Facebook":null,"Twitter":null,"Instagram":null,"Pinterest":null,"Youtube":null,"Blog":null,"Address":"Indiana Ave. and Washington St. E, Charleston, WV, 25302","State":"West Virginia","City":"Charleston","Street":"Indiana Ave. and Washington St. E","Zip":"25302","Longitude":"-81.64125002997054","Latitude":"38.36132998967605","Dates":null,"Products":""},{"Type":"farmers market","ModifyDate":"Mar 27th, 2023","Image":"default-farmersmarket-4-3.jpg","ListingID":"313688","Name":"Westover Farmers' Market","Description":null,"ContactName":null,"ContactEmail":"MorgantownFarmersMarket@gmail.com","ContactPhone":"304-291-7201","Website":"http:\/\/www.morgantownfarmers.org\/westover-farmers-market.html","Facebook":null,"Twitter":null,"Instagram":null,"Pinterest":null,"Youtube":null,"Blog":null,"Address":"801 Fairmont Rd., Morgantown, WV, 26501","State":"West Virginia","City":"Morgantown","Street":"801 Fairmont Rd.","Zip":"26501","Longitude":"-79.98068316822786","Latitude":"39.63336560715875","Dates":null,"Products":""},{"Type":"farmers market","ModifyDate":"Mar 27th, 2023","Image":"default-farmersmarket-4-3.jpg","ListingID":"313689","Name":"WVU Healthcare Farmers' Market","Description":null,"ContactName":null,"ContactEmail":"farmersmarket@hsc.wvu.edu","ContactPhone":"304-293-1820","Website":"http:\/\/www.hsc.wvu.edu\/wellness\/related-links\/farmer.aspx","Facebook":null,"Twitter":null,"Instagram":null,"Pinterest":null,"Youtube":null,"Blog":null,"Address":"8 Medical Center Dr., Blanchette Rockefeller Neuroscience Parking Lot, Morgantown, WV, 26505","State":"West Virginia","City":"Morgantown","Street":"8 Medical Center Dr.","Zip":"26505","Longitude":"-79.95936379345498","Latitude":"39.65341291178004","Dates":null,"Products":""},{"Type":"on-farm market","ModifyDate":"Apr 1st, 2015","Image":"default-onfarmmarket-4-3.jpg","ListingID":"700351","Name":"Green Family Farm","Description":null,"ContactName":"Betsy Green","ContactEmail":"gangreen@frontiernet.net","ContactPhone":"304-289-3565","Website":"greenfamilyfarm.org","Facebook":null,"Twitter":null,"Instagram":null,"Pinterest":null,"Youtube":null,"Blog":null,"Address":"Rt 1 Box 79A, Burlington, West Virginia 26710","State":"West Virginia","City":"Burlington","Street":"Rt 1 Box 79A","Zip":"26710","Longitude":"-78.869068","Latitude":"39.367164","Dates":null,"Products":""},{"Type":"on-farm market","ModifyDate":"Aug 29th, 2018","Image":"default-onfarmmarket-4-3.jpg","ListingID":"701460","Name":"Harmony Hill Farm","Description":null,"ContactName":"Christopher Gorman","ContactEmail":"harmonyhill.farm@yahoo.com","ContactPhone":"304-886-0547","Website":"www.HarmonyHillFarmWV.com","Facebook":null,"Twitter":null,"Instagram":null,"Pinterest":null,"Youtube":null,"Blog":null,"Address":"6920 Flowing Springs Rd, Shenandoah Junction, West Virginia 25442","State":"West Virginia","City":"Shenandoah Junction","Street":"6920 Flowing Springs Rd","Zip":"25442","Longitude":"-77.816832","Latitude":"39.3861820","Dates":null,"Products":""},{"Type":"on-farm market","ModifyDate":"Dec 1st, 2018","Image":"default-onfarmmarket-4-3.jpg","ListingID":"700812","Name":"L & M Farms","Description":null,"ContactName":"Marilyn Blake","ContactEmail":"mrfrank654@aol.com","ContactPhone":"3048383506","Website":null,"Facebook":"https:\/\/www.facebook.com\/pages\/L-M-Farms\/168574719871551","Twitter":null,"Instagram":null,"Pinterest":null,"Youtube":null,"Blog":null,"Address":"1806 Buffalo Creek Rd., Lost Creek, West Virginia 26385","State":"West Virginia","City":"Lost Creek","Street":"1806 Buffalo Creek Rd.","Zip":"26385","Longitude":"-80.440978","Latitude":"39.212277","Dates":null,"Products":""},{"Type":"on-farm market","ModifyDate":"Jan 12th, 2016","Image":"default-onfarmmarket-4-3.jpg","ListingID":"701311","Name":"Shepherd's Whey Creamery","Description":null,"ContactName":"Suzanne Behrmann","ContactEmail":"seedlings@earthlink.net","ContactPhone":"3042835203","Website":"shepherdswheycreamery.com","Facebook":"shepherd\\'s Whey Creamery","Twitter":null,"Instagram":null,"Pinterest":null,"Youtube":null,"Blog":null,"Address":"825 Jenny Wren Drive, Martinsburg, West Virginia 25404","State":"West Virginia","City":"Martinsburg","Street":"825 Jenny Wren Drive","Zip":"25404","Longitude":"-77.929560","Latitude":"39.461883","Dates":null,"Products":""},{"Type":"on-farm market","ModifyDate":"Jul 11th, 2016","Image":"default-onfarmmarket-4-3.jpg","ListingID":"701353","Name":"Wardensville Garden Market","Description":null,"ContactName":"Emma Kiser","ContactEmail":"emma@wardensvillegardenmarket.org","ContactPhone":"3048972083","Website":"wardensvillegardenmarket.org","Facebook":"https:\/\/www.facebook.com\/wardensvillegardenmarket\/","Twitter":null,"Instagram":null,"Pinterest":null,"Youtube":null,"Blog":null,"Address":"28813 SR 55, Wardensville, West Virginia 26851","State":"West Virginia","City":"Wardensville","Street":"28813 SR 55","Zip":"26851","Longitude":"-78.592018","Latitude":"39.0835447","Dates":null,"Products":""},{"Type":"on-farm market","ModifyDate":"Jul 26th, 2014","Image":"default-onfarmmarket-4-3.jpg","ListingID":"700173","Name":"Beeappy Farm","Description":null,"ContactName":"Jane Caswell","ContactEmail":"jane@beeappy.com","ContactPhone":"304-372-2280","Website":"beeappy.com","Facebook":"https:\/\/www.facebook.com\/BeeappyFarmLLC","Twitter":null,"Instagram":null,"Pinterest":null,"Youtube":null,"Blog":null,"Address":"1918 Brush Run Road, Gay, West Virginia 25244","State":"West Virginia","City":"Gay","Street":"1918 Brush Run Road","Zip":"25244","Longitude":"-81.555851","Latitude":"38.770123","Dates":null,"Products":""},{"Type":"on-farm market","ModifyDate":"Jul 26th, 2014","Image":"default-onfarmmarket-4-3.jpg","ListingID":"700263","Name":"Mountain Diamond Longhorns, LLC","Description":null,"ContactName":"Barbara Miller","ContactEmail":"mountaindiamondlonghorns2004@msn.com","ContactPhone":"3045682322","Website":null,"Facebook":null,"Twitter":null,"Instagram":null,"Pinterest":null,"Youtube":null,"Blog":null,"Address":"98 Atlantic Road, Tunnelton, West Virginia 26444","State":"West Virginia","City":"Tunnelton","Street":"98 Atlantic Road","Zip":"26444","Longitude":"-79.748395","Latitude":"39.39176","Dates":null,"Products":""},{"Type":"on-farm market","ModifyDate":"Jul 26th, 2014","Image":"default-onfarmmarket-4-3.jpg","ListingID":"700407","Name":"Sunshine Farm & Gardens","Description":null,"ContactName":"Barry Glick","ContactEmail":"barry@sunfarm.com","ContactPhone":"304-497-2208","Website":"www.sunfarm.com","Facebook":"https:\/\/www.facebook.com\/Glickster","Twitter":"https:\/\/www.twitter.com\/sunfarmtweets","Instagram":null,"Pinterest":null,"Youtube":null,"Blog":null,"Address":"696 Glicks Rd, Renick, West Virginia 24966","State":"West Virginia","City":"Renick","Street":"696 Glicks Rd","Zip":"24966","Longitude":"-80.437171","Latitude":"38.066520","Dates":null,"Products":""},{"Type":"on-farm market","ModifyDate":"Jul 27th, 2014","Image":"default-onfarmmarket-4-3.jpg","ListingID":"700001","Name":"Working H Farms","Description":null,"ContactName":"Terrie Hardesty","ContactEmail":"tj@workinghfarms.com","ContactPhone":"304-789-2225","Website":"www.workinghfarms.com","Facebook":"https:\/\/www.facebook.com\/workinghfarms","Twitter":null,"Instagram":null,"Pinterest":null,"Youtube":null,"Blog":null,"Address":"17 Reckart Mill, Terra Alta, West Virginia 26764","State":"West Virginia","City":"Terra Alta","Street":"17 Reckart Mill","Zip":"26764","Longitude":"-79.528025","Latitude":"39.5535670","Dates":null,"Products":""},{"Type":"on-farm market","ModifyDate":"Jul 27th, 2014","Image":"default-onfarmmarket-4-3.jpg","ListingID":"700413","Name":"White Oak Farm","Description":null,"ContactName":"Max and Anne Robinson","ContactEmail":"whiteoakberryfarm@gmail.com","ContactPhone":"304-497-3577","Website":"www.whiteoakberryfarm.com","Facebook":"https:\/\/www.facebook.com\/whiteoakberryfarm","Twitter":null,"Instagram":null,"Pinterest":null,"Youtube":null,"Blog":null,"Address":"1700 Brownstown Road, Renick, West Virginia 24966","State":"West Virginia","City":"Renick","Street":"1700 Brownstown Road","Zip":"24966","Longitude":"-80.336382","Latitude":"37.9994470","Dates":null,"Products":""},{"Type":"on-farm market","ModifyDate":"Jul 29th, 2014","Image":"default-onfarmmarket-4-3.jpg","ListingID":"700350","Name":"Garden Treasures WV","Description":null,"ContactName":"Melissa Dennison","ContactEmail":"gardentreasures@hotmail.com","ContactPhone":"304-364-5589","Website":"www.gardentreasureswv.com","Facebook":"https:\/\/www.facebook.com\/gardentreasureswv","Twitter":null,"Instagram":null,"Pinterest":null,"Youtube":null,"Blog":null,"Address":"HC 69 Box 30-Tate Creek Road, Clem, West Virginia 26623","State":"West Virginia","City":"Clem","Street":"HC 69 Box 30-Tate Creek Road","Zip":"26623","Longitude":"-80.914271","Latitude":"38.6342643","Dates":null,"Products":""},{"Type":"on-farm market","ModifyDate":"Mar 23rd, 2015","Image":"default-onfarmmarket-4-3.jpg","ListingID":"700059","Name":"Possum Tail Farm","Description":null,"ContactName":"Brian and Jennifer Kahly","ContactEmail":"possumtailfarm@gmail.com","ContactPhone":"304-789-5556","Website":"www.possumtailfarm.com","Facebook":"https:\/\/www.facebook.com\/PossumTailFarm","Twitter":null,"Instagram":null,"Pinterest":null,"Youtube":null,"Blog":null,"Address":"1771 Oak Grove Rd, Terra Alta, West Virginia 26764","State":"West Virginia","City":"Terra Alta","Street":"1771 Oak Grove Rd","Zip":"26764","Longitude":"-79.514470","Latitude":"39.4845137","Dates":null,"Products":""},{"Type":"on-farm market","ModifyDate":"May 11th, 2017","Image":"default-onfarmmarket-4-3.jpg","ListingID":"701408","Name":"TarryLeas Farms","Description":null,"ContactName":"Terence L. Washburn","ContactEmail":"tarryleas@yahoo.com","ContactPhone":"745-5353","Website":null,"Facebook":"https:\/\/www.facebook.com\/WVGrassfedMeats\/","Twitter":null,"Instagram":null,"Pinterest":null,"Youtube":null,"Blog":"https:\/\/wvgrassfedmeats.wordpress.com","Address":"State Route 19 , Good Hope, West Virginia 26385","State":"West Virginia","City":"Good Hope","Street":"State Route 19","Zip":"26385","Longitude":"-80.439108","Latitude":"39.175611","Dates":null,"Products":""},{"Type":"on-farm market","ModifyDate":"Nov 2nd, 2014","Image":"default-onfarmmarket-4-3.jpg","ListingID":"701160","Name":"Ridge View Farm","Description":null,"ContactName":"Suzanne Dietz","ContactEmail":"sbdietz@frontier.com","ContactPhone":"304-375-4989","Website":"ridgeviewfarmbeef.com","Facebook":null,"Twitter":null,"Instagram":null,"Pinterest":null,"Youtube":null,"Blog":null,"Address":"1260 Keller Lane, Williamstown, West Virginia 26187","State":"West Virginia","City":"Williamstown","Street":"1260 Keller Lane","Zip":"26187","Longitude":"-81.480821","Latitude":"39.345092","Dates":null,"Products":""},{"Type":"on-farm market","ModifyDate":"Oct 3rd, 2014","Image":"default-onfarmmarket-4-3.jpg","ListingID":"701123","Name":"Mountain Meadows Farm","Description":null,"ContactName":"John Stroud","ContactEmail":"john@mtmeadowsfarm.com","ContactPhone":"304-645-7169","Website":"http:\/\/www.mtmeadowsfarm.com","Facebook":"http:\/\/www.facebook.com\/mountainmeadowsfarmwv","Twitter":null,"Instagram":null,"Pinterest":null,"Youtube":null,"Blog":"http:\/\/www.mountainmeadowsfarmwv.com\/blog\/","Address":"699 Nolen Lane, Williamsburg, West Virginia 24991","State":"West Virginia","City":"Williamsburg","Street":"699 Nolen Lane","Zip":"24991","Longitude":"-80.492302","Latitude":"37.9701195","Dates":null,"Products":""},{"Type":"on-farm market","ModifyDate":"Sep 2nd, 2014","Image":"default-onfarmmarket-4-3.jpg","ListingID":"701005","Name":"JP Family Farms","Description":null,"ContactName":"Peggy Burgess","ContactEmail":"pdburgess@msn.com","ContactPhone":"304-873-2056","Website":null,"Facebook":null,"Twitter":null,"Instagram":null,"Pinterest":null,"Youtube":null,"Blog":null,"Address":"554 Joy Cabin Run Road, West Union, West Virginia 26456","State":"West Virginia","City":"West Union","Street":"554 Joy Cabin Run Road","Zip":"26456","Longitude":"-80.873430","Latitude":"39.226951","Dates":null,"Products":""}]