[{"Type":"farmers market","ModifyDate":"Feb 1st, 2021","Image":"default-farmersmarket-4-3.jpg","ListingID":"300444","Name":"Muldoon Farmers Market","Description":null,"ContactName":"Madison Mcenany","ContactEmail":"muldoonfarmersmarket@yahoo.com","ContactPhone":"907-529-0797","Website":"http:\/\/muldoonfarmersmarket.org","Facebook":"http:\/\/www.facebook.com\/muldoonfarmersmarket","Twitter":"http:\/\/twitter.com\/MuldoonFarmers","Instagram":null,"Pinterest":null,"Youtube":null,"Blog":null,"Address":"1301 Muldoon Road, Anchorage, Alaska 99504","State":"Alaska","City":"Anchorage","Street":"1301 Muldoon Road","Zip":"99504","Longitude":"-149.73118","Latitude":"61.2089910","Dates":"June to September","Products":"Fresh fruits, Fresh vegetables, Baked goods, Bedding plants, Canned or preserved fruits\/vegetables, Coffee\/tea, Crafts\/woodworking items, Cut flowers, Eggs, Fish\/seafood, Fresh\/dried herbs, Honey, Prepared foods, Soap\/body care products"},{"Type":"farmers market","ModifyDate":"Jan 11th, 2021","Image":"default-farmersmarket-4-3.jpg","ListingID":"301076","Name":"Soldotna Saturday Farmers Market","Description":null,"ContactName":"Elaine Howell","ContactEmail":"soldotnasaturdayfarmersmarket@gmail.com","ContactPhone":"907-394-2175","Website":"soldotnasaturdayfarmersmarket.com","Facebook":"Facebook.com\/soldotnasaturdayfarmersmarket","Twitter":null,"Instagram":null,"Pinterest":null,"Youtube":null,"Blog":null,"Address":"193 E. Corral Ave, Soldotna, Alaska 99669","State":"Alaska","City":"Soldotna","Street":"193 E. Corral Ave","Zip":"99669","Longitude":"-151.06758","Latitude":"60.493040","Dates":"June to September","Products":"Fresh vegetables, Baked goods, Canned or preserved fruits\/vegetables, Coffee\/tea, Crafts\/woodworking items, Cut flowers, Eggs, Fresh\/dried herbs, Honey, Mushrooms, Poultry\/fowl meat and products, Prepared foods, Soap\/body care products, Wild harvested forest products"},{"Type":"farmers market","ModifyDate":"Jan 4th, 2021","Image":"default-farmersmarket-4-3.jpg","ListingID":"300235","Name":"Homer Farmers Market","Description":null,"ContactName":"Robbi Mixon","ContactEmail":"manager@homerfarmersmarket.org","ContactPhone":"907-299-7540","Website":"www.homerfarmersmarket.org","Facebook":"https:\/\/www.facebook.com\/homerakfarmersmarket\/","Twitter":null,"Instagram":null,"Pinterest":null,"Youtube":null,"Blog":null,"Address":"Ocean Drive, Homer, Alaska 99603","State":"Alaska","City":"Homer","Street":"Ocean Drive","Zip":"99603","Longitude":"-151.51234","Latitude":"59.638109","Dates":"May to September","Products":"Fresh fruits, Fresh vegetables, Baked goods, Bedding plants, Canned or preserved fruits\/vegetables, Coffee\/tea, Crafts\/woodworking items, Cut flowers, Eggs, Fish\/seafood, Fresh\/dried herbs, Grains\/flour, Honey, Juices\/non-alcoholic ciders, Mushrooms, Nursery stock, Pet food, Poultry\/fowl meat and products, Prepared foods, Soap\/body care products, Wild harvested forest products"},{"Type":"farmers market","ModifyDate":"Mar 20th, 2023","Image":"default-farmersmarket-4-3.jpg","ListingID":"308229","Name":"Anchor Point Saturday Farmers' Market","Description":null,"ContactName":null,"ContactEmail":"dawnsky1@hotmail.com","ContactPhone":"907-235-2264","Website":"","Facebook":"","Twitter":null,"Instagram":null,"Pinterest":null,"Youtube":null,"Blog":null,"Address":"Sterling Hwy. & Milo Fritz Rd., Anchor Point, AK 99556","State":"Alaska","City":"Anchor Point","Street":"Sterling Hwy. & Milo Fritz Rd.","Zip":"99556","Longitude":"-151.83330001860546","Latitude":"59.779630014570245","Dates":null,"Products":""},{"Type":"farmers market","ModifyDate":"Mar 20th, 2023","Image":"default-farmersmarket-4-3.jpg","ListingID":"308230","Name":"Alaska Pacific University Farmers' Market","Description":null,"ContactName":null,"ContactEmail":"cpavadore@alaskapacific.edu","ContactPhone":"907-564-8230","Website":"","Facebook":"","Twitter":null,"Instagram":null,"Pinterest":null,"Youtube":null,"Blog":null,"Address":"4101 University Dr., Anchorage, AK 99508","State":"Alaska","City":"Anchorage","Street":"4101 University Dr.","Zip":"99508","Longitude":"-149.80606570598204","Latitude":"61.18834840755866","Dates":null,"Products":""},{"Type":"farmers market","ModifyDate":"Mar 20th, 2023","Image":"default-farmersmarket-4-3.jpg","ListingID":"308231","Name":"Anchorage Farmers Market","Description":null,"ContactName":null,"ContactEmail":"","ContactPhone":"","Website":"http:\/\/www.anchoragefarmersmarket.org","Facebook":"","Twitter":null,"Instagram":null,"Pinterest":null,"Youtube":null,"Blog":null,"Address":"1420 Cordova St, Anchorage, AK 99501","State":"Alaska","City":"Anchorage","Street":"1420 Cordova St","Zip":"99501","Longitude":"-149.87920238543765","Latitude":"61.20844983116041","Dates":null,"Products":""},{"Type":"farmers market","ModifyDate":"Mar 20th, 2023","Image":"default-farmersmarket-4-3.jpg","ListingID":"308232","Name":"Anchorage Market & Festival","Description":null,"ContactName":null,"ContactEmail":"","ContactPhone":"","Website":"https:\/\/twitter.com\/AnchorageMarket*http:\/\/www.anchoragemarkets.com","Facebook":"","Twitter":null,"Instagram":null,"Pinterest":null,"Youtube":null,"Blog":null,"Address":"E St & W 3rd Ave, Anchorage, AK 99501","State":"Alaska","City":"Anchorage","Street":"E St & W 3rd Ave","Zip":"99501","Longitude":"-149.89138002036668","Latitude":"61.21953000371323","Dates":null,"Products":""},{"Type":"farmers market","ModifyDate":"Mar 20th, 2023","Image":"default-farmersmarket-4-3.jpg","ListingID":"308233","Name":"Anchorage Midtown Market","Description":null,"ContactName":null,"ContactEmail":"","ContactPhone":"","Website":"","Facebook":"https:\/\/facebook.com\/AnchorageMidtownFarmersMarket*https:\/\/www.facebook.com\/AnchorageMidtownFarmersMarket","Twitter":null,"Instagram":null,"Pinterest":null,"Youtube":null,"Blog":null,"Address":"900 E Benson Blvd, Anchorage, AK 99508","State":"Alaska","City":"Anchorage","Street":"900 E Benson Blvd","Zip":"99508","Longitude":"-149.8655843711945","Latitude":"61.19341965596916","Dates":null,"Products":""},{"Type":"farmers market","ModifyDate":"Mar 20th, 2023","Image":"default-farmersmarket-4-3.jpg","ListingID":"308234","Name":"Central Kenai Peninsula Farmers' Market","Description":null,"ContactName":null,"ContactEmail":"clayton@alaska.net","ContactPhone":"907-262-5463","Website":"","Facebook":"","Twitter":null,"Instagram":null,"Pinterest":null,"Youtube":null,"Blog":null,"Address":"E. Corral Ave. and Kenai Spur Hwy., Soldotna, AK 99669","State":"Alaska","City":"Soldotna","Street":"E. Corral Ave. and Kenai Spur Hwy.","Zip":"99669","Longitude":"-151.06730999009093","Latitude":"60.49321001418551","Dates":null,"Products":""},{"Type":"farmers market","ModifyDate":"Mar 20th, 2023","Image":"default-farmersmarket-4-3.jpg","ListingID":"308235","Name":"Depot Farm Market","Description":null,"ContactName":null,"ContactEmail":"depotfarmmarket@gmail.com","ContactPhone":"","Website":"","Facebook":"https:\/\/www.facebook.com\/depotfarmmarket","Twitter":null,"Instagram":null,"Pinterest":null,"Youtube":null,"Blog":null,"Address":"610 S. Valley Way, Palmer, AK 99645","State":"Alaska","City":"Palmer","Street":"610 S. Valley Way","Zip":"99645","Longitude":"-149.1135659763187","Latitude":"61.60002901293339","Dates":null,"Products":""},{"Type":"farmers market","ModifyDate":"Mar 20th, 2023","Image":"default-farmersmarket-4-3.jpg","ListingID":"308236","Name":"Eagle River Farmers Market","Description":null,"ContactName":null,"ContactEmail":"","ContactPhone":"","Website":"","Facebook":"","Twitter":null,"Instagram":null,"Pinterest":null,"Youtube":null,"Blog":null,"Address":"10527 Vfw Rd, Eagle River, AK 99577","State":"Alaska","City":"Eagle River","Street":"10527 Vfw Rd","Zip":"99577","Longitude":"-149.5733582725163","Latitude":"61.31568907084171","Dates":null,"Products":""},{"Type":"farmers market","ModifyDate":"Mar 20th, 2023","Image":"default-farmersmarket-4-3.jpg","ListingID":"308237","Name":"Ester Community Market","Description":null,"ContactName":null,"ContactEmail":"market@esteralaska.com","ContactPhone":"","Website":"","Facebook":"https:\/\/www.facebook.com\/pages\/Ester-Village-Farmers-Craft-Market\/99122305798","Twitter":null,"Instagram":null,"Pinterest":null,"Youtube":null,"Blog":null,"Address":"3570 Old Nenana Hwy., Fairbanks, AK 99709","State":"Alaska","City":"Fairbanks","Street":"3570 Old Nenana Hwy.","Zip":"99709","Longitude":"-148.01798544403533","Latitude":"64.84465752261931","Dates":null,"Products":""},{"Type":"farmers market","ModifyDate":"Mar 20th, 2023","Image":"default-farmersmarket-4-3.jpg","ListingID":"308238","Name":"Ester Market","Description":null,"ContactName":null,"ContactEmail":"","ContactPhone":"","Website":"http:\/\/www.esteralaska.com","Facebook":"https:\/\/facebook.com\/EsterMarket","Twitter":null,"Instagram":null,"Pinterest":null,"Youtube":null,"Blog":null,"Address":"3566 Old Nenana Hwy, Fairbanks, AK 99709","State":"Alaska","City":"Fairbanks","Street":"3566 Old Nenana Hwy","Zip":"99709","Longitude":"-148.01797403611494","Latitude":"64.84465769238004","Dates":null,"Products":""},{"Type":"farmers market","ModifyDate":"Mar 20th, 2023","Image":"default-farmersmarket-4-3.jpg","ListingID":"308239","Name":"Farmers' Fresh Market","Description":null,"ContactName":null,"ContactEmail":"dan.kenaiswcd@gmail.com","ContactPhone":"907-283-8732","Website":"","Facebook":"https:\/\/www.facebook.com\/Farmers-Fresh-Market-149528411897850","Twitter":null,"Instagram":null,"Pinterest":null,"Youtube":null,"Blog":null,"Address":"33955 Community College Dr., Soldotna, AK 99669","State":"Alaska","City":"Soldotna","Street":"33955 Community College Dr.","Zip":"99669","Longitude":"-151.13423345546647","Latitude":"60.47201268081803","Dates":null,"Products":""},{"Type":"farmers market","ModifyDate":"Mar 20th, 2023","Image":"default-farmersmarket-4-3.jpg","ListingID":"308240","Name":"Girdwood Farmers Market","Description":null,"ContactName":null,"ContactEmail":"","ContactPhone":"","Website":"https:\/\/www.girdwoodlandtrust.org\/into-the-woods-market","Facebook":"","Twitter":null,"Instagram":null,"Pinterest":null,"Youtube":null,"Blog":null,"Address":"148 Holmgren Pl, Girdwood, AK 99587","State":"Alaska","City":"Girdwood","Street":"148 Holmgren Pl","Zip":"99587","Longitude":"-149.13625618838418","Latitude":"60.96321078337082","Dates":null,"Products":""},{"Type":"farmers market","ModifyDate":"Mar 20th, 2023","Image":"default-farmersmarket-4-3.jpg","ListingID":"308241","Name":"Glennallen Wednesday Market","Description":null,"ContactName":null,"ContactEmail":"","ContactPhone":"","Website":"","Facebook":"https:\/\/facebook.com\/GlennallenAKWednesdayMarket","Twitter":null,"Instagram":null,"Pinterest":null,"Youtube":null,"Blog":null,"Address":"187 Glenn Hwy, Glennallen, AK 99588","State":"Alaska","City":"Glennallen","Street":"187 Glenn Hwy","Zip":"99588","Longitude":"-145.5191921881697","Latitude":"62.10775916155776","Dates":null,"Products":""},{"Type":"farmers market","ModifyDate":"Mar 20th, 2023","Image":"default-farmersmarket-4-3.jpg","ListingID":"308242","Name":"Haines Farmer Market","Description":null,"ContactName":null,"ContactEmail":"","ContactPhone":"","Website":"http:\/\/www.hainesfarmersmarket.com\/*https:\/\/instagram.com\/homerakfarmersmarket","Facebook":"https:\/\/facebook.com\/hainesfarmersmarket","Twitter":null,"Instagram":null,"Pinterest":null,"Youtube":null,"Blog":null,"Address":"296 Fair Dr, Haines, AK 99827","State":"Alaska","City":"Haines","Street":"296 Fair Dr","Zip":"99827","Longitude":"-135.4657023147525","Latitude":"59.23290865635691","Dates":null,"Products":""},{"Type":"farmers market","ModifyDate":"Mar 20th, 2023","Image":"default-farmersmarket-4-3.jpg","ListingID":"308243","Name":"Healy Farmers Market","Description":null,"ContactName":null,"ContactEmail":"","ContactPhone":"","Website":"","Facebook":"https:\/\/facebook.com\/Healy-Saturday-Market-246136879091108","Twitter":null,"Instagram":null,"Pinterest":null,"Youtube":null,"Blog":null,"Address":"9998 Coal St, Healy, AK 99743","State":"Alaska","City":"Healy","Street":"9998 Coal St","Zip":"99743","Longitude":"-149.01789980318026","Latitude":"63.87144885511926","Dates":null,"Products":""},{"Type":"farmers market","ModifyDate":"Mar 20th, 2023","Image":"default-farmersmarket-4-3.jpg","ListingID":"308244","Name":"Kenai Saturday Market","Description":null,"ContactName":null,"ContactEmail":"harold@visitkenai.com","ContactPhone":"907-283-1991","Website":"http:\/\/www.visitkenai.com","Facebook":"","Twitter":null,"Instagram":null,"Pinterest":null,"Youtube":null,"Blog":null,"Address":"11471 Kenai Spur Hwy., Kenai, AK 99611","State":"Alaska","City":"Kenai","Street":"11471 Kenai Spur Hwy.","Zip":"99611","Longitude":"-151.2612200394558","Latitude":"60.554682011974364","Dates":null,"Products":""},{"Type":"farmers market","ModifyDate":"Mar 20th, 2023","Image":"default-farmersmarket-4-3.jpg","ListingID":"308245","Name":"Kenney Lake Farmers Market","Description":null,"ContactName":null,"ContactEmail":"","ContactPhone":"","Website":"","Facebook":"https:\/\/facebook.com\/KLAKfarmersmarket","Twitter":null,"Instagram":null,"Pinterest":null,"Youtube":null,"Blog":null,"Address":"2075 Glenn Hwy, Palmer, AK 99645","State":"Alaska","City":"Palmer","Street":"2075 Glenn Hwy","Zip":"99645","Longitude":"-149.12889396265564","Latitude":"61.57988499457943","Dates":null,"Products":""},{"Type":"farmers market","ModifyDate":"Mar 20th, 2023","Image":"default-farmersmarket-4-3.jpg","ListingID":"308246","Name":"Kenny Lake Harvest Farmers' Market","Description":null,"ContactName":null,"ContactEmail":"vollman@cvinternet.net","ContactPhone":"907-259-5898","Website":"","Facebook":"","Twitter":null,"Instagram":null,"Pinterest":null,"Youtube":null,"Blog":null,"Address":"354 Fairbanks Dr., Valdez, AK 99686","State":"Alaska","City":"Valdez","Street":"354 Fairbanks Dr.","Zip":"99686","Longitude":"-146.3583734014582","Latitude":"61.129862703175355","Dates":null,"Products":""},{"Type":"farmers market","ModifyDate":"Mar 20th, 2023","Image":"default-farmersmarket-4-3.jpg","ListingID":"308247","Name":"KGB Corner Market","Description":null,"ContactName":null,"ContactEmail":"kevin@alaskasyrup.com","ContactPhone":"907-355-5701","Website":"","Facebook":"","Twitter":null,"Instagram":null,"Pinterest":null,"Youtube":null,"Blog":null,"Address":"2150 S. Endeavor St., S. Knik Goose Bay Rd., Wasilla, AK 99654","State":"Alaska","City":"Wasilla","Street":"2150 S. Endeavor St., S. Knik Goose Bay Rd.","Zip":"99654","Longitude":"-149.48085447759024","Latitude":"61.561835182738015","Dates":null,"Products":""},{"Type":"farmers market","ModifyDate":"Mar 20th, 2023","Image":"default-farmersmarket-4-3.jpg","ListingID":"308248","Name":"Meadow Drive Market","Description":null,"ContactName":null,"ContactEmail":"lyndag@gci.net","ContactPhone":"907-435-3977","Website":"","Facebook":"https:\/\/www.facebook.com\/The-Meadow-Drive-Market-201762736529006","Twitter":null,"Instagram":null,"Pinterest":null,"Youtube":null,"Blog":null,"Address":"5023 Meadow Dr., Homer, AK 99603","State":"Alaska","City":"Homer","Street":"5023 Meadow Dr.","Zip":"99603","Longitude":"-151.4675841519027","Latitude":"59.66250622701951","Dates":null,"Products":""},{"Type":"farmers market","ModifyDate":"Mar 20th, 2023","Image":"default-farmersmarket-4-3.jpg","ListingID":"308249","Name":"Nenana Farmers Market","Description":null,"ContactName":null,"ContactEmail":"","ContactPhone":"","Website":"","Facebook":"","Twitter":null,"Instagram":null,"Pinterest":null,"Youtube":null,"Blog":null,"Address":"Main St, Nenana, AK 99760","State":"Alaska","City":"Nenana","Street":"Main St","Zip":"99760","Longitude":"-149.0997525427417","Latitude":"64.56106214023903","Dates":null,"Products":""},{"Type":"farmers market","ModifyDate":"Mar 20th, 2023","Image":"default-farmersmarket-4-3.jpg","ListingID":"308250","Name":"Ninilchik Farmers Market","Description":null,"ContactName":null,"ContactEmail":"","ContactPhone":"","Website":"http:\/\/Www.ninilchikfarmersmarket.com","Facebook":"https:\/\/facebook.com\/NinilchikFarmersMarket","Twitter":null,"Instagram":null,"Pinterest":null,"Youtube":null,"Blog":null,"Address":"16200 Sterling Hwy, Ninilchik, AK 99639","State":"Alaska","City":"Ninilchik","Street":"16200 Sterling Hwy","Zip":"99639","Longitude":"-151.67576600409848","Latitude":"60.03673898523522","Dates":null,"Products":""},{"Type":"farmers market","ModifyDate":"Mar 20th, 2023","Image":"default-farmersmarket-4-3.jpg","ListingID":"308251","Name":"North Peninsula Recreation Service Area Farmer's Market","Description":null,"ContactName":null,"ContactEmail":"","ContactPhone":"","Website":"http:\/\/northpenrec.com","Facebook":"","Twitter":null,"Instagram":null,"Pinterest":null,"Youtube":null,"Blog":null,"Address":"55176 Poolside Ave, Kenai, AK 99611","State":"Alaska","City":"Kenai","Street":"55176 Poolside Ave","Zip":"99611","Longitude":"-151.38361200289037","Latitude":"60.70720100808293","Dates":null,"Products":""},{"Type":"farmers market","ModifyDate":"Mar 20th, 2023","Image":"default-farmersmarket-4-3.jpg","ListingID":"308252","Name":"Northway Mall Wednesday Market","Description":null,"ContactName":null,"ContactEmail":"mark@mtasportscenter.com","ContactPhone":"907-315-6578","Website":"","Facebook":"","Twitter":null,"Instagram":null,"Pinterest":null,"Youtube":null,"Blog":null,"Address":"3101 Pennland Blvd., Anchorage, AK 99510","State":"Alaska","City":"Anchorage","Street":"3101 Pennland Blvd.","Zip":"99510","Longitude":"-149.82324252362514","Latitude":"61.21636994239705","Dates":null,"Products":""},{"Type":"farmers market","ModifyDate":"Mar 20th, 2023","Image":"default-farmersmarket-4-3.jpg","ListingID":"308253","Name":"O'Malley Castle Market","Description":null,"ContactName":null,"ContactEmail":"","ContactPhone":"","Website":"","Facebook":"https:\/\/facebook.com\/OMalley-Castle-Market-462398770880594","Twitter":null,"Instagram":null,"Pinterest":null,"Youtube":null,"Blog":null,"Address":"1520 O'Malley Rd, Anchorage, AK 99507","State":"Alaska","City":"Anchorage","Street":"1520 O'Malley Rd","Zip":"99507","Longitude":"-149.85460555432857","Latitude":"61.12297899732603","Dates":null,"Products":""},{"Type":"farmers market","ModifyDate":"Mar 20th, 2023","Image":"default-farmersmarket-4-3.jpg","ListingID":"308254","Name":"Pena Park Market","Description":null,"ContactName":null,"ContactEmail":"","ContactPhone":"","Website":"","Facebook":"https:\/\/facebook.com\/PenaParkMarket","Twitter":null,"Instagram":null,"Pinterest":null,"Youtube":null,"Blog":null,"Address":"8400 Starview Dr, Anchorage, AK 99504","State":"Alaska","City":"Anchorage","Street":"8400 Starview Dr","Zip":"99504","Longitude":"-149.7215647610233","Latitude":"61.229289534114606","Dates":null,"Products":""},{"Type":"farmers market","ModifyDate":"Mar 20th, 2023","Image":"default-farmersmarket-4-3.jpg","ListingID":"308255","Name":"Petersburg Farmers' Market","Description":null,"ContactName":null,"ContactEmail":"psg.market@gmail.com","ContactPhone":"435-760-4843","Website":"https:\/\/petersburgmarket.wordpress.com\/","Facebook":"https:\/\/www.facebook.com\/pages\/The-Market-in-Petersburg-Alaska\/114190115292862","Twitter":null,"Instagram":null,"Pinterest":null,"Youtube":null,"Blog":null,"Address":"1st St. and Gjoa St., Petersburg, AK 99833","State":"Alaska","City":"Petersburg","Street":"1st St. and Gjoa St.","Zip":"99833","Longitude":"-132.95618998490096","Latitude":"56.81177998744499","Dates":null,"Products":""},{"Type":"farmers market","ModifyDate":"Mar 20th, 2023","Image":"default-farmersmarket-4-3.jpg","ListingID":"308256","Name":"Salt & Soil Marketplace","Description":null,"ContactName":null,"ContactEmail":"","ContactPhone":"","Website":"http:\/\/www.panhandleproduce.com\/","Facebook":"","Twitter":null,"Instagram":null,"Pinterest":null,"Youtube":null,"Blog":null,"Address":"5381 Commercial Blvd, Juneau, AK 99801","State":"Alaska","City":"Juneau","Street":"5381 Commercial Blvd","Zip":"99801","Longitude":"-134.48722609177707","Latitude":"58.35779582070651","Dates":null,"Products":""},{"Type":"farmers market","ModifyDate":"Mar 20th, 2023","Image":"default-farmersmarket-4-3.jpg","ListingID":"308257","Name":"Saturday Art and Farm Market","Description":null,"ContactName":null,"ContactEmail":"jsnovak@mtaonline.net","ContactPhone":"907-746-0771","Website":"","Facebook":"","Twitter":null,"Instagram":null,"Pinterest":null,"Youtube":null,"Blog":null,"Address":"11301 N. Chickaloon Way, Sutton, AK 99674","State":"Alaska","City":"Sutton","Street":"11301 N. Chickaloon Way","Zip":"99674","Longitude":"-148.8774072495872","Latitude":"61.71102516095571","Dates":null,"Products":""},{"Type":"farmers market","ModifyDate":"Mar 20th, 2023","Image":"default-farmersmarket-4-3.jpg","ListingID":"308258","Name":"Seward Farmers Market","Description":null,"ContactName":null,"ContactEmail":"","ContactPhone":"","Website":"https:\/\/www.hikeseward.com\/programs\/seward-farmers-market\/","Facebook":"","Twitter":null,"Instagram":null,"Pinterest":null,"Youtube":null,"Blog":null,"Address":"237 4th Ave, Seward, AK 99664","State":"Alaska","City":"Seward","Street":"237 4th Ave","Zip":"99664","Longitude":"-149.44051847883495","Latitude":"60.10170421746773","Dates":null,"Products":""},{"Type":"farmers market","ModifyDate":"Mar 20th, 2023","Image":"default-farmersmarket-4-3.jpg","ListingID":"308259","Name":"Soldotna Wednesday Farmers' Market","Description":null,"ContactName":null,"ContactEmail":"akvilla9@yahoo.com","ContactPhone":"907-252-7264","Website":"http:\/\/visitsoldotna.com\/visitors\/what-to-do-2\/shopping\/","Facebook":"","Twitter":null,"Instagram":null,"Pinterest":null,"Youtube":null,"Blog":null,"Address":"Soldotna Creek Park, Soldotna, AK 99669","State":"Alaska","City":"Soldotna","Street":"Soldotna Creek Park","Zip":"99669","Longitude":"-151.09044805867788","Latitude":"60.46687688044852","Dates":null,"Products":""},{"Type":"farmers market","ModifyDate":"Mar 20th, 2023","Image":"default-farmersmarket-4-3.jpg","ListingID":"308260","Name":"South Anchorage Farmers' Market","Description":null,"ContactName":null,"ContactEmail":"amkeyes@mtaonline.net","ContactPhone":"907-354-5833","Website":"http:\/\/www.southanchoragefarmersmarket.com","Facebook":"https:\/\/www.facebook.com\/pages\/South-Anchorage-Farmers-Market\/74147667855","Twitter":null,"Instagram":null,"Pinterest":null,"Youtube":null,"Blog":null,"Address":"O'Malley Rd. and Old Seward Hwy., Anchorage, AK 99515","State":"Alaska","City":"Anchorage","Street":"O'Malley Rd. and Old Seward Hwy.","Zip":"99515","Longitude":"-149.86394999076796","Latitude":"61.123140003123865","Dates":null,"Products":""},{"Type":"farmers market","ModifyDate":"Mar 20th, 2023","Image":"default-farmersmarket-4-3.jpg","ListingID":"308261","Name":"South Anchorage Wednesday Market","Description":null,"ContactName":null,"ContactEmail":"","ContactPhone":"","Website":"http:\/\/www.safm.org\/","Facebook":"","Twitter":null,"Instagram":null,"Pinterest":null,"Youtube":null,"Blog":null,"Address":"800 E Dimond Blvd, Anchorage, AK 99515","State":"Alaska","City":"Anchorage","Street":"800 E Dimond Blvd","Zip":"99515","Longitude":"-149.86773864567655","Latitude":"61.144724517256996","Dates":null,"Products":""},{"Type":"farmers market","ModifyDate":"Mar 20th, 2023","Image":"default-farmersmarket-4-3.jpg","ListingID":"308262","Name":"Southside Community Farmers Market","Description":null,"ContactName":null,"ContactEmail":"","ContactPhone":"907-451-0691","Website":"","Facebook":"http:\/\/www.facebook.com\/southsidemarketfairbanks\/","Twitter":null,"Instagram":null,"Pinterest":null,"Youtube":null,"Blog":null,"Address":"2400 RICKERT ST, FAIRBANKS, AK 99701","State":"Alaska","City":"FAIRBANKS","Street":"2400 RICKERT ST","Zip":"99701","Longitude":"-147.71864869645123","Latitude":"64.82516074496922","Dates":null,"Products":""},{"Type":"farmers market","ModifyDate":"Mar 20th, 2023","Image":"default-farmersmarket-4-3.jpg","ListingID":"308263","Name":"Spenard Farmers Market","Description":null,"ContactName":null,"ContactEmail":"","ContactPhone":"","Website":"http:\/\/www.spenardfarmersmarket.org*https:\/\/twitter.com\/SpenardFarmers","Facebook":"https:\/\/facebook.com\/spenardfarmersmarket","Twitter":null,"Instagram":null,"Pinterest":null,"Youtube":null,"Blog":null,"Address":"2555 Spenard Rd, Anchorage, AK 99503","State":"Alaska","City":"Anchorage","Street":"2555 Spenard Rd","Zip":"99503","Longitude":"-149.9057439001804","Latitude":"61.199182244261856","Dates":null,"Products":""},{"Type":"farmers market","ModifyDate":"Mar 20th, 2023","Image":"default-farmersmarket-4-3.jpg","ListingID":"308264","Name":"Tanana Valley Farmers Market","Description":null,"ContactName":null,"ContactEmail":"","ContactPhone":"","Website":"http:\/\/www.tvfmarket.com","Facebook":"https:\/\/facebook.com\/Tanana-Valley-Farmers-Market-78795645885","Twitter":null,"Instagram":null,"Pinterest":null,"Youtube":null,"Blog":null,"Address":"2600 College Rd, Fairbanks, AK 99709","State":"Alaska","City":"Fairbanks","Street":"2600 College Rd","Zip":"99709","Longitude":"-147.7809520184179","Latitude":"64.86266040231017","Dates":null,"Products":""},{"Type":"farmers market","ModifyDate":"Mar 20th, 2023","Image":"default-farmersmarket-4-3.jpg","ListingID":"308265","Name":"The Center Market","Description":null,"ContactName":null,"ContactEmail":"adfarm_organic@yahoo.com","ContactPhone":"907-746-0038","Website":"http:\/\/www.thecentermarket.com\/","Facebook":"https:\/\/www.facebook.com\/pages\/The-Center-Market-Alaskas-Only-Year-round-Market\/133861183357246","Twitter":null,"Instagram":null,"Pinterest":null,"Youtube":null,"Blog":null,"Address":"600 E. Northern Lights Blvd., Anchorage, AK 99503","State":"Alaska","City":"Anchorage","Street":"600 E. Northern Lights Blvd.","Zip":"99503","Longitude":"-149.87355280509874","Latitude":"61.195276553385646","Dates":null,"Products":""},{"Type":"farmers market","ModifyDate":"Mar 20th, 2023","Image":"default-farmersmarket-4-3.jpg","ListingID":"308266","Name":"The Farmers Market at Alaska Pacific University","Description":null,"ContactName":null,"ContactEmail":"","ContactPhone":"","Website":"https:\/\/www.alaskapacific.edu\/kellogg-campus\/training-farm\/farmers-market\/","Facebook":"","Twitter":null,"Instagram":null,"Pinterest":null,"Youtube":null,"Blog":null,"Address":"4225 University Dr, Anchorage, AK 99508","State":"Alaska","City":"Anchorage","Street":"4225 University Dr","Zip":"99508","Longitude":"-149.80389927039104","Latitude":"61.18929434157408","Dates":null,"Products":""},{"Type":"farmers market","ModifyDate":"Mar 20th, 2023","Image":"default-farmersmarket-4-3.jpg","ListingID":"308267","Name":"The Highway's End Farmers Market","Description":null,"ContactName":null,"ContactEmail":"","ContactPhone":"","Website":"","Facebook":"","Twitter":null,"Instagram":null,"Pinterest":null,"Youtube":null,"Blog":null,"Address":"2885 Alaska Hwy, Delta Junction, AK 99737","State":"Alaska","City":"Delta Junction","Street":"2885 Alaska Hwy","Zip":"99737","Longitude":"-143.94727704341952","Latitude":"63.59278678945725","Dates":null,"Products":""},{"Type":"farmers market","ModifyDate":"Mar 20th, 2023","Image":"default-farmersmarket-4-3.jpg","ListingID":"308268","Name":"The Market at Petersburg","Description":null,"ContactName":null,"ContactEmail":"","ContactPhone":"","Website":"","Facebook":"https:\/\/facebook.com\/petersburgmarket","Twitter":null,"Instagram":null,"Pinterest":null,"Youtube":null,"Blog":null,"Address":"104 N Nordic Dr, Petersburg, AK 99833","State":"Alaska","City":"Petersburg","Street":"104 N Nordic Dr","Zip":"99833","Longitude":"-132.9587569030036","Latitude":"56.80981772232118","Dates":null,"Products":""},{"Type":"farmers market","ModifyDate":"Mar 20th, 2023","Image":"default-farmersmarket-4-3.jpg","ListingID":"308269","Name":"The Outdoor Market","Description":null,"ContactName":null,"ContactEmail":"","ContactPhone":"","Website":"","Facebook":"","Twitter":null,"Instagram":null,"Pinterest":null,"Youtube":null,"Blog":null,"Address":"7666 Richardson Hwy, Salcha, AK 99714","State":"Alaska","City":"Salcha","Street":"7666 Richardson Hwy","Zip":"99714","Longitude":"-146.98455212052025","Latitude":"64.52179884646657","Dates":null,"Products":""},{"Type":"farmers market","ModifyDate":"Mar 20th, 2023","Image":"default-farmersmarket-4-3.jpg","ListingID":"308270","Name":"The Salt & Soil Marketplace","Description":null,"ContactName":null,"ContactEmail":"","ContactPhone":"520-270-6605","Website":"http:\/\/www.saltandsoilmarketplace.com","Facebook":"http:\/\/www.facebook.com\/SaltandSoilMarketplace","Twitter":null,"Instagram":null,"Pinterest":null,"Youtube":null,"Blog":null,"Address":"350 WHITTIER ST, JUNEAU, AK 99801","State":"Alaska","City":"JUNEAU","Street":"350 WHITTIER ST","Zip":"99801","Longitude":"-134.4142109461237","Latitude":"58.299951423638475","Dates":null,"Products":""},{"Type":"farmers market","ModifyDate":"Mar 20th, 2023","Image":"default-farmersmarket-4-3.jpg","ListingID":"308271","Name":"Tyonek Farmers Market","Description":null,"ContactName":null,"ContactEmail":"","ContactPhone":"","Website":"","Facebook":"","Twitter":null,"Instagram":null,"Pinterest":null,"Youtube":null,"Blog":null,"Address":"1689 C St, Anchorage, AK 99501","State":"Alaska","City":"Anchorage","Street":"1689 C St","Zip":"99501","Longitude":"-149.8873365087129","Latitude":"61.20529462063429","Dates":null,"Products":""},{"Type":"farmers market","ModifyDate":"Mar 20th, 2023","Image":"default-farmersmarket-4-3.jpg","ListingID":"308272","Name":"Upper Valley Farmers Market","Description":null,"ContactName":null,"ContactEmail":"","ContactPhone":"","Website":"","Facebook":"","Twitter":null,"Instagram":null,"Pinterest":null,"Youtube":null,"Blog":null,"Address":"99 Mosquito Lake Rd, Haines, AK 99827","State":"Alaska","City":"Haines","Street":"99 Mosquito Lake Rd","Zip":"99827","Longitude":"-136.01568711203646","Latitude":"59.424613942436075","Dates":null,"Products":""},{"Type":"farmers market","ModifyDate":"Sep 10th, 2020","Image":"default-farmersmarket-4-3.jpg","ListingID":"300092","Name":"Sitka Farmers Market","Description":null,"ContactName":"Charles Bingham","ContactEmail":"sitkalocalfoodsnetwork@gmail.com","ContactPhone":"907-623-7660","Website":"www.sitkalocalfoodsnetwork.org\/","Facebook":"www.facebook.com\/SitkaLocalFoodsNetwork","Twitter":"@SitkaLocalFoods","Instagram":null,"Pinterest":null,"Youtube":null,"Blog":null,"Address":"611 Lincoln Street, Sitka, Alaska 99835","State":"Alaska","City":"Sitka","Street":"611 Lincoln Street","Zip":"99835","Longitude":"-135.32674","Latitude":"57.051519","Dates":"June to September","Products":"Fresh fruits, Fresh vegetables, Cut flowers, Fresh\/dried herbs"}]