[{"Type":"farmers market","ModifyDate":"Apr 14th, 2022","Image":"farmersmarket_301667_11089_20220414135348.png","ListingID":"301667","Name":"Galena KS Farmer's Market","Description":null,"ContactName":"Kevin and Melissa Karsten","ContactEmail":"galenaksmarket@gmail.com","ContactPhone":"620-762-1359","Website":null,"Facebook":"https:\/\/www.facebook.com\/GalenaKSFarmersMarket","Twitter":null,"Instagram":null,"Pinterest":null,"Youtube":null,"Blog":null,"Address":"210 W 7th St, Galena, Kansas 66739","State":"Kansas","City":"Galena","Street":"210 W 7th St","Zip":"66739","Longitude":"-94.640914","Latitude":"37.074792","Dates":"May to October","Products":"Fresh fruits, Fresh vegetables, Baked goods, Bedding plants, Canned or preserved fruits\/vegetables, Crafts\/woodworking items, Eggs, Fresh\/dried herbs, Honey, Nursery stock, Soap\/body care products"},{"Type":"farmers market","ModifyDate":"Apr 4th, 2020","Image":"default-farmersmarket-4-3.jpg","ListingID":"301071","Name":"Perry Lecompton Farmers Market","Description":null,"ContactName":"Eric Youngquist","ContactEmail":"hallowacres@embarqmail.com","ContactPhone":"785-813-6461","Website":"www.perrylecomptonfarmersmarket.com","Facebook":"@perrylecomptonfarmersmarket","Twitter":null,"Instagram":null,"Pinterest":null,"Youtube":null,"Blog":null,"Address":"2115 Ferguson Rd., Perry, Kansas 66073","State":"Kansas","City":"Perry","Street":"2115 Ferguson Rd.","Zip":"66073","Longitude":"-95.392324","Latitude":"39.081430","Dates":"May to October","Products":"Fresh fruits, Fresh vegetables, Baked goods, Bedding plants, Canned or preserved fruits\/vegetables, Cut flowers, Eggs, Fresh\/dried herbs, Honey, Pet food, Poultry\/fowl meat and products, Red\/other non-poultry meat and products, Soap\/body care products"},{"Type":"farmers market","ModifyDate":"Apr 7th, 2021","Image":"default-farmersmarket-4-3.jpg","ListingID":"301487","Name":"Clay Center Farmers Market","Description":null,"ContactName":"Linda Sleichter","ContactEmail":"lindasleichter@yahoo.com","ContactPhone":"785-630-0673","Website":null,"Facebook":"Clay Center Farmers Market","Twitter":null,"Instagram":null,"Pinterest":null,"Youtube":null,"Blog":null,"Address":"720 5th Street, Clay Center, Kansas 67432","State":"Kansas","City":"Clay Center","Street":"720 5th Street","Zip":"67432","Longitude":"-97.126471","Latitude":"39.376936","Dates":"April to October","Products":"Fresh fruits, Fresh vegetables, Baked goods, Bedding plants, Canned or preserved fruits\/vegetables, Crafts\/woodworking items, Cut flowers, Dairy products., Eggs, Fresh\/dried herbs, Honey, Pet food, Prepared foods, Red\/other non-poultry meat and products, Soap\/body care products"},{"Type":"farmers market","ModifyDate":"Aug 12th, 2020","Image":"default-farmersmarket-4-3.jpg","ListingID":"301222","Name":"Delano Neighborhood Market","Description":null,"ContactName":"Natalie Greenlee","ContactEmail":"delanoneighborhoodmarket@gmail.com","ContactPhone":"3168410003","Website":null,"Facebook":"facebook.com\/delanoneighborhoodmarket","Twitter":null,"Instagram":null,"Pinterest":null,"Youtube":null,"Blog":null,"Address":"1709 W Douglas , Wichita, Kansas 67213","State":"Kansas","City":"Wichita","Street":"1709 W Douglas","Zip":"67213","Longitude":"-97.360349","Latitude":"37.683757","Dates":"August to September","Products":"Fresh fruits, Fresh vegetables, Baked goods, Canned or preserved fruits\/vegetables, Coffee\/tea, Crafts\/woodworking items, Eggs, Honey, Prepared foods, Red\/other non-poultry meat and products, Soap\/body care products"},{"Type":"farmers market","ModifyDate":"Dec 9th, 2021","Image":"default-farmersmarket-4-3.jpg","ListingID":"301615","Name":"Pittsburg Area Farmers' Market","Description":null,"ContactName":"Josie Smith","ContactEmail":"josie.smith@pittks.org","ContactPhone":"6202318310","Website":"pittsburgfarmersmarket.org","Facebook":"Pittsburg Farmers' Market","Twitter":null,"Instagram":null,"Pinterest":null,"Youtube":null,"Blog":null,"Address":"119 E. 11St., Pittsburg, Kansas 66762","State":"Kansas","City":"Pittsburg","Street":"119 E. 11St.","Zip":"66762","Longitude":"-94.703397","Latitude":"37.418249","Dates":"April to October","Products":"Fresh fruits, Fresh vegetables, Baked goods, Crafts\/woodworking items, Cut flowers, Eggs, Fresh\/dried herbs, Honey, Prepared foods, Red\/other non-poultry meat and products"},{"Type":"farmers market","ModifyDate":"Jan 14th, 2021","Image":"default-farmersmarket-4-3.jpg","ListingID":"301078","Name":"Allen County Farmers' Market","Description":null,"ContactName":"Robin Schallie","ContactEmail":"rschallie.acfarmersmarket@gmail.com","ContactPhone":"6203652172","Website":"www.acfarmersmarket.com","Facebook":"Allen County Farmers' Market","Twitter":null,"Instagram":null,"Pinterest":null,"Youtube":null,"Blog":null,"Address":"807  N. State, Iola, Kansas 66749","State":"Kansas","City":"Iola","Street":"807  N. State","Zip":"66749","Longitude":"-95.400669","Latitude":"37.927427","Dates":"April to October","Products":"Fresh vegetables, Baked goods, Canned or preserved fruits\/vegetables, Crafts\/woodworking items, Cut flowers, Eggs, Fresh\/dried herbs, Honey, Poultry\/fowl meat and products, Red\/other non-poultry meat and products, Soap\/body care products"},{"Type":"farmers market","ModifyDate":"Jan 25th, 2021","Image":"default-farmersmarket-4-3.jpg","ListingID":"300746","Name":"Columbus KS Farmers Market","Description":null,"ContactName":"Bobbi Williams","ContactEmail":"madfarmnow@gmail.com","ContactPhone":"620-674-1761","Website":null,"Facebook":"Facebook: columbus ks farmers' market","Twitter":null,"Instagram":null,"Pinterest":null,"Youtube":null,"Blog":null,"Address":"202 N. East Avenue, Columbus, Kansas 66725","State":"Kansas","City":"Columbus","Street":"202 N. East Avenue","Zip":"66725","Longitude":"-94.831459","Latitude":"37.171861","Dates":"May to October","Products":"Fresh fruits, Fresh vegetables, Baked goods, Bedding plants, Canned or preserved fruits\/vegetables, Crafts\/woodworking items, Cut flowers, Eggs, Fresh\/dried herbs, Honey, Mushrooms, Nuts, Pet food, Poultry\/fowl meat and products, Prepared foods, Red\/other non-poultry meat and products, Soap\/body care products"},{"Type":"farmers market","ModifyDate":"Jan 26th, 2021","Image":"default-farmersmarket-4-3.jpg","ListingID":"300376","Name":"Belleville Farmer's Market","Description":null,"ContactName":"David Pachta","ContactEmail":"bellevilleccms@gmail.com","ContactPhone":"785-527-5524","Website":"bellevilleks.org","Facebook":"https:\/\/www.facebook.com\/BellevilleKSFarmersMarket","Twitter":null,"Instagram":null,"Pinterest":null,"Youtube":null,"Blog":null,"Address":"1815 M St. , Belleville , Kansas 66935","State":"Kansas","City":"Belleville","Street":"1815 M St.","Zip":"66935","Longitude":"-97.630924","Latitude":"39.822988","Dates":"May to September","Products":"Fresh fruits, Fresh vegetables, Baked goods, Bedding plants, Canned or preserved fruits\/vegetables, Crafts\/woodworking items, Cut flowers, Fresh\/dried herbs, Honey, Maple products, Soap\/body care products"},{"Type":"farmers market","ModifyDate":"Jan 27th, 2021","Image":"default-farmersmarket-4-3.jpg","ListingID":"301411","Name":"Lawrence Farmers' Market - Saturday Downtown Market","Description":null,"ContactName":"Sophia Tate","ContactEmail":"lawrencefarmersmarket@gmail.com","ContactPhone":"7855050117","Website":"https:\/\/www.lawrencefarmersmarket.org\/","Facebook":"https:\/\/www.facebook.com\/lawrencefarmersmarket","Twitter":"https:\/\/twitter.com\/lawrencefresh?lang=en","Instagram":null,"Pinterest":null,"Youtube":null,"Blog":null,"Address":"824 New Hampshire Street, Lawrence, Kansas 66044","State":"Kansas","City":"Lawrence","Street":"824 New Hampshire Street","Zip":"66044","Longitude":"-95.234480","Latitude":"38.968590","Dates":"April to November","Products":"Fresh fruits, Fresh vegetables, Baked goods, Bedding plants, Canned or preserved fruits\/vegetables, Coffee\/tea, Crafts\/woodworking items, Cut flowers, Dairy products., Dry beans, Eggs, Fresh\/dried herbs, Grains\/flour, Honey, Juices\/non-alcoholic ciders, Mushrooms, Nuts, Poultry\/fowl meat and products, Prepared foods, Red\/other non-poultry meat and products, Soap\/body care products, Wild harvested forest products, Wine, spirits, beer, hard cider"},{"Type":"farmers market","ModifyDate":"Jan 27th, 2021","Image":"default-farmersmarket-4-3.jpg","ListingID":"301412","Name":"Lawrence Farmers' Market - Tuesday Market","Description":null,"ContactName":"Sophia Tate","ContactEmail":"lawrencefarmersmarket@gmail.com","ContactPhone":"7855050117","Website":"https:\/\/www.lawrencefarmersmarket.org\/","Facebook":"https:\/\/www.facebook.com\/lawrencefarmersmarket","Twitter":"https:\/\/twitter.com\/lawrencefresh?lang=en","Instagram":null,"Pinterest":null,"Youtube":null,"Blog":null,"Address":"1140 Massachusetts Street, Lawrence, Kansas 66044","State":"Kansas","City":"Lawrence","Street":"1140 Massachusetts Street","Zip":"66044","Longitude":"-95.235986","Latitude":"38.963018","Dates":"May to October","Products":"Fresh fruits, Fresh vegetables, Baked goods, Bedding plants, Canned or preserved fruits\/vegetables, Coffee\/tea, Crafts\/woodworking items, Cut flowers, Dairy products., Dry beans, Eggs, Fresh\/dried herbs, Grains\/flour, Honey, Juices\/non-alcoholic ciders, Mushrooms, Nuts, Poultry\/fowl meat and products, Prepared foods, Red\/other non-poultry meat and products, Soap\/body care products, Wild harvested forest products, Wine, spirits, beer, hard cider"},{"Type":"farmers market","ModifyDate":"Jan 4th, 2021","Image":"default-farmersmarket-4-3.jpg","ListingID":"300593","Name":"Gardner Farmers Market","Description":null,"ContactName":"Doug Finnicum","ContactEmail":"finnicum@gmail.com","ContactPhone":"585-747-5391","Website":"gardnerfarmersmarket@gmail.com","Facebook":"Gardner Farmers Market","Twitter":null,"Instagram":null,"Pinterest":null,"Youtube":null,"Blog":null,"Address":"136 E Washington St, Gardner , Kansas 66030","State":"Kansas","City":"Gardner","Street":"136 E Washington St","Zip":"66030","Longitude":"-94.925777","Latitude":"38.812999","Dates":"May to September","Products":"Fresh fruits, Fresh vegetables, Baked goods, Bedding plants, Canned or preserved fruits\/vegetables, Crafts\/woodworking items, Cut flowers, Eggs, Fresh\/dried herbs, Grains\/flour, Honey, Juices\/non-alcoholic ciders, Nuts, Pet food, Poultry\/fowl meat and products, Red\/other non-poultry meat and products, Soap\/body care products"},{"Type":"farmers market","ModifyDate":"Jan 5th, 2021","Image":"default-farmersmarket-4-3.jpg","ListingID":"300126","Name":"Cottin's Hardware Farmers Market","Description":null,"ContactName":"Linda Cottin","ContactEmail":"hardware@sunflower.com","ContactPhone":"785-843-2981","Website":"www.cottinshardware.com\/farmersmarket\/","Facebook":"https:\/\/www.facebook.com\/pages\/Cottins-Hardware-Farmers-Market\/130797680335852","Twitter":"@cottins","Instagram":null,"Pinterest":null,"Youtube":null,"Blog":null,"Address":"1832 Massachusetts Street, Lawrence, Kansas 66044","State":"Kansas","City":"Lawrence","Street":"1832 Massachusetts Street","Zip":"66044","Longitude":"-95.235146","Latitude":"38.950747","Dates":"Year-round","Products":"Fresh fruits, Fresh vegetables, Baked goods, Canned or preserved fruits\/vegetables, Coffee\/tea, Eggs, Fresh\/dried herbs, Grains\/flour, Honey, Mushrooms, Nuts, Poultry\/fowl meat and products, Red\/other non-poultry meat and products, Soap\/body care products, Wild harvested forest products"},{"Type":"farmers market","ModifyDate":"Mar 21st, 2023","Image":"default-farmersmarket-4-3.jpg","ListingID":"310301","Name":"Ark City Farmer and Art Market","Description":null,"ContactName":null,"ContactEmail":"cowleyfarmersmarketassociation@gmail.com","ContactPhone":"321-720-0875","Website":null,"Facebook":"https:\/\/www.facebook.com\/ArkansasCityFarmAndArtMarket","Twitter":null,"Instagram":null,"Pinterest":null,"Youtube":null,"Blog":null,"Address":"701 N Summit St, Arkansas city, KS 67005","State":"Kansas","City":"Arkansas city","Street":"701 N Summit St","Zip":"67005","Longitude":"-97.03904250978441","Latitude":"37.069572330358476","Dates":null,"Products":""},{"Type":"farmers market","ModifyDate":"Mar 21st, 2023","Image":"default-farmersmarket-4-3.jpg","ListingID":"310302","Name":"Arlington Farm and Art Market","Description":null,"ContactName":null,"ContactEmail":"kelsidepew@hotmail.com","ContactPhone":"620-664-8140","Website":null,"Facebook":"https:\/\/www.facebook.com\/ArlingtonFarmandArtMarket\/","Twitter":null,"Instagram":null,"Pinterest":null,"Youtube":null,"Blog":null,"Address":"304 W Main, Arlington, KS 67514","State":"Kansas","City":"Arlington","Street":"304 W Main","Zip":"67514","Longitude":"-98.17873931674514","Latitude":"37.896495155596455","Dates":null,"Products":""},{"Type":"farmers market","ModifyDate":"Mar 21st, 2023","Image":"default-farmersmarket-4-3.jpg","ListingID":"310303","Name":"Atchison Farmers' Market","Description":null,"ContactName":null,"ContactEmail":"debbiemarkgenova@yahoo.com","ContactPhone":null,"Website":"http:\/\/atchisonfarmers.market","Facebook":"https:\/\/www.facebook.com\/AtchisonFarmersMarket\/","Twitter":null,"Instagram":null,"Pinterest":null,"Youtube":null,"Blog":null,"Address":"400-600 Main Street, Atchison, KS 66002","State":"Kansas","City":"Atchison","Street":"400-600 Main Street","Zip":"66002","Longitude":"-95.11901668242878","Latitude":"39.560775528000796","Dates":null,"Products":""},{"Type":"farmers market","ModifyDate":"Mar 21st, 2023","Image":"default-farmersmarket-4-3.jpg","ListingID":"310304","Name":"Atwood Farmers Market","Description":null,"ContactName":null,"ContactEmail":null,"ContactPhone":"785-626-9630","Website":null,"Facebook":null,"Twitter":null,"Instagram":null,"Pinterest":null,"Youtube":null,"Blog":null,"Address":"111 South 4th Street 111 South 4th Street Atwood, KS 67730","State":"Kansas","City":"ATWOOD","Street":"111 S 4TH ST","Zip":"67730","Longitude":"-101.0421526033838","Latitude":"39.80710280080265","Dates":null,"Products":""},{"Type":"farmers market","ModifyDate":"Mar 21st, 2023","Image":"default-farmersmarket-4-3.jpg","ListingID":"310305","Name":"Augusta Farmers' Market","Description":null,"ContactName":null,"ContactEmail":"toddgriggs@att.net","ContactPhone":"316-651-3864","Website":null,"Facebook":null,"Twitter":null,"Instagram":null,"Pinterest":null,"Youtube":null,"Blog":null,"Address":"640 N. Osage St., East side of the senior center, Augusta, KS, 67010","State":"Kansas","City":"Augusta","Street":"640 N. Osage St","Zip":"67010","Longitude":"-96.97650667751859","Latitude":"37.6780802393021","Dates":null,"Products":""},{"Type":"farmers market","ModifyDate":"Mar 21st, 2023","Image":"default-farmersmarket-4-3.jpg","ListingID":"310306","Name":"Basehor Farmer & Craft Market","Description":null,"ContactName":null,"ContactEmail":"Grammytammyscreations@yahoo.com","ContactPhone":"605-310-4777","Website":null,"Facebook":"https:\/\/www.facebook.com\/Basehor-Farmer-Craft-Market-100934928429803\/","Twitter":null,"Instagram":null,"Pinterest":null,"Youtube":null,"Blog":null,"Address":"2705 155th St, Basehor, KS 66007","State":"Kansas","City":"Basehor","Street":"2705 155th St","Zip":"66007","Longitude":"-94.93843747050455","Latitude":"39.138188462018256","Dates":null,"Products":""},{"Type":"farmers market","ModifyDate":"Mar 21st, 2023","Image":"default-farmersmarket-4-3.jpg","ListingID":"310307","Name":"Border Queen Farm & Art Market","Description":null,"ContactName":null,"ContactEmail":"dylanbristor@gmail.com","ContactPhone":"620-705-1675","Website":null,"Facebook":"https:\/\/www.facebook.com\/BQFarmersMarket","Twitter":null,"Instagram":null,"Pinterest":null,"Youtube":null,"Blog":null,"Address":"102 S. Main, Caldwell , KS 67152","State":"Kansas","City":"Caldwell","Street":"102 S. Main","Zip":"67152","Longitude":"-97.60685819722598","Latitude":"37.03130289707278","Dates":null,"Products":""},{"Type":"farmers market","ModifyDate":"Mar 21st, 2023","Image":"default-farmersmarket-4-3.jpg","ListingID":"310308","Name":"Breadbasket Farmers Market","Description":null,"ContactName":null,"ContactEmail":"breadbasketfarmersmarket@gmail.com","ContactPhone":null,"Website":"http:\/\/breadbasketfarmersmarket.com","Facebook":"https:\/\/www.facebook.com\/Breadbasket-Farmers-Market-111941761398858","Twitter":null,"Instagram":null,"Pinterest":null,"Youtube":null,"Blog":null,"Address":"1901 SW Wanamaker Rd, Topeka, KS 66614","State":"Kansas","City":"Topeka","Street":"1901 SW Wanamaker Rd","Zip":"66614","Longitude":"-95.76210360100912","Latitude":"39.03255349742151","Dates":null,"Products":""},{"Type":"farmers market","ModifyDate":"Mar 21st, 2023","Image":"default-farmersmarket-4-3.jpg","ListingID":"310309","Name":"Buhler Farmers' Market","Description":null,"ContactName":null,"ContactEmail":null,"ContactPhone":null,"Website":null,"Facebook":null,"Twitter":null,"Instagram":null,"Pinterest":null,"Youtube":null,"Blog":null,"Address":"214 Main St Buhler, KS 67522","State":"Kansas","City":"BUHLER","Street":"214 S MAIN ST","Zip":"67522","Longitude":"-97.7705973706945","Latitude":"38.13439711269424","Dates":null,"Products":""},{"Type":"farmers market","ModifyDate":"Mar 21st, 2023","Image":"default-farmersmarket-4-3.jpg","ListingID":"310310","Name":"Burlingame Farmers' Market","Description":null,"ContactName":null,"ContactEmail":"timshep089@yahoo.com","ContactPhone":"785-422-1689","Website":null,"Facebook":null,"Twitter":null,"Instagram":null,"Pinterest":null,"Youtube":null,"Blog":null,"Address":"115 East Santa Fe, Burlingame, KS 66413","State":"Kansas","City":"Burlingame","Street":"115 East Santa Fe","Zip":"66413","Longitude":"-95.83402969122567","Latitude":"38.753676033975914","Dates":null,"Products":""},{"Type":"farmers market","ModifyDate":"Mar 21st, 2023","Image":"default-farmersmarket-4-3.jpg","ListingID":"310311","Name":"Burlington Farmers' Market","Description":null,"ContactName":null,"ContactEmail":"executivedirector@coffeycountychamber.com","ContactPhone":"620-364-2002","Website":null,"Facebook":null,"Twitter":null,"Instagram":null,"Pinterest":null,"Youtube":null,"Blog":null,"Address":"4th St. & Neosho, Parking lot N. of Red Caboose, Burlington, KS, 66839","State":"Kansas","City":"Burlington","Street":"4th St. & Neosho","Zip":"66839","Longitude":"-95.7439899611026","Latitude":"38.26194999658594","Dates":null,"Products":""},{"Type":"farmers market","ModifyDate":"Mar 21st, 2023","Image":"default-farmersmarket-4-3.jpg","ListingID":"310312","Name":"Capitol Midweek Farmers' Market","Description":null,"ContactName":null,"ContactEmail":null,"ContactPhone":"785-296-8060","Website":"http:\/\/www.kdheks.gov\/bhp\/farmers_market\/","Facebook":null,"Twitter":null,"Instagram":null,"Pinterest":null,"Youtube":null,"Blog":null,"Address":"10th Ave. & Jackson, south side of the Capitol, Topeka, KS, 66618","State":"Kansas","City":"Topeka","Street":"10th Ave. & Jackson","Zip":"66618","Longitude":"-95.78512590531223","Latitude":"39.05124058437814","Dates":null,"Products":""},{"Type":"farmers market","ModifyDate":"Mar 21st, 2023","Image":"default-farmersmarket-4-3.jpg","ListingID":"310313","Name":"Cawker City Farmers' Market","Description":null,"ContactName":null,"ContactEmail":"bkschreuder@nckcn.com","ContactPhone":null,"Website":"http:\/\/www.cawkercitykansas.com\/","Facebook":"https:\/\/www.facebook.com\/cawkercitycommunityclub\/","Twitter":null,"Instagram":null,"Pinterest":null,"Youtube":null,"Blog":null,"Address":"Lake Drive and Highway 24, Cawker City, KS 67430","State":"Kansas","City":"Cawker City","Street":"Lake Drive and Highway 24","Zip":"67430","Longitude":"-98.43306995855322","Latitude":"39.509440003665844","Dates":null,"Products":""},{"Type":"farmers market","ModifyDate":"Mar 21st, 2023","Image":"default-farmersmarket-4-3.jpg","ListingID":"310314","Name":"Chanute Farmers Market","Description":null,"ContactName":null,"ContactEmail":null,"ContactPhone":"620-473-3520","Website":null,"Facebook":null,"Twitter":null,"Instagram":null,"Pinterest":null,"Youtube":null,"Blog":null,"Address":"2600 South Santa Fe Chanute, KS 66720","State":"Kansas","City":"CHANUTE","Street":"2600 S SANTA FE AVE","Zip":"66720","Longitude":"-95.45262035745864","Latitude":"37.653313537744225","Dates":null,"Products":""},{"Type":"farmers market","ModifyDate":"Mar 21st, 2023","Image":"default-farmersmarket-4-3.jpg","ListingID":"310315","Name":"Clinton Parkway Nursery Farmers' Market","Description":null,"ContactName":null,"ContactEmail":null,"ContactPhone":null,"Website":null,"Facebook":"https:\/\/www.facebook.com\/FarmersMarketatClintonParkwayNursery","Twitter":null,"Instagram":null,"Pinterest":null,"Youtube":null,"Blog":null,"Address":"4900 Clinton Pkwy., Lawrence, KS, 66047","State":"Kansas","City":"Lawrence","Street":"4900 Clinton Pkwy.","Zip":"66047","Longitude":"-95.30067924664279","Latitude":"38.94246751981686","Dates":null,"Products":""},{"Type":"farmers market","ModifyDate":"Mar 21st, 2023","Image":"default-farmersmarket-4-3.jpg","ListingID":"310316","Name":"Coffeyville Farmers' Market","Description":null,"ContactName":null,"ContactEmail":"cprice@coffeyville.com","ContactPhone":"620-251-2550","Website":null,"Facebook":null,"Twitter":null,"Instagram":null,"Pinterest":null,"Youtube":null,"Blog":null,"Address":"Walter Johnson Park , 401 Hargis Dr., Coffeyville, KS, 67337","State":"Kansas","City":"Coffeyville","Street":"401 Hargis Dr.","Zip":"67337","Longitude":"-95.59503828840742","Latitude":"37.03707865415841","Dates":null,"Products":""},{"Type":"farmers market","ModifyDate":"Mar 21st, 2023","Image":"default-farmersmarket-4-3.jpg","ListingID":"310317","Name":"Colwich Farmers Market","Description":null,"ContactName":null,"ContactEmail":"colwichnews@earthlink.net","ContactPhone":"316-796-0416","Website":null,"Facebook":"https:\/\/www.facebook.com\/CityofColwich\/","Twitter":null,"Instagram":null,"Pinterest":null,"Youtube":null,"Blog":null,"Address":"600 W. Chicago, Colwich, KS 67030","State":"Kansas","City":"Colwich","Street":"600 W. Chicago","Zip":"67030","Longitude":"-97.54062041961487","Latitude":"37.77919888965112","Dates":null,"Products":""},{"Type":"farmers market","ModifyDate":"Mar 21st, 2023","Image":"default-farmersmarket-4-3.jpg","ListingID":"310318","Name":"De Soto Farmers' Market","Description":null,"ContactName":null,"ContactEmail":"thebarnatkillcreekfarm@gmail.com","ContactPhone":"785-418-7788","Website":"http:\/\/thebarnatkillcreekfarm.org\/farmers-market\/","Facebook":null,"Twitter":null,"Instagram":null,"Pinterest":null,"Youtube":null,"Blog":null,"Address":"9200 Kill Creek Rd., De Soto, KS, 66018","State":"Kansas","City":"De Soto","Street":"9200 Kill Creek Rd.","Zip":"66018","Longitude":"-94.95519115604233","Latitude":"38.963293410952964","Dates":null,"Products":""},{"Type":"farmers market","ModifyDate":"Mar 21st, 2023","Image":"default-farmersmarket-4-3.jpg","ListingID":"310319","Name":"Depot Farm Market","Description":null,"ContactName":null,"ContactEmail":null,"ContactPhone":"785-374-4255","Website":"http:\/\/www.depotmarket.net","Facebook":"http:\/\/www.facebook.com\/DepotFarmMarket-WichitaCSA","Twitter":null,"Instagram":null,"Pinterest":null,"Youtube":null,"Blog":null,"Address":"2838 E. Douglas Wichita, KS 67214 CSA pickup and Farmer's Market will be on the east side of the building. Parking in front or in back.","State":"Kansas","City":"WICHITA","Street":"2838 E DOUGLAS AVE","Zip":"67214","Longitude":"-97.30301547256282","Latitude":"37.68628015845597","Dates":null,"Products":""},{"Type":"farmers market","ModifyDate":"Mar 21st, 2023","Image":"default-farmersmarket-4-3.jpg","ListingID":"310320","Name":"Dodge City Farmers' Market","Description":null,"ContactName":null,"ContactEmail":"madmaxx_27@hotmail.com","ContactPhone":"620-430-7122","Website":null,"Facebook":"https:\/\/www.facebook.com\/DCfarmersmarket\/?fref=ts","Twitter":null,"Instagram":null,"Pinterest":null,"Youtube":null,"Blog":null,"Address":"Front Street, between 1st & 2nd Ave, Dodge City, KS 67801","State":"Kansas","City":"Dodge City","Street":"Front Street, between 1st & 2nd Ave","Zip":"67801","Longitude":"-100.01627012147574","Latitude":"37.733645362021136","Dates":null,"Products":""},{"Type":"farmers market","ModifyDate":"Mar 21st, 2023","Image":"default-farmersmarket-4-3.jpg","ListingID":"310321","Name":"Downtown Farmers' Market of Manhattan Inc.","Description":null,"ContactName":null,"ContactEmail":"farmersmarketmanhattanks@gmail.com","ContactPhone":null,"Website":"http:\/\/www.manhattanfarmersmarket.org","Facebook":"https:\/\/www.facebook.com\/Downtown-Farmers-Market-of-Manhattan-115321431812597\/","Twitter":null,"Instagram":null,"Pinterest":null,"Youtube":null,"Blog":null,"Address":"Leavenworth St. & N 3rd St. , Manhattan, KS 66502","State":"Kansas","City":"Manhattan","Street":"Leavenworth St. & N 3rd St.","Zip":"66502","Longitude":"-96.56016998764136","Latitude":"39.18147000446052","Dates":null,"Products":""},{"Type":"farmers market","ModifyDate":"Mar 21st, 2023","Image":"default-farmersmarket-4-3.jpg","ListingID":"310322","Name":"Downtown Garden City Farmers' Market","Description":null,"ContactName":null,"ContactEmail":"jkdavis79@cox.net","ContactPhone":"620-640-4415","Website":null,"Facebook":null,"Twitter":null,"Instagram":null,"Pinterest":null,"Youtube":null,"Blog":null,"Address":"1118 Fleming St, Garden City, KS 67846","State":"Kansas","City":"Garden City","Street":"1118 Fleming St","Zip":"67846","Longitude":"-100.85429107107439","Latitude":"37.975871308865784","Dates":null,"Products":""},{"Type":"farmers market","ModifyDate":"Mar 21st, 2023","Image":"default-farmersmarket-4-3.jpg","ListingID":"310323","Name":"Downtown Hays Market","Description":null,"ContactName":null,"ContactEmail":"market@downtownhays.com","ContactPhone":null,"Website":"http:\/\/www.downtownhays.com\/downtown-hays-market","Facebook":"https:\/\/www.facebook.com\/DowntownHaysMarket\/","Twitter":null,"Instagram":null,"Pinterest":null,"Youtube":null,"Blog":null,"Address":"110 E 10th St, Hays, KS 67601","State":"Kansas","City":"Hays","Street":"110 E 10th St","Zip":"67601","Longitude":"-99.33046283786952","Latitude":"38.87154633001018","Dates":null,"Products":""},{"Type":"farmers market","ModifyDate":"Mar 21st, 2023","Image":"default-farmersmarket-4-3.jpg","ListingID":"310324","Name":"Downtown Topeka Farmers' Market","Description":null,"ContactName":null,"ContactEmail":"topekafarmersmarket@gmail.com","ContactPhone":null,"Website":"https:\/\/topekafarmersmarket.com\/","Facebook":"https:\/\/www.facebook.com\/pages\/Downtown-Topeka-Farmers-Market\/101321049927651","Twitter":null,"Instagram":null,"Pinterest":null,"Youtube":null,"Blog":null,"Address":"12th and Harrison, Topeka, KS 66612","State":"Kansas","City":"Topeka","Street":"12th and Harrison","Zip":"66612","Longitude":"-95.6812400164461","Latitude":"39.04416001357333","Dates":null,"Products":""},{"Type":"farmers market","ModifyDate":"Mar 21st, 2023","Image":"default-farmersmarket-4-3.jpg","ListingID":"310325","Name":"Doyle Valley Farmers' Market","Description":null,"ContactName":null,"ContactEmail":"angelgardend@yahoo.com","ContactPhone":"620-983-2810","Website":"http:\/\/www.peabodyks.com\/farmers-market.htm","Facebook":null,"Twitter":null,"Instagram":null,"Pinterest":null,"Youtube":null,"Blog":null,"Address":"100 S. Walnut St., Santa Fe Park, Peabody, KS, 66866","State":"Kansas","City":"Peabody","Street":"100 S. Walnut St.","Zip":"66866","Longitude":"-97.10680729422208","Latitude":"38.16486348995374","Dates":null,"Products":""},{"Type":"farmers market","ModifyDate":"Mar 21st, 2023","Image":"default-farmersmarket-4-3.jpg","ListingID":"310326","Name":"El Dorado Farmers' Market","Description":null,"ContactName":null,"ContactEmail":null,"ContactPhone":"316-320-4150","Website":"https:\/\/www.facebook.com\/TheOriginalElDoradoFarmersMarket","Facebook":null,"Twitter":null,"Instagram":null,"Pinterest":null,"Youtube":null,"Blog":null,"Address":"1000 S. Main St., El Dorado, KS, 67042","State":"Kansas","City":"El Dorado","Street":"1000 S. Main St.","Zip":"67042","Longitude":"-96.84977883568226","Latitude":"37.810061977157886","Dates":null,"Products":""},{"Type":"farmers market","ModifyDate":"Mar 21st, 2023","Image":"default-farmersmarket-4-3.jpg","ListingID":"310327","Name":"Farmers' Market in Liberal","Description":null,"ContactName":null,"ContactEmail":"lacfcommunications@gmail.com","ContactPhone":"620-391-2252","Website":"http:\/\/www.farmersmarketlk.com\/","Facebook":"https:\/\/www.facebook.com\/farmersmarketlk","Twitter":null,"Instagram":null,"Pinterest":null,"Youtube":null,"Blog":null,"Address":"7 Plaza Dr., Liberal, KS, 67901","State":"Kansas","City":"Liberal","Street":"7 Plaza Dr.","Zip":"67901","Longitude":"-100.92158400496541","Latitude":"37.05207499538179","Dates":null,"Products":""},{"Type":"farmers market","ModifyDate":"Mar 21st, 2023","Image":"default-farmersmarket-4-3.jpg","ListingID":"310328","Name":"Flint Hills Farmers' Market","Description":null,"ContactName":null,"ContactEmail":null,"ContactPhone":"785-539-8060","Website":null,"Facebook":null,"Twitter":null,"Instagram":null,"Pinterest":null,"Youtube":null,"Blog":null,"Address":"632 Tuttle Creek Blvd Manhattan, KS 66502","State":"Kansas","City":"MANHATTAN","Street":"632 TUTTLE CREEK BLVD","Zip":"66502","Longitude":"-96.55868313295807","Latitude":"39.18430708658311","Dates":null,"Products":""},{"Type":"farmers market","ModifyDate":"Mar 21st, 2023","Image":"default-farmersmarket-4-3.jpg","ListingID":"310329","Name":"Frankfort Farmers' Market","Description":null,"ContactName":null,"ContactEmail":"blkekcw@bluevalley.net","ContactPhone":"785-292-4333","Website":null,"Facebook":"https:\/\/www.facebook.com\/frankfortkansasfarmersmarket\/","Twitter":null,"Instagram":null,"Pinterest":null,"Youtube":null,"Blog":null,"Address":"Kansas Avenue and 2nd Street, Frankfort, KS 66427","State":"Kansas","City":"Frankfort","Street":"Kansas Avenue and 2nd Street","Zip":"66427","Longitude":"-96.41876996328065","Latitude":"39.70225001205796","Dates":null,"Products":""},{"Type":"farmers market","ModifyDate":"Mar 21st, 2023","Image":"default-farmersmarket-4-3.jpg","ListingID":"310330","Name":"Fredonia, Kansas Farmers' Market","Description":null,"ContactName":null,"ContactEmail":"pamela.walker@ks.nacdnet.net","ContactPhone":"620-433-1441","Website":null,"Facebook":"https:\/\/www.facebook.com\/Fredonia-Kansas-Farmers-Market-102252202110422","Twitter":null,"Instagram":null,"Pinterest":null,"Youtube":null,"Blog":null,"Address":"402 N 8th St, Fredonia, KS 66736","State":"Kansas","City":"Fredonia","Street":"402 N 8th St","Zip":"66736","Longitude":"-95.82491220962098","Latitude":"37.5345673138825","Dates":null,"Products":""},{"Type":"farmers market","ModifyDate":"Mar 21st, 2023","Image":"default-farmersmarket-4-3.jpg","ListingID":"310331","Name":"Fresh Start Youth Garden Market","Description":null,"ContactName":null,"ContactEmail":"Psteeleolson@gmail.com","ContactPhone":null,"Website":"http:\/\/Www.coffeyvillesreawakening.com","Facebook":"https:\/\/www.facebook.com\/FreshStartYouthGarden","Twitter":null,"Instagram":null,"Pinterest":null,"Youtube":null,"Blog":null,"Address":"1205 W 9th St, Coffeyville, KS 67337","State":"Kansas","City":"Coffeyville","Street":"1205 W 9th St","Zip":"67337","Longitude":"-95.63468382775928","Latitude":"37.03517814421689","Dates":null,"Products":""},{"Type":"farmers market","ModifyDate":"Mar 21st, 2023","Image":"default-farmersmarket-4-3.jpg","ListingID":"310332","Name":"Garnett Farmers' Market","Description":null,"ContactName":null,"ContactEmail":"director@garnettchamber.org","ContactPhone":null,"Website":"https:\/\/www.simplygarnett.com\/farmers-market.html","Facebook":"https:\/\/www.facebook.com\/garnettks\/","Twitter":null,"Instagram":null,"Pinterest":null,"Youtube":null,"Blog":null,"Address":"Main St between 4th & 5th Ave, Garnett, KS 66032","State":"Kansas","City":"Garnett","Street":"Main St between 4th & 5th Ave","Zip":"66032","Longitude":"-95.24023003654565","Latitude":"38.27988001903515","Dates":null,"Products":""},{"Type":"farmers market","ModifyDate":"Mar 21st, 2023","Image":"default-farmersmarket-4-3.jpg","ListingID":"310333","Name":"Geary Community Farmers Market","Description":null,"ContactName":null,"ContactEmail":"livewellgearycounty@gmail.com","ContactPhone":null,"Website":"https:\/\/www.livewellgearycounty.org\/farmers-market","Facebook":"https:\/\/www.facebook.com\/GearyCommunityFarmersMarket\/","Twitter":null,"Instagram":null,"Pinterest":null,"Youtube":null,"Blog":null,"Address":"1025 S Washington, Junction City, KS 66441","State":"Kansas","City":"Junction City","Street":"1025 S Washington","Zip":"66441","Longitude":"-96.83198002019523","Latitude":"39.01020400180025","Dates":null,"Products":""},{"Type":"farmers market","ModifyDate":"Mar 21st, 2023","Image":"default-farmersmarket-4-3.jpg","ListingID":"310334","Name":"Girard Farmer's Market","Description":null,"ContactName":null,"ContactEmail":"sthomappr@hotmail.com","ContactPhone":"620-724-0472","Website":null,"Facebook":"https:\/\/www.facebook.com\/pg\/HarrigansBarn\/photos\/?ref=page_internal","Twitter":null,"Instagram":null,"Pinterest":null,"Youtube":null,"Blog":null,"Address":"108 E. Forest , Girard, KS 66743","State":"Kansas","City":"Girard","Street":"108 E. Forest","Zip":"66743","Longitude":"-94.84314367743441","Latitude":"37.51082417970289","Dates":null,"Products":""},{"Type":"farmers market","ModifyDate":"Mar 21st, 2023","Image":"default-farmersmarket-4-3.jpg","ListingID":"310335","Name":"Goodland Farmers' Market","Description":null,"ContactName":null,"ContactEmail":"goodlandfarmersmkt@gmail.com","ContactPhone":"785-899-5809","Website":"https:\/\/www.facebook.com\/goodlandfarmersmarket","Facebook":null,"Twitter":null,"Instagram":null,"Pinterest":null,"Youtube":null,"Blog":null,"Address":"13th & Center, Goodland, KS, 67735","State":"Kansas","City":"Goodland","Street":"13th & Center","Zip":"67735","Longitude":"-101.71317001884485","Latitude":"39.345849980295554","Dates":null,"Products":""},{"Type":"farmers market","ModifyDate":"Mar 21st, 2023","Image":"default-farmersmarket-4-3.jpg","ListingID":"310336","Name":"Goodland Open Air Market","Description":null,"ContactName":null,"ContactEmail":"mecoumerilh@gmail.com","ContactPhone":null,"Website":"http:\/\/www.goodlandmarket.org","Facebook":"https:\/\/www.facebook.com\/GoodlandFM\/","Twitter":null,"Instagram":null,"Pinterest":null,"Youtube":null,"Blog":null,"Address":"1218 Main , Goodland, KS 67736","State":"Kansas","City":"Goodland","Street":"1218 Main","Zip":"67736","Longitude":"-101.71186411160349","Latitude":"39.346689068685116","Dates":null,"Products":""},{"Type":"farmers market","ModifyDate":"Mar 21st, 2023","Image":"default-farmersmarket-4-3.jpg","ListingID":"310337","Name":"Greeley County Farmers' Market","Description":null,"ContactName":null,"ContactEmail":"greeleycountyfarmersmarket@gmail.com","ContactPhone":"620-290-2424","Website":"http:\/\/www.greeleycounty.org","Facebook":"https:\/\/www.facebook.com\/greeleycountyfarmersmarket","Twitter":null,"Instagram":null,"Pinterest":null,"Youtube":null,"Blog":null,"Address":"422 Broadway Ave., Tribune, KS, 67879","State":"Kansas","City":"Tribune","Street":"422 Broadway Ave.","Zip":"67879","Longitude":"-101.75240230532161","Latitude":"38.46899903284096","Dates":null,"Products":""},{"Type":"farmers market","ModifyDate":"Mar 21st, 2023","Image":"default-farmersmarket-4-3.jpg","ListingID":"310338","Name":"Greeley County's Fresh Farmers' Market","Description":null,"ContactName":null,"ContactEmail":"greeleyc@fairpoint.net","ContactPhone":"620-376-2548","Website":null,"Facebook":"https:\/\/www.facebook.com\/greeleycountyfarmersmarket","Twitter":null,"Instagram":null,"Pinterest":null,"Youtube":null,"Blog":null,"Address":"513 Broadway, Tribune, KS 67879","State":"Kansas","City":"Tribune","Street":"513 Broadway","Zip":"67879","Longitude":"-101.75241998498518","Latitude":"38.469958260110715","Dates":null,"Products":""},{"Type":"farmers market","ModifyDate":"Mar 21st, 2023","Image":"default-farmersmarket-4-3.jpg","ListingID":"310339","Name":"Harper County Homegrown Farm & Art Market","Description":null,"ContactName":null,"ContactEmail":"hpcohomegrown@gmail.com","ContactPhone":"620-517-0053","Website":null,"Facebook":"https:\/\/www.facebook.com\/groups\/286449235700499\/permalink\/286474562364633","Twitter":null,"Instagram":null,"Pinterest":null,"Youtube":null,"Blog":null,"Address":"485 N State Highway 2, Anthony, KS 67003","State":"Kansas","City":"Anthony","Street":"485 N State Highway 2","Zip":"67003","Longitude":"-98.03924640706707","Latitude":"37.155460835103625","Dates":null,"Products":""},{"Type":"farmers market","ModifyDate":"Mar 21st, 2023","Image":"default-farmersmarket-4-3.jpg","ListingID":"310340","Name":"Harvey County Farmers' Market","Description":null,"ContactName":null,"ContactEmail":"jbhurd1968@gmail.com","ContactPhone":"316-734-1292","Website":null,"Facebook":"https:\/\/www.facebook.com\/Harvey-County-Farmers-Market-281604502045185\/","Twitter":null,"Instagram":null,"Pinterest":null,"Youtube":null,"Blog":null,"Address":"301 North Main Street, Newton, KS 67114","State":"Kansas","City":"Newton","Street":"301 North Main Street","Zip":"67114","Longitude":"-97.34508305667585","Latitude":"38.045178802352744","Dates":null,"Products":""},{"Type":"farmers market","ModifyDate":"Mar 21st, 2023","Image":"default-farmersmarket-4-3.jpg","ListingID":"310341","Name":"Haven Farmer's Market","Description":null,"ContactName":null,"ContactEmail":"shannindrettig@gmail.com","ContactPhone":null,"Website":"http:\/\/www.havenchamber.com","Facebook":"https:\/\/www.facebook.com\/HavenChamber","Twitter":null,"Instagram":null,"Pinterest":null,"Youtube":null,"Blog":null,"Address":"110 N. Salina Drive, Haven, KS 67543","State":"Kansas","City":"Haven","Street":"110 N. Salina Drive","Zip":"67543","Longitude":"-97.7762120498142","Latitude":"37.901381267823815","Dates":null,"Products":""},{"Type":"farmers market","ModifyDate":"Mar 21st, 2023","Image":"default-farmersmarket-4-3.jpg","ListingID":"310342","Name":"Hays Area Farmers Market I","Description":null,"ContactName":null,"ContactEmail":null,"ContactPhone":"785-625-7316","Website":null,"Facebook":null,"Twitter":null,"Instagram":null,"Pinterest":null,"Youtube":null,"Blog":null,"Address":"2900 Broadway Avenue 2900 Broadway Avenue Hays, KS 67601","State":"Kansas","City":"ANTONINO","Street":"2900 BROADWAY AVE","Zip":"67601","Longitude":"-99.31398495347541","Latitude":"38.88959926719843","Dates":null,"Products":""},{"Type":"farmers market","ModifyDate":"Mar 21st, 2023","Image":"default-farmersmarket-4-3.jpg","ListingID":"310343","Name":"Hays Downtown Farmers' Market","Description":null,"ContactName":null,"ContactEmail":"market@downtownhays.com","ContactPhone":"785-621-4171","Website":"http:\/\/www.downtownhays.com\/#!downtown-hays-market\/c4r","Facebook":"https:\/\/www.facebook.com\/DowntownHaysMarket","Twitter":null,"Instagram":null,"Pinterest":null,"Youtube":null,"Blog":null,"Address":"107 W. 10th St., Hays, KS, 67601","State":"Kansas","City":"Hays","Street":"107 W. 10th St.","Zip":"67601","Longitude":"-99.33097861891316","Latitude":"38.871733018731334","Dates":null,"Products":""},{"Type":"farmers market","ModifyDate":"Mar 21st, 2023","Image":"default-farmersmarket-4-3.jpg","ListingID":"310344","Name":"Haysville Hometown Market","Description":null,"ContactName":null,"ContactEmail":"hometownmarket@haysville-ks.com","ContactPhone":null,"Website":"http:\/\/www.haysville-ks.com\/hometown-market","Facebook":"https:\/\/www.facebook.com\/HaysvilleHM\/","Twitter":null,"Instagram":null,"Pinterest":null,"Youtube":null,"Blog":null,"Address":"100 S. Main Street, Haysville, KS 67060","State":"Kansas","City":"Haysville","Street":"100 S. Main Street","Zip":"67060","Longitude":"-97.35109084833418","Latitude":"37.56415239049802","Dates":null,"Products":""},{"Type":"farmers market","ModifyDate":"Mar 21st, 2023","Image":"default-farmersmarket-4-3.jpg","ListingID":"310345","Name":"Hiawatha Farmers' Market","Description":null,"ContactName":null,"ContactEmail":"angelatwombly97@gmail.com","ContactPhone":"785-547-5342","Website":null,"Facebook":"https:\/\/www.facebook.com\/HiawathaFarmersMarketKS\/","Twitter":null,"Instagram":null,"Pinterest":null,"Youtube":null,"Blog":null,"Address":"201 E. Iowa, Hiawatha, KS 66434","State":"Kansas","City":"Hiawatha","Street":"201 E. Iowa","Zip":"66434","Longitude":"-95.52466090212002","Latitude":"39.84874210411588","Dates":null,"Products":""},{"Type":"farmers market","ModifyDate":"Mar 21st, 2023","Image":"default-farmersmarket-4-3.jpg","ListingID":"310346","Name":"Hillsboro Farmers' Market","Description":null,"ContactName":null,"ContactEmail":"hillsborochamber@hillsboro-kansas.com","ContactPhone":"620-947-3506","Website":null,"Facebook":"https:\/\/www.facebook.com\/hillsboroksfarmersmarket\/","Twitter":null,"Instagram":null,"Pinterest":null,"Youtube":null,"Blog":null,"Address":"Memorial Drive, Hillsboro, KS 67063","State":"Kansas","City":"Hillsboro","Street":"Memorial Drive","Zip":"67063","Longitude":"-97.20762761055522","Latitude":"38.34573099220745","Dates":null,"Products":""},{"Type":"farmers market","ModifyDate":"Mar 21st, 2023","Image":"default-farmersmarket-4-3.jpg","ListingID":"310347","Name":"Hooterville Garden Center Farmers' Market","Description":null,"ContactName":null,"ContactEmail":null,"ContactPhone":"785-836-7395","Website":"http:\/\/hootervillegc.com","Facebook":null,"Twitter":null,"Instagram":null,"Pinterest":null,"Youtube":null,"Blog":null,"Address":"12165 s topeka ave carbondale, KS 66414","State":"Kansas","City":"CARBONDALE","Street":"12165 S TOPEKA AVE","Zip":"66414","Longitude":"-95.68706451770338","Latitude":"38.847370000702284","Dates":null,"Products":""},{"Type":"farmers market","ModifyDate":"Mar 21st, 2023","Image":"default-farmersmarket-4-3.jpg","ListingID":"310348","Name":"Independence Downtown Farmers' Market","Description":null,"ContactName":null,"ContactEmail":null,"ContactPhone":"620-331-7831","Website":"http:\/\/www.independencemainstreet.com\/Farmer-Market-48443.asp","Facebook":null,"Twitter":null,"Instagram":null,"Pinterest":null,"Youtube":null,"Blog":null,"Address":"Myrtle St. and Penn Ave., Independence, KS, 67301","State":"Kansas","City":"Independence","Street":"Myrtle St. and Penn Ave.","Zip":"67301","Longitude":"-95.7066800145929","Latitude":"37.2243700023854","Dates":null,"Products":""},{"Type":"farmers market","ModifyDate":"Mar 21st, 2023","Image":"default-farmersmarket-4-3.jpg","ListingID":"310349","Name":"Independence Farmers & Makers Market","Description":null,"ContactName":null,"ContactEmail":"indyksmnst@gmail.com","ContactPhone":null,"Website":"https:\/\/www.independencemainstreet.com\/independence-farmers-and-makers-market","Facebook":"https:\/\/www.facebook.com\/independencefarmersmkt","Twitter":null,"Instagram":null,"Pinterest":null,"Youtube":null,"Blog":null,"Address":"Chestnut & 8th Street, Independence, KS 67301","State":"Kansas","City":"Independence","Street":"Chestnut & 8th Street","Zip":"67301","Longitude":"-95.70803000391835","Latitude":"37.22658001688616","Dates":null,"Products":""},{"Type":"farmers market","ModifyDate":"Mar 21st, 2023","Image":"default-farmersmarket-4-3.jpg","ListingID":"310350","Name":"Kansas Grown Farmers' Market","Description":null,"ContactName":null,"ContactEmail":"ksgrownfarmersmarket@gmail.com","ContactPhone":"316-644-9276","Website":"http:\/\/kansasgrowninc.com","Facebook":"https:\/\/www.facebook.com\/kansasgrownfarmersmarkets","Twitter":null,"Instagram":null,"Pinterest":null,"Youtube":null,"Blog":null,"Address":"8141 E. 21st St. N, Wichita, KS, 67206","State":"Kansas","City":"Wichita","Street":"8141 E. 21st St. N","Zip":"67206","Longitude":"-97.24268470463234","Latitude":"37.723011667975996","Dates":null,"Products":""},{"Type":"farmers market","ModifyDate":"Mar 21st, 2023","Image":"default-farmersmarket-4-3.jpg","ListingID":"310351","Name":"KC Farm School Farmers Market","Description":null,"ContactName":null,"ContactEmail":"alicia@kcfarmschool.org","ContactPhone":null,"Website":"https:\/\/www.kcfarmschool.org\/kc-farm-school-farmers-market","Facebook":"https:\/\/www.facebook.com\/onfarmhandson","Twitter":null,"Instagram":null,"Pinterest":null,"Youtube":null,"Blog":null,"Address":"4223 Gibbs Road, Kansas City, KS 66106","State":"Kansas","City":"Kansas City","Street":"4223 Gibbs Road","Zip":"66106","Longitude":"-94.6774562465319","Latitude":"39.0586433593376","Dates":null,"Products":""},{"Type":"farmers market","ModifyDate":"Mar 21st, 2023","Image":"default-farmersmarket-4-3.jpg","ListingID":"310352","Name":"KCK Farmers Market","Description":null,"ContactName":null,"ContactEmail":"kckfarmersmarket@gmail.com","ContactPhone":"913-553-9193","Website":"http:\/\/www.kckfarmersmarket.com\/","Facebook":null,"Twitter":null,"Instagram":null,"Pinterest":null,"Youtube":null,"Blog":null,"Address":"Campus Blvd. & Argentine Ln., Kansas City, KS, 66112","State":"Kansas","City":"Kansas City","Street":"Campus Blvd. & Argentine Ln.","Zip":"66112","Longitude":"-94.75023001187958","Latitude":"39.121610014290354","Dates":null,"Products":""},{"Type":"farmers market","ModifyDate":"Mar 21st, 2023","Image":"default-farmersmarket-4-3.jpg","ListingID":"310353","Name":"Kingman Farmers Market @ The Binyard","Description":null,"ContactName":null,"ContactEmail":"thebinyardkingman@gmail.com","ContactPhone":null,"Website":"https:\/\/www.thebinyard.com\/","Facebook":"https:\/\/www.facebook.com\/thebinyardkingman","Twitter":null,"Instagram":null,"Pinterest":null,"Youtube":null,"Blog":null,"Address":"100 North Main Street, Kingman, KS 67068","State":"Kansas","City":"Kingman","Street":"100 North Main Street","Zip":"67068","Longitude":"-98.11319294490418","Latitude":"37.642069467695535","Dates":null,"Products":""},{"Type":"farmers market","ModifyDate":"Mar 21st, 2023","Image":"default-farmersmarket-4-3.jpg","ListingID":"310354","Name":"Larned - Hillside Farmers' Market","Description":null,"ContactName":null,"ContactEmail":"hillsidelarned@gmail.com","ContactPhone":null,"Website":"http:\/\/www.hillsidelarned.com\/","Facebook":"https:\/\/www.facebook.com\/pages\/category\/Nonprofit-Organization\/Hillside-Envisions-Pawnee-Co-Inc-2037035486423000\/","Twitter":null,"Instagram":null,"Pinterest":null,"Youtube":null,"Blog":null,"Address":"502 W 5th street, Larned, KS 67550","State":"Kansas","City":"Larned","Street":"502 W 5th street","Zip":"67550","Longitude":"-99.10390080467822","Latitude":"38.1785466288894","Dates":null,"Products":""},{"Type":"farmers market","ModifyDate":"Mar 21st, 2023","Image":"default-farmersmarket-4-3.jpg","ListingID":"310355","Name":"Lawrence Farmers' Market","Description":null,"ContactName":null,"ContactEmail":"lawrencefarmersmarket@gmail.com","ContactPhone":null,"Website":"http:\/\/www.lawrencefarmersmarket.org","Facebook":"https:\/\/www.facebook.com\/lawrencefarmersmarket","Twitter":null,"Instagram":null,"Pinterest":null,"Youtube":null,"Blog":null,"Address":"824 New Hampshire St., Lawrence, KS 66044","State":"Kansas","City":"Lawrence","Street":"824 New Hampshire St.","Zip":"66044","Longitude":"-95.23469821173988","Latitude":"38.968849199420134","Dates":null,"Products":""},{"Type":"farmers market","ModifyDate":"Mar 21st, 2023","Image":"default-farmersmarket-4-3.jpg","ListingID":"310356","Name":"Leavenworth Farmers' Market","Description":null,"ContactName":null,"ContactEmail":"jacobsfarm19@msn.com","ContactPhone":null,"Website":"http:\/\/www.leavenworthfarmersmarket.com\/","Facebook":"https:\/\/www.facebook.com\/Leavenworth-Farmers-Market-100280160021755\/","Twitter":null,"Instagram":null,"Pinterest":null,"Youtube":null,"Blog":null,"Address":"Haymarket Square Pavilion @ 7th and Cherokee Streets, Leavenworth, KS 66048","State":"Kansas","City":"Leavenworth","Street":"7th and Cherokee Streets","Zip":"66048","Longitude":"-94.91822003150276","Latitude":"39.31666000248708","Dates":null,"Products":""},{"Type":"farmers market","ModifyDate":"Mar 21st, 2023","Image":"default-farmersmarket-4-3.jpg","ListingID":"310357","Name":"Lenexa Farmers' Market","Description":null,"ContactName":null,"ContactEmail":"jdoty@lenexa.com","ContactPhone":null,"Website":"http:\/\/www.lenexa.com\/farmersmarket","Facebook":"https:\/\/www.facebook.com\/groups\/lenexafarmmkt\/","Twitter":null,"Instagram":null,"Pinterest":null,"Youtube":null,"Blog":null,"Address":"17201 W. 87th St. Pkwy, Lenexa, KS 66219","State":"Kansas","City":"Lenexa","Street":"17201 W. 87th St. Pkwy","Zip":"66219","Longitude":"-94.78569401185294","Latitude":"38.96959598593861","Dates":null,"Products":""},{"Type":"farmers market","ModifyDate":"Mar 21st, 2023","Image":"default-farmersmarket-4-3.jpg","ListingID":"310358","Name":"Leoti Farmers' Market","Description":null,"ContactName":null,"ContactEmail":"wced@wbsnet.org","ContactPhone":"620-375-2182","Website":null,"Facebook":null,"Twitter":null,"Instagram":null,"Pinterest":null,"Youtube":null,"Blog":null,"Address":"612 W. Broadway, Courthouse lawn, Leoti, KS, 67861","State":"Kansas","City":"Leoti","Street":"612 W. Broadway","Zip":"67861","Longitude":"-101.36571917390489","Latitude":"38.48138495273188","Dates":null,"Products":""},{"Type":"farmers market","ModifyDate":"Mar 21st, 2023","Image":"default-farmersmarket-4-3.jpg","ListingID":"310359","Name":"Liberal Community Farmers Market","Description":null,"ContactName":null,"ContactEmail":null,"ContactPhone":"316-624-3939","Website":null,"Facebook":null,"Twitter":null,"Instagram":null,"Pinterest":null,"Youtube":null,"Blog":null,"Address":"4 Rock Island Road Liberal, KS 67901","State":"Kansas","City":"LIBERAL","Street":"4 ROCK ISLAND RD","Zip":"67901","Longitude":"-100.92200087699888","Latitude":"37.03889269605171","Dates":null,"Products":""},{"Type":"farmers market","ModifyDate":"Mar 21st, 2023","Image":"default-farmersmarket-4-3.jpg","ListingID":"310360","Name":"Liberal KS Farmers' Market","Description":null,"ContactName":null,"ContactEmail":"farmersmarketlk@gmail.com","ContactPhone":null,"Website":"http:\/\/www.farmersmarketlk.com","Facebook":"https:\/\/www.facebook.com\/farmersmarketlk\/","Twitter":null,"Instagram":null,"Pinterest":null,"Youtube":null,"Blog":null,"Address":"1195 N. Kansas Ave, Liberal, KS 67901","State":"Kansas","City":"Liberal","Street":"1195 N. Kansas Ave","Zip":"67901","Longitude":"-100.9223085170128","Latitude":"37.05119450613985","Dates":null,"Products":""},{"Type":"farmers market","ModifyDate":"Mar 21st, 2023","Image":"default-farmersmarket-4-3.jpg","ListingID":"310361","Name":"Louisburg Kansas Farmers Market","Description":null,"ContactName":null,"ContactEmail":null,"ContactPhone":"913-438-5397","Website":null,"Facebook":"https:\/\/www.facebook.com\/LouisburgFarmersMarket\/","Twitter":null,"Instagram":null,"Pinterest":null,"Youtube":null,"Blog":null,"Address":"S. 2nd St. and Mulberry St., Louisburg, KS, 66053","State":"Kansas","City":"Louisburg","Street":"S. 2nd St. and Mulberry St.","Zip":"66053","Longitude":"-94.68229996724162","Latitude":"38.61939001298481","Dates":null,"Products":""},{"Type":"farmers market","ModifyDate":"Mar 21st, 2023","Image":"default-farmersmarket-4-3.jpg","ListingID":"310362","Name":"Main Street Chanute Farmers Market","Description":null,"ContactName":null,"ContactEmail":"director@chanutemainstreet.com","ContactPhone":"620-431-0056","Website":null,"Facebook":"https:\/\/www.facebook.com\/mainstreetchanutefarmersmarket","Twitter":null,"Instagram":null,"Pinterest":null,"Youtube":null,"Blog":null,"Address":"Corner of Main St & Highland St, Chanute, KS 66720","State":"Kansas","City":"Chanute","Street":"Corner of Main St & Highland St","Zip":"66720","Longitude":"-95.45048001941781","Latitude":"37.68180997934277","Dates":null,"Products":""},{"Type":"farmers market","ModifyDate":"Mar 21st, 2023","Image":"default-farmersmarket-4-3.jpg","ListingID":"310363","Name":"Manhattan Farmers' Market","Description":null,"ContactName":null,"ContactEmail":"marketmanager@manhattanfarmersmarket.org","ContactPhone":"785-341-7794","Website":"http:\/\/www.manhattanfarmersmarket.org\/","Facebook":"https:\/\/www.facebook.com\/pages\/Downtown-Farmers-Market-of-Manhattan\/115321431812597","Twitter":null,"Instagram":null,"Pinterest":null,"Youtube":null,"Blog":null,"Address":"Kimball & Avery , CICO Park, Manhattan, KS, 66502","State":"Kansas","City":"Manhattan","Street":"Kimball & Avery","Zip":"66502","Longitude":"-96.62224996677705","Latitude":"39.20359998904337","Dates":null,"Products":""},{"Type":"farmers market","ModifyDate":"Mar 21st, 2023","Image":"default-farmersmarket-4-3.jpg","ListingID":"310364","Name":"Marysville Farmers' Market","Description":null,"ContactName":null,"ContactEmail":"vincemcsr@gmail.com","ContactPhone":"785-268-0332","Website":null,"Facebook":"https:\/\/www.facebook.com\/groups\/140885065983287\/","Twitter":null,"Instagram":null,"Pinterest":null,"Youtube":null,"Blog":null,"Address":"7th Street and Broadway, Marysville, KS 66508","State":"Kansas","City":"Marysville","Street":"7th Street and Broadway","Zip":"66508","Longitude":"-96.64937003359636","Latitude":"39.84172001939348","Dates":null,"Products":""},{"Type":"farmers market","ModifyDate":"Mar 21st, 2023","Image":"default-farmersmarket-4-3.jpg","ListingID":"310365","Name":"Marysville Kansas Farmers Market","Description":null,"ContactName":null,"ContactEmail":null,"ContactPhone":"785-562-6818","Website":null,"Facebook":null,"Twitter":null,"Instagram":null,"Pinterest":null,"Youtube":null,"Blog":null,"Address":"708 Broadway Marysville, KS 66508","State":"Kansas","City":"MARYSVILLE","Street":"708 BROADWAY ST","Zip":"66508","Longitude":"-96.64918295641695","Latitude":"39.84171914524448","Dates":null,"Products":""},{"Type":"farmers market","ModifyDate":"Mar 21st, 2023","Image":"default-farmersmarket-4-3.jpg","ListingID":"310366","Name":"McPherson County Farmers' Market","Description":null,"ContactName":null,"ContactEmail":"smarston@ksu.edu","ContactPhone":null,"Website":"https:\/\/www.mcpherson.k-state.edu\/farmersmarket\/","Facebook":"https:\/\/www.facebook.com\/mcphersoncountyfarmersmarket\/","Twitter":null,"Instagram":null,"Pinterest":null,"Youtube":null,"Blog":null,"Address":"600 W. Woodside, McPherson, KS 67460","State":"Kansas","City":"McPherson","Street":"600 W. Woodside","Zip":"67460","Longitude":"-97.67366407129171","Latitude":"38.3735573040429","Dates":null,"Products":""},{"Type":"farmers market","ModifyDate":"Mar 21st, 2023","Image":"default-farmersmarket-4-3.jpg","ListingID":"310367","Name":"Merriam Farmers' Market","Description":null,"ContactName":null,"ContactEmail":"iberg@merriam.org","ContactPhone":"913-322-5550","Website":"http:\/\/www.merriam.org\/322\/Farmers-Market","Facebook":"https:\/\/www.facebook.com\/merriamfarmersmarket\/","Twitter":null,"Instagram":null,"Pinterest":null,"Youtube":null,"Blog":null,"Address":"5740 Merriam Dr., Merriam, KS 66203","State":"Kansas","City":"Merriam","Street":"5740 Merriam Dr.","Zip":"66203","Longitude":"-94.69405041238592","Latitude":"39.02480879047721","Dates":null,"Products":""},{"Type":"farmers market","ModifyDate":"Mar 21st, 2023","Image":"default-farmersmarket-4-3.jpg","ListingID":"310368","Name":"MHK Community Market","Description":null,"ContactName":null,"ContactEmail":"mhkcommunitymarket@gmail.com","ContactPhone":"785-477-6517","Website":null,"Facebook":"https:\/\/www.facebook.com\/mhkcommunitymarket","Twitter":null,"Instagram":null,"Pinterest":null,"Youtube":null,"Blog":null,"Address":"114 McCall Rd, MANHATTAN, KS 66502","State":"Kansas","City":"MANHATTAN","Street":"114 McCall Rd","Zip":"66502","Longitude":"-96.55811806935422","Latitude":"39.18939730924338","Dates":null,"Products":""},{"Type":"farmers market","ModifyDate":"Mar 21st, 2023","Image":"default-farmersmarket-4-3.jpg","ListingID":"310369","Name":"Minneapolis Farmers Market","Description":null,"ContactName":null,"ContactEmail":null,"ContactPhone":"785-392-2147","Website":null,"Facebook":null,"Twitter":null,"Instagram":null,"Pinterest":null,"Youtube":null,"Blog":null,"Address":"210 North Rock 210 North Rock Minneapolis, KS 67467","State":"Kansas","City":"MINNEAPOLIS","Street":"210 N ROCK ST","Zip":"67467","Longitude":"-97.70592896395863","Latitude":"39.122527272974544","Dates":null,"Products":""},{"Type":"farmers market","ModifyDate":"Mar 21st, 2023","Image":"default-farmersmarket-4-3.jpg","ListingID":"310370","Name":"Mission Farm and Flower Market","Description":null,"ContactName":null,"ContactEmail":"erandel@missionks.org","ContactPhone":"913-676-8368","Website":"http:\/\/www.missionks.org\/market","Facebook":"https:\/\/www.facebook.com\/missionfarmandflowermarke","Twitter":null,"Instagram":null,"Pinterest":null,"Youtube":null,"Blog":null,"Address":"5613 Johnson Dr., Mission, KS, 66202","State":"Kansas","City":"Mission","Street":"5613 Johnson Dr.","Zip":"66202","Longitude":"-94.65043473673047","Latitude":"39.02222547681127","Dates":null,"Products":""},{"Type":"farmers market","ModifyDate":"Mar 21st, 2023","Image":"default-farmersmarket-4-3.jpg","ListingID":"310371","Name":"Mission Market","Description":null,"ContactName":null,"ContactEmail":"market@missionks.org","ContactPhone":null,"Website":"https:\/\/www.missionks.org\/parks-recreation\/mission-market\/","Facebook":"https:\/\/www.facebook.com\/missionksmarket","Twitter":null,"Instagram":null,"Pinterest":null,"Youtube":null,"Blog":null,"Address":"5635 Johnson Drive, Mission, KS 66202","State":"Kansas","City":"Mission","Street":"5635 Johnson Drive","Zip":"66202","Longitude":"-94.65065229998018","Latitude":"39.022219550964","Dates":null,"Products":""},{"Type":"farmers market","ModifyDate":"Mar 21st, 2023","Image":"default-farmersmarket-4-3.jpg","ListingID":"310372","Name":"Monday Farmers Market At Your Library","Description":null,"ContactName":null,"ContactEmail":"meetings@tscpl.org","ContactPhone":null,"Website":"https:\/\/tscpl.org\/services\/monday-farmers-market","Facebook":null,"Twitter":null,"Instagram":null,"Pinterest":null,"Youtube":null,"Blog":null,"Address":"Topeka & Shawnee Co Public Library 1515 SW 10th Ave, Topeka, KS 66604","State":"Kansas","City":"Topeka","Street":"1515 SW 10th Ave","Zip":"66604","Longitude":"-95.69656599112626","Latitude":"39.050776981306626","Dates":null,"Products":""},{"Type":"farmers market","ModifyDate":"Mar 21st, 2023","Image":"default-farmersmarket-4-3.jpg","ListingID":"310373","Name":"Moundridge Farmers Market","Description":null,"ContactName":null,"ContactEmail":"goeringlinda@yahoo.com","ContactPhone":"620-345-2899","Website":null,"Facebook":"https:\/\/www.facebook.com\/profile.php?id=100057357163276","Twitter":null,"Instagram":null,"Pinterest":null,"Youtube":null,"Blog":null,"Address":"406 W Cole St, Moundridge, KS 67107","State":"Kansas","City":"Moundridge","Street":"406 W Cole St","Zip":"67107","Longitude":"-97.52382086775542","Latitude":"38.203047016472155","Dates":null,"Products":""},{"Type":"farmers market","ModifyDate":"Mar 21st, 2023","Image":"default-farmersmarket-4-3.jpg","ListingID":"310374","Name":"Newton Farm & Art Market","Description":null,"ContactName":null,"ContactEmail":"onorm@att.net","ContactPhone":"316-587-8070","Website":null,"Facebook":"https:\/\/www.facebook.com\/NewtonFarmArtMarket","Twitter":null,"Instagram":null,"Pinterest":null,"Youtube":null,"Blog":null,"Address":"121 East 6th , Newton, KS 67114","State":"Kansas","City":"Newton","Street":"121 East 6th","Zip":"67114","Longitude":"-97.34456592804426","Latitude":"38.04866992943419","Dates":null,"Products":""},{"Type":"farmers market","ModifyDate":"Mar 21st, 2023","Image":"default-farmersmarket-4-3.jpg","ListingID":"310375","Name":"Nomad Market KC","Description":null,"ContactName":null,"ContactEmail":"nomadmarketkc@gmail.com","ContactPhone":"785-268-0162","Website":null,"Facebook":"https:\/\/www.facebook.com\/nomadmarketkc","Twitter":null,"Instagram":null,"Pinterest":null,"Youtube":null,"Blog":null,"Address":"604 S. 2nd St., Louisburg, KS 66053","State":"Kansas","City":"Louisburg","Street":"604 S. 2nd St.","Zip":"66053","Longitude":"-94.68239875537074","Latitude":"38.61938561583064","Dates":null,"Products":""},{"Type":"farmers market","ModifyDate":"Mar 21st, 2023","Image":"default-farmersmarket-4-3.jpg","ListingID":"310376","Name":"Norton Farmers Market","Description":null,"ContactName":null,"ContactEmail":"nortoncc@ruraltel.net","ContactPhone":"785-877-2501","Website":null,"Facebook":"https:\/\/www.facebook.com\/NortonFarmersMarket","Twitter":null,"Instagram":null,"Pinterest":null,"Youtube":null,"Blog":null,"Address":"Station 15, Norton, KS 67654-2107","State":"Kansas","City":"Norton","Street":"Station 15","Zip":"67654","Longitude":"-99.88701303897224","Latitude":"39.829185396689965","Dates":null,"Products":""},{"Type":"farmers market","ModifyDate":"Mar 21st, 2023","Image":"default-farmersmarket-4-3.jpg","ListingID":"310377","Name":"Oberlin Farmers' Market","Description":null,"ContactName":null,"ContactEmail":null,"ContactPhone":"785-475-3441","Website":null,"Facebook":null,"Twitter":null,"Instagram":null,"Pinterest":null,"Youtube":null,"Blog":null,"Address":"104 S. Penn St., Oberlin, KS, 67749","State":"Kansas","City":"Oberlin","Street":"104 S. Penn St.","Zip":"67749","Longitude":"-100.52900362200694","Latitude":"39.82067588965584","Dates":null,"Products":""},{"Type":"farmers market","ModifyDate":"Mar 21st, 2023","Image":"default-farmersmarket-4-3.jpg","ListingID":"310378","Name":"Ottawa Farmers' Market","Description":null,"ContactName":null,"ContactEmail":null,"ContactPhone":"913-648-4152","Website":"http:\/\/visitottawakansas.com\/business_directory\/ottawa-farmers-market","Facebook":null,"Twitter":null,"Instagram":null,"Pinterest":null,"Youtube":null,"Blog":null,"Address":"2008 S. Princeton St., Ottawa, KS, 66067","State":"Kansas","City":"Ottawa","Street":"2008 S. Princeton St.","Zip":"66067","Longitude":"-95.26867100748638","Latitude":"38.58457301211757","Dates":null,"Products":""},{"Type":"farmers market","ModifyDate":"Mar 21st, 2023","Image":"default-farmersmarket-4-3.jpg","ListingID":"310379","Name":"Our Small Town Market","Description":null,"ContactName":null,"ContactEmail":"oursmalltownmarket@gmail.com","ContactPhone":"620-491-0322","Website":null,"Facebook":null,"Twitter":null,"Instagram":null,"Pinterest":null,"Youtube":null,"Blog":null,"Address":"208 W Main St, Anthony, KS 67003","State":"Kansas","City":"Anthony","Street":"208 W Main St","Zip":"67003","Longitude":"-98.03165235319871","Latitude":"37.15218364438865","Dates":null,"Products":""},{"Type":"farmers market","ModifyDate":"Mar 21st, 2023","Image":"default-farmersmarket-4-3.jpg","ListingID":"310380","Name":"Overland Park Farmers Market","Description":null,"ContactName":null,"ContactEmail":"kristina.stanley@opkansas.org","ContactPhone":null,"Website":"https:\/\/www.opkansas.org\/things-to-see-and-do\/farmers-market\/","Facebook":"https:\/\/www.facebook.com\/DowntownOverlandParkFarmersMarket\/","Twitter":null,"Instagram":null,"Pinterest":null,"Youtube":null,"Blog":null,"Address":"7950 Marty St., Overland Park , KS 66204","State":"Kansas","City":"Overland Park","Street":"7950 Marty St.","Zip":"66204","Longitude":"-94.6700435729761","Latitude":"38.984933933541406","Dates":null,"Products":""},{"Type":"farmers market","ModifyDate":"Mar 21st, 2023","Image":"default-farmersmarket-4-3.jpg","ListingID":"310381","Name":"Park Place Farmers' Market","Description":null,"ContactName":null,"ContactEmail":"farmersmarket@parkplaceleawood.com","ContactPhone":null,"Website":"https:\/\/www.parkplacefarmersmarket.com\/","Facebook":"https:\/\/www.facebook.com\/PPVFarmersMarket","Twitter":null,"Instagram":null,"Pinterest":null,"Youtube":null,"Blog":null,"Address":"116th Place between Rosewood & Ash St, Leawood, KS 66211","State":"Kansas","City":"Leawood","Street":"116th Place between Rosewood & Ash St","Zip":"66211","Longitude":"-94.64771003213139","Latitude":"38.91703998619553","Dates":null,"Products":""},{"Type":"farmers market","ModifyDate":"Mar 21st, 2023","Image":"default-farmersmarket-4-3.jpg","ListingID":"310382","Name":"Parsons Farmers' Market","Description":null,"ContactName":null,"ContactEmail":"gsassenrath@hotmail.com","ContactPhone":"620-820-6131","Website":null,"Facebook":"https:\/\/www.facebook.com\/Parsons-Farmers-Market-390076924351813\/","Twitter":null,"Instagram":null,"Pinterest":null,"Youtube":null,"Blog":null,"Address":"Corner of Heacock and Broadway, Parsons, KS 67357","State":"Kansas","City":"Parsons","Street":"Corner of Heacock and Broadway","Zip":"67357","Longitude":"-95.25175004045094","Latitude":"37.33953999231548","Dates":null,"Products":""},{"Type":"farmers market","ModifyDate":"Mar 21st, 2023","Image":"default-farmersmarket-4-3.jpg","ListingID":"310383","Name":"Phillips County Farmers Market","Description":null,"ContactName":null,"ContactEmail":"phillipscomarket@gmail.com","ContactPhone":"785-533-2627","Website":null,"Facebook":"https:\/\/www.facebook.com\/phillipscomarket","Twitter":null,"Instagram":null,"Pinterest":null,"Youtube":null,"Blog":null,"Address":"PO Box 508, Phillipsburg, KS 67661","State":"Kansas","City":"Phillipsburg","Street":"PO Box 508","Zip":"67661","Longitude":"-99.32174499999996","Latitude":"39.754155000000026","Dates":null,"Products":""},{"Type":"farmers market","ModifyDate":"Mar 21st, 2023","Image":"default-farmersmarket-4-3.jpg","ListingID":"310384","Name":"Pomona Farmers Market","Description":null,"ContactName":null,"ContactEmail":"aggkjg@gmail.com","ContactPhone":"785-214-9468","Website":null,"Facebook":"https:\/\/www.facebook.com\/PomonaFarmersMarket","Twitter":null,"Instagram":null,"Pinterest":null,"Youtube":null,"Blog":null,"Address":"409 W. Franklin St., POmona, KS 66067","State":"Kansas","City":"POmona","Street":"409 W. Franklin St.","Zip":"66067","Longitude":"-95.45795801938371","Latitude":"38.60848592042584","Dates":null,"Products":""},{"Type":"farmers market","ModifyDate":"Mar 21st, 2023","Image":"default-farmersmarket-4-3.jpg","ListingID":"310385","Name":"Public Library Monday Market","Description":null,"ContactName":null,"ContactEmail":"asktscpl@tscpl.org","ContactPhone":"785-580-4555","Website":"https:\/\/tscpl.org\/events\/monday-farmers-market","Facebook":null,"Twitter":null,"Instagram":null,"Pinterest":null,"Youtube":null,"Blog":null,"Address":"1515 SW 10th Ave., Topeka, KS, 66604","State":"Kansas","City":"Topeka","Street":"1515 SW 10th Ave.","Zip":"66604","Longitude":"-95.69591995808038","Latitude":"39.0511909765561","Dates":null,"Products":""},{"Type":"farmers market","ModifyDate":"Mar 21st, 2023","Image":"default-farmersmarket-4-3.jpg","ListingID":"310386","Name":"Quinter Farmers Market","Description":null,"ContactName":null,"ContactEmail":"quinterfarmersmarket@gmail.com","ContactPhone":"785-299-0152","Website":null,"Facebook":"https:\/\/www.facebook.com\/quinterkansasfarmersmarket\/","Twitter":null,"Instagram":null,"Pinterest":null,"Youtube":null,"Blog":null,"Address":"329 Main Street, Quinter, KS 67752","State":"Kansas","City":"Quinter","Street":"329 Main Street","Zip":"67752","Longitude":"-100.23480570883771","Latitude":"39.06936753373171","Dates":null,"Products":""},{"Type":"farmers market","ModifyDate":"Mar 21st, 2023","Image":"default-farmersmarket-4-3.jpg","ListingID":"310387","Name":"Reno County Farmers' Market","Description":null,"ContactName":null,"ContactEmail":"renocountyfarmersmarkethutch@gmail.com","ContactPhone":null,"Website":"https:\/\/www.rcfmks.com\/","Facebook":"https:\/\/www.facebook.com\/renocountyfarmersmarket\/","Twitter":null,"Instagram":null,"Pinterest":null,"Youtube":null,"Blog":null,"Address":"115 W 2nd Ave., Hutchinson, KS 67504","State":"Kansas","City":"Hutchinson","Street":"115 W 2nd Ave.","Zip":"67504","Longitude":"-97.9338746288029","Latitude":"38.05472471297897","Dates":null,"Products":""},{"Type":"farmers market","ModifyDate":"Mar 21st, 2023","Image":"default-farmersmarket-4-3.jpg","ListingID":"310388","Name":"Riverview Farm Market","Description":null,"ContactName":null,"ContactEmail":null,"ContactPhone":"913-299-6184","Website":null,"Facebook":null,"Twitter":null,"Instagram":null,"Pinterest":null,"Youtube":null,"Blog":null,"Address":"7851 Riverview Kansas City, KS 66112","State":"Kansas","City":"KANSAS CITY","Street":"7851 RIVERVIEW AVE","Zip":"66112","Longitude":"-94.7614805670352","Latitude":"39.101873090400275","Dates":null,"Products":""},{"Type":"farmers market","ModifyDate":"Mar 21st, 2023","Image":"default-farmersmarket-4-3.jpg","ListingID":"310389","Name":"Salina Farmers' Market","Description":null,"ContactName":null,"ContactEmail":"matermanjohn@hotmail.com","ContactPhone":"785-493-5313","Website":null,"Facebook":"https:\/\/www.facebook.com\/SalinaFarmersMarket\/","Twitter":null,"Instagram":null,"Pinterest":null,"Youtube":null,"Blog":null,"Address":"460 S Ohio, Waters True Value, Salina, KS 67401","State":"Kansas","City":"Salina","Street":"460 S Ohio","Zip":"67401","Longitude":"-97.59401465737363","Latitude":"38.83487641758918","Dates":null,"Products":""},{"Type":"farmers market","ModifyDate":"Mar 21st, 2023","Image":"default-farmersmarket-4-3.jpg","ListingID":"310390","Name":"Silver Lake Farmers Market","Description":null,"ContactName":null,"ContactEmail":"farmersmarket@silverlakelibrary.org","ContactPhone":null,"Website":"https:\/\/silverlakelibrary.org\/silver-lake-farmers-market\/","Facebook":"https:\/\/www.facebook.com\/SLFarmersMarket","Twitter":null,"Instagram":null,"Pinterest":null,"Youtube":null,"Blog":null,"Address":"203 Railroad Street, Silver Lake, KS 66539","State":"Kansas","City":"Silver Lake","Street":"203 Railroad Street","Zip":"66539","Longitude":"-95.85956976339376","Latitude":"39.105562603396706","Dates":null,"Products":""},{"Type":"farmers market","ModifyDate":"Mar 21st, 2023","Image":"default-farmersmarket-4-3.jpg","ListingID":"310391","Name":"Solomon Valley Farmers' Market","Description":null,"ContactName":null,"ContactEmail":"mastfile@gmail.com","ContactPhone":"785-738-0128","Website":null,"Facebook":"https:\/\/www.facebook.com\/SolomonValleyFarmersMarket","Twitter":null,"Instagram":null,"Pinterest":null,"Youtube":null,"Blog":null,"Address":"North Us Hwy 24, Beloit, KS 67420","State":"Kansas","City":"Beloit","Street":"North Us Hwy 24","Zip":"67420","Longitude":"-98.10005375277896","Latitude":"39.47633131616045","Dates":null,"Products":""},{"Type":"farmers market","ModifyDate":"Mar 21st, 2023","Image":"default-farmersmarket-4-3.jpg","ListingID":"310392","Name":"South Hutch Farmers' Market","Description":null,"ContactName":null,"ContactEmail":"kelsidepew@hotmail.com","ContactPhone":"620-664-8140","Website":null,"Facebook":"https:\/\/www.facebook.com\/southhutchfarmersmarket\/","Twitter":null,"Instagram":null,"Pinterest":null,"Youtube":null,"Blog":null,"Address":"401 Main, South Hutchinson, KS 67505","State":"Kansas","City":"South Hutchinson","Street":"401 Main","Zip":"67505","Longitude":"-97.94026272741038","Latitude":"38.02296269519591","Dates":null,"Products":""},{"Type":"farmers market","ModifyDate":"Mar 21st, 2023","Image":"default-farmersmarket-4-3.jpg","ListingID":"310393","Name":"South Hutchinson Farmers Market","Description":null,"ContactName":null,"ContactEmail":null,"ContactPhone":null,"Website":"http:\/\/www.renocountyfpc.com\/what-s-happenin--.html","Facebook":"http:\/\/www.facebook.com\/southhutchfarmersmarket\/","Twitter":null,"Instagram":null,"Pinterest":null,"Youtube":null,"Blog":null,"Address":"401 N. Main Streeet South Hutchinson, KS 67501 In the parking lot of Simply Overstock.","State":"Kansas","City":"HUTCHINSON","Street":"401 N MAIN ST","Zip":"67501","Longitude":"-97.93185797455537","Latitude":"38.05734925217414","Dates":null,"Products":""},{"Type":"farmers market","ModifyDate":"Mar 21st, 2023","Image":"default-farmersmarket-4-3.jpg","ListingID":"310394","Name":"Spring Hill Farmers Market","Description":null,"ContactName":null,"ContactEmail":"springhillksfarmersmarket@gmail.com","ContactPhone":"913-530-0712","Website":null,"Facebook":"https:\/\/www.facebook.com\/SpringHillFarmersMarketKS","Twitter":null,"Instagram":null,"Pinterest":null,"Youtube":null,"Blog":null,"Address":"406 W Nichols, Spring Hill, KS 66083","State":"Kansas","City":"Spring Hill","Street":"406 W Nichols","Zip":"66083","Longitude":"-94.82988538544583","Latitude":"38.74373126357488","Dates":null,"Products":""},{"Type":"farmers market","ModifyDate":"Mar 21st, 2023","Image":"default-farmersmarket-4-3.jpg","ListingID":"310395","Name":"Step Back In Time Food Market Llc","Description":null,"ContactName":null,"ContactEmail":"crosscreek6@yahoo.com","ContactPhone":"785-698-2330","Website":null,"Facebook":"https:\/\/www.facebook.com\/localfoodLuray","Twitter":null,"Instagram":null,"Pinterest":null,"Youtube":null,"Blog":null,"Address":"114 S. Main, Luray, KS 67649","State":"Kansas","City":"Luray","Street":"114 S. Main","Zip":"67649","Longitude":"-98.69203082355457","Latitude":"39.11262966717645","Dates":null,"Products":""},{"Type":"farmers market","ModifyDate":"Mar 21st, 2023","Image":"default-farmersmarket-4-3.jpg","ListingID":"310396","Name":"Summer Street Stroll Farmers Market","Description":null,"ContactName":null,"ContactEmail":"health@bartoncounty.org","ContactPhone":"620-793-1902","Website":"http:\/\/www.visitgreatbend.com","Facebook":null,"Twitter":null,"Instagram":null,"Pinterest":null,"Youtube":null,"Blog":null,"Address":"1400 Main St., Great Bend, KS, 67530","State":"Kansas","City":"Great Bend","Street":"1400 Main St.","Zip":"67530","Longitude":"-98.76513209719991","Latitude":"38.36555618678406","Dates":null,"Products":""},{"Type":"farmers market","ModifyDate":"Mar 21st, 2023","Image":"default-farmersmarket-4-3.jpg","ListingID":"310397","Name":"T-Bones Market","Description":null,"ContactName":null,"ContactEmail":null,"ContactPhone":"913-328-5681","Website":null,"Facebook":null,"Twitter":null,"Instagram":null,"Pinterest":null,"Youtube":null,"Blog":null,"Address":"1800 Village West Parkway Kansas City, KS 66111","State":"Kansas","City":"KANSAS CITY","Street":"1800 VILLAGE WEST PKWY","Zip":"66111","Longitude":"-94.82873269015693","Latitude":"39.12501523986815","Dates":null,"Products":""},{"Type":"farmers market","ModifyDate":"Mar 21st, 2023","Image":"default-farmersmarket-4-3.jpg","ListingID":"310398","Name":"Thomas County Farmers' Market","Description":null,"ContactName":null,"ContactEmail":"ThomasCountyFarmersMarket@yahoo.com","ContactPhone":"785-953-1149","Website":null,"Facebook":"https:\/\/www.facebook.com\/thomascountyfarmersmarket\/","Twitter":null,"Instagram":null,"Pinterest":null,"Youtube":null,"Blog":null,"Address":"Fike Park, Colby, KS 67701","State":"Kansas","City":"Colby","Street":"Fike Park","Zip":"67701","Longitude":"-101.04475697191744","Latitude":"39.3990454944715","Dates":null,"Products":""},{"Type":"farmers market","ModifyDate":"Mar 21st, 2023","Image":"default-farmersmarket-4-3.jpg","ListingID":"310399","Name":"Tonganoxie Farmer's Market","Description":null,"ContactName":null,"ContactEmail":"nexttonaturefarm@gmail.com","ContactPhone":"785-491-1978","Website":null,"Facebook":"https:\/\/www.facebook.com\/groups\/490655802120155","Twitter":null,"Instagram":null,"Pinterest":null,"Youtube":null,"Blog":null,"Address":"217 East 4th St., Tonganoxie, KS 66086","State":"Kansas","City":"Tonganoxie","Street":"217 East 4th St.","Zip":"66086","Longitude":"-95.09122731810723","Latitude":"39.10925480687511","Dates":null,"Products":""},{"Type":"farmers market","ModifyDate":"Mar 21st, 2023","Image":"default-farmersmarket-4-3.jpg","ListingID":"310400","Name":"Wabaunsee County Farmers' Market","Description":null,"ContactName":null,"ContactEmail":"explorewabaunsee@gmail.com","ContactPhone":"785-765-4655","Website":null,"Facebook":"https:\/\/www.facebook.com\/WabaunseeCountyFarmersMarket","Twitter":null,"Instagram":null,"Pinterest":null,"Youtube":null,"Blog":null,"Address":"East Third Street, Alma, KS 66401","State":"Kansas","City":"Alma","Street":"East Third Street","Zip":"66401","Longitude":"-96.28748506944626","Latitude":"39.01281999378131","Dates":null,"Products":""},{"Type":"farmers market","ModifyDate":"Mar 21st, 2023","Image":"default-farmersmarket-4-3.jpg","ListingID":"310401","Name":"Walnut Valley Farmers Market","Description":null,"ContactName":null,"ContactEmail":"cowleyfarmersmarketassociation@gmail.com","ContactPhone":"321-720-0875","Website":null,"Facebook":"https:\/\/www.facebook.com\/WalnutValleyFarmersMarket","Twitter":null,"Instagram":null,"Pinterest":null,"Youtube":null,"Blog":null,"Address":"200 Main St, Winfield , KS 67156","State":"Kansas","City":"Winfield","Street":"200 Main St","Zip":"67156","Longitude":"-96.99735263346089","Latitude":"37.24788732968209","Dates":null,"Products":""},{"Type":"farmers market","ModifyDate":"Mar 21st, 2023","Image":"default-farmersmarket-4-3.jpg","ListingID":"310402","Name":"Wellsville Farmers' Market","Description":null,"ContactName":null,"ContactEmail":null,"ContactPhone":"913-744-1718","Website":null,"Facebook":"https:\/\/www.facebook.com\/WellsvilleFarmersMarket\/","Twitter":null,"Instagram":null,"Pinterest":null,"Youtube":null,"Blog":null,"Address":"411 Main St., Wellsville, KS 66092","State":"Kansas","City":"Wellsville","Street":"411 Main St.","Zip":"66092","Longitude":"-95.0819257302788","Latitude":"38.71916456641737","Dates":null,"Products":""},{"Type":"farmers market","ModifyDate":"Mar 21st, 2023","Image":"default-farmersmarket-4-3.jpg","ListingID":"310403","Name":"Wichita County Farmers' Market","Description":null,"ContactName":null,"ContactEmail":"wced@wbsnet.org","ContactPhone":"620-375-2182","Website":null,"Facebook":null,"Twitter":null,"Instagram":null,"Pinterest":null,"Youtube":null,"Blog":null,"Address":"206 S. 4th St., Leoti, KS, 67861","State":"Kansas","City":"Leoti","Street":"206 S. 4th St.","Zip":"67861","Longitude":"-101.35834495809019","Latitude":"38.480194457520795","Dates":null,"Products":""},{"Type":"farmers market","ModifyDate":"Mar 21st, 2023","Image":"default-farmersmarket-4-3.jpg","ListingID":"310404","Name":"Winfield Farmers Market","Description":null,"ContactName":null,"ContactEmail":null,"ContactPhone":"316-221-2966","Website":null,"Facebook":null,"Twitter":null,"Instagram":null,"Pinterest":null,"Youtube":null,"Blog":null,"Address":"900 Fuller Street 900 Fuller Street Winfield, KS 67156","State":"Kansas","City":"WINFIELD","Street":"900 FULLER ST","Zip":"67156","Longitude":"-96.99329940657964","Latitude":"37.24029211691984","Dates":null,"Products":""},{"Type":"farmers market","ModifyDate":"Mar 25th, 2021","Image":"default-farmersmarket-4-3.jpg","ListingID":"301480","Name":"Shawnee Farmers Market","Description":null,"ContactName":"Royal Krueger","ContactEmail":"rkrueger@cityofshawnee.org","ContactPhone":"9132482360","Website":"www.cityofshawnee.org","Facebook":"www.facebook.com\/cityofshawnee","Twitter":null,"Instagram":null,"Pinterest":null,"Youtube":null,"Blog":null,"Address":"11110 Johnson Drive, Shawnee, Kansas 66203","State":"Kansas","City":"Shawnee","Street":"11110 Johnson Drive","Zip":"66203","Longitude":"-94.805322","Latitude":"39.017779","Dates":"May to October","Products":"Fresh fruits, Fresh vegetables, Baked goods, Bedding plants, Canned or preserved fruits\/vegetables, Crafts\/woodworking items, Cut flowers, Honey, Soap\/body care products"},{"Type":"farmers market","ModifyDate":"Mar 25th, 2021","Image":"default-farmersmarket-4-3.jpg","ListingID":"301481","Name":"Moonlight Market","Description":null,"ContactName":"Royal Krueger","ContactEmail":"rkrueger@cityofshawnee.org","ContactPhone":"9132482360","Website":"www","Facebook":null,"Twitter":null,"Instagram":null,"Pinterest":null,"Youtube":null,"Blog":null,"Address":"11110 Johnson Drive, Shawnee, Kansas 66203","State":"Kansas","City":"Shawnee","Street":"11110 Johnson Drive","Zip":"66203","Longitude":"-94.805322","Latitude":"39.017779","Dates":"May to October","Products":"Fresh fruits, Fresh vegetables, Baked goods, Bedding plants, Canned or preserved fruits\/vegetables, Crafts\/woodworking items, Cut flowers, Dairy products., Eggs, Fresh\/dried herbs, Honey, Juices\/non-alcoholic ciders, Maple products, Mushrooms, Prepared foods, Soap\/body care products"},{"Type":"farmers market","ModifyDate":"May 29th, 2021","Image":"default-farmersmarket-4-3.jpg","ListingID":"301516","Name":"Paola Farmers Market","Description":null,"ContactName":"Matthew Fineout","ContactEmail":"matt.fineout@discoverhistoricpaola.com","ContactPhone":"2022761618","Website":"paolafarmersmarket.org","Facebook":"facebook.com\/paolafarmersmarket","Twitter":null,"Instagram":null,"Pinterest":null,"Youtube":null,"Blog":null,"Address":"Park Square, Paola , Kansas 66071","State":"Kansas","City":"Paola","Street":"Park Square","Zip":"66071","Longitude":"-94.878291","Latitude":"38.572307","Dates":"June to September","Products":"Fresh fruits, Fresh vegetables, Baked goods, Bedding plants, Cut flowers, Eggs, Fresh\/dried herbs, Honey, Poultry\/fowl meat and products, Red\/other non-poultry meat and products, Soap\/body care products, Wild harvested forest products"},{"Type":"farmers market","ModifyDate":"Sep 16th, 2020","Image":"default-farmersmarket-4-3.jpg","ListingID":"301338","Name":"Overbrook Farmers Market","Description":null,"ContactName":"Jaimie Duguid Needham","ContactEmail":"OverbrookFarmersMarket@gmail.com","ContactPhone":"(785) 566-3565","Website":"https:\/\/www.fromthelandofkansas.com\/market\/overbrook-farmers-market","Facebook":"Overbrook Farmers Market","Twitter":null,"Instagram":null,"Pinterest":null,"Youtube":null,"Blog":null,"Address":"Maple & Market St, Overbrook, Kansas 66524","State":"Kansas","City":"Overbrook","Street":"Maple & Market St","Zip":"66524","Longitude":"-95.556782","Latitude":"38.777419","Dates":"July to September","Products":"Fresh fruits, Fresh vegetables, Baked goods, Coffee\/tea, Eggs, Honey"},{"Type":"on-farm market","ModifyDate":"Apr 21st, 2015","Image":"default-onfarmmarket-4-3.jpg","ListingID":"701247","Name":"4K Ranch","Description":null,"ContactName":"Teresa Penning","ContactEmail":"terespenning@gmail.com","ContactPhone":"785-541-0095","Website":null,"Facebook":null,"Twitter":null,"Instagram":null,"Pinterest":null,"Youtube":null,"Blog":null,"Address":"1692 18th Road, Washington, Kansas 66968","State":"Kansas","City":"Washington","Street":"1692 18th Road","Zip":"66968","Longitude":"-97.068195","Latitude":"39.828054","Dates":null,"Products":""},{"Type":"on-farm market","ModifyDate":"Aug 18th, 2021","Image":"default-onfarmmarket-4-3.jpg","ListingID":"701609","Name":"Brannan & Reinhardt Polled Herefords","Description":null,"ContactName":"Kent Reinhardt","ContactEmail":"rhinos@gbta.net","ContactPhone":"17853871846","Website":"http:\/\/www.kansaspolledherefords.org\/bandr\/","Facebook":null,"Twitter":null,"Instagram":null,"Pinterest":null,"Youtube":null,"Blog":null,"Address":"418 W DIEL ST, Otis, Kansas 67565","State":"Kansas","City":"Otis","Street":"418 W DIEL ST","Zip":"67565","Longitude":"-99.195495","Latitude":"38.532400","Dates":null,"Products":""},{"Type":"on-farm market","ModifyDate":"Aug 23rd, 2014","Image":"default-onfarmmarket-4-3.jpg","ListingID":"700898","Name":"Synergistic Acres Pasture Raised Meats","Description":null,"ContactName":"Jeff Hamons","ContactEmail":"jeffhamons@gmail.com","ContactPhone":"9137354769","Website":"www.synergisticares.com","Facebook":"www.facebook.com\/synergisticacres","Twitter":null,"Instagram":null,"Pinterest":null,"Youtube":null,"Blog":"http:\/\/www.synergisticacres.com\/blog\/","Address":"21733 Iliff Rd, Parker , Kansas 66072","State":"Kansas","City":"Parker","Street":"21733 Iliff Rd","Zip":"66072","Longitude":"-94.917233","Latitude":"38.341665","Dates":null,"Products":""},{"Type":"on-farm market","ModifyDate":"Aug 24th, 2014","Image":"default-onfarmmarket-4-3.jpg","ListingID":"700918","Name":"Tubby Fruits Orchard","Description":null,"ContactName":"Mark Angermayer","ContactEmail":"mark@tubbyfruits.com","ContactPhone":"913-851-7414","Website":"www.tubbyfruits.com","Facebook":null,"Twitter":null,"Instagram":null,"Pinterest":null,"Youtube":null,"Blog":null,"Address":"6800 W 201st Terr, Bucyrus, Kansas 66013","State":"Kansas","City":"Bucyrus","Street":"6800 W 201st Terr","Zip":"66013","Longitude":"-94.664151","Latitude":"38.7631410","Dates":null,"Products":""},{"Type":"on-farm market","ModifyDate":"Aug 29th, 2014","Image":"default-onfarmmarket-4-3.jpg","ListingID":"700990","Name":"Meier's Market","Description":null,"ContactName":"lenny meier jr","ContactEmail":"farmer325@aol.com","ContactPhone":"7852203335","Website":null,"Facebook":null,"Twitter":null,"Instagram":null,"Pinterest":null,"Youtube":null,"Blog":null,"Address":"2300 lower silver lake rd., topeka, Kansas 66618","State":"Kansas","City":"topeka","Street":"2300 lower silver lake rd.","Zip":"66618","Longitude":"-95.692525","Latitude":"39.076619","Dates":null,"Products":""},{"Type":"on-farm market","ModifyDate":"Feb 28th, 2018","Image":"default-onfarmmarket-4-3.jpg","ListingID":"701444","Name":"WVFarm, LLC","Description":null,"ContactName":"Sonja Wood","ContactEmail":"WVFarm@outlook.com","ContactPhone":"7852554445","Website":"Woodlandvalleyfarm.info","Facebook":"Woodlandvalleyfarm-Kansas","Twitter":"Twitter.com\/wvfarm","Instagram":null,"Pinterest":null,"Youtube":null,"Blog":null,"Address":"774 Stafford Road, Pomona, Kansas 66076","State":"Kansas","City":"Pomona","Street":"774 Stafford Road","Zip":"66076","Longitude":"-95.439204","Latitude":"38.709147","Dates":null,"Products":""},{"Type":"on-farm market","ModifyDate":"Jan 28th, 2018","Image":"default-onfarmmarket-4-3.jpg","ListingID":"701441","Name":"Fanska Farms","Description":null,"ContactName":"Billy Fanska","ContactEmail":"billy.fanska@gmail.com","ContactPhone":"3163239326","Website":"www.FanskaFarms.com","Facebook":"https:\/\/www.facebook.com\/FanskaFarms\/","Twitter":null,"Instagram":null,"Pinterest":null,"Youtube":null,"Blog":null,"Address":"3873 NE 4th, El Dorado, Kansas 67042","State":"Kansas","City":"El Dorado","Street":"3873 NE 4th","Zip":"67042","Longitude":"-96.769746","Latitude":"37.8297640","Dates":null,"Products":""},{"Type":"on-farm market","ModifyDate":"Jul 26th, 2014","Image":"default-onfarmmarket-4-3.jpg","ListingID":"700318","Name":"Kalaya Emu Estates","Description":null,"ContactName":"Betty Augustine","ContactEmail":"info@KalayaEmuEstate.com","ContactPhone":"620-327-4124","Website":"www.KalayaEmuEstate.com","Facebook":null,"Twitter":null,"Instagram":null,"Pinterest":null,"Youtube":null,"Blog":null,"Address":"8 Bentgrass Dr., Hesston, Kansas 67062","State":"Kansas","City":"Hesston","Street":"8 Bentgrass Dr.","Zip":"67062","Longitude":"-97.410670","Latitude":"38.1314260","Dates":null,"Products":""},{"Type":"on-farm market","ModifyDate":"Jul 27th, 2014","Image":"default-onfarmmarket-4-3.jpg","ListingID":"700274","Name":"Underhill Farms","Description":null,"ContactName":"Lynn Kaufman","ContactEmail":"lynn@underhillfarms.com","ContactPhone":"620-345-8415","Website":null,"Facebook":null,"Twitter":null,"Instagram":null,"Pinterest":null,"Youtube":null,"Blog":null,"Address":"187 21st Ave, Moundridge, Kansas 67107","State":"Kansas","City":"Moundridge","Street":"187 21st Ave","Zip":"67107","Longitude":"-97.538240","Latitude":"38.2014760","Dates":null,"Products":""},{"Type":"on-farm market","ModifyDate":"Jul 28th, 2014","Image":"default-onfarmmarket-4-3.jpg","ListingID":"700080","Name":"Boondocker Farms","Description":null,"ContactName":"Steve Finley","ContactEmail":"info@boondockerfarms.com","ContactPhone":"316-350-7785","Website":"www.boondockerfarms.com","Facebook":"https:\/\/www.facebook.com\/pages\/Boondocker-Farms\/213960995309803","Twitter":null,"Instagram":null,"Pinterest":null,"Youtube":null,"Blog":null,"Address":"4772 SW 60th Street, El Dorado, Kansas 67042","State":"Kansas","City":"El Dorado","Street":"4772 SW 60th Street","Zip":"67042","Longitude":"-96.932121","Latitude":"37.738005","Dates":null,"Products":""},{"Type":"on-farm market","ModifyDate":"Jul 28th, 2014","Image":"default-onfarmmarket-4-3.jpg","ListingID":"700161","Name":"Christy's Farm","Description":null,"ContactName":"Christy O\\'Neal","ContactEmail":"christy@christysfarm.org","ContactPhone":"785-477-2480","Website":"http:\/\/www.christysfarm.org\/","Facebook":"https:\/\/www.facebook.com\/Christy\\'sFarm","Twitter":null,"Instagram":null,"Pinterest":null,"Youtube":null,"Blog":"http:\/\/christysfarm.org\/christysfarmblog\/","Address":"3230 McDowell Creek Road, Manhattan, Kansas 66502","State":"Kansas","City":"Manhattan","Street":"3230 McDowell Creek Road","Zip":"66502","Longitude":"-96.582717","Latitude":"39.123231","Dates":null,"Products":""},{"Type":"on-farm market","ModifyDate":"Jul 2nd, 2021","Image":"default-onfarmmarket-4-3.jpg","ListingID":"701604","Name":"Maseualkualli Farms","Description":null,"ContactName":"Pantaleon Florez III","ContactEmail":"maseualkuallifarms@gmail.com","ContactPhone":"785-221-8008","Website":"www.masefarm.org","Facebook":null,"Twitter":null,"Instagram":null,"Pinterest":null,"Youtube":null,"Blog":null,"Address":"916 Pennsylvania St, Lawrence , Kansas 66044","State":"Kansas","City":"Lawrence","Street":"916 Pennsylvania St","Zip":"66044","Longitude":"-95.229148","Latitude":"39.000706","Dates":null,"Products":""},{"Type":"on-farm market","ModifyDate":"Mar 24th, 2015","Image":"default-onfarmmarket-4-3.jpg","ListingID":"701003","Name":"Parks Farm","Description":null,"ContactName":"Darrell Parks","ContactEmail":"parkspasturepork@gmail.com","ContactPhone":"785-770-2835","Website":null,"Facebook":null,"Twitter":null,"Instagram":null,"Pinterest":null,"Youtube":null,"Blog":null,"Address":"1001 East 26th Ave., Manhattan, Kansas 66502","State":"Kansas","City":"Manhattan","Street":"1001 East 26th Ave.","Zip":"66502","Longitude":"-96.492305","Latitude":"39.153204","Dates":null,"Products":""},{"Type":"on-farm market","ModifyDate":"Nov 21st, 2014","Image":"default-onfarmmarket-4-3.jpg","ListingID":"701173","Name":"Meadowlark Acres","Description":null,"ContactName":"Suzanne Frisse","ContactEmail":"sfrisse@kc.rr.com","ContactPhone":"9136815004","Website":"www.meadowlarkacres.com","Facebook":"https:\/\/www.facebook.com\/pages\/Meadowlark-Acres\/298419166130?ref=hl","Twitter":null,"Instagram":null,"Pinterest":null,"Youtube":null,"Blog":null,"Address":"5830 West 167th Street, Stilwell, Kansas 66085","State":"Kansas","City":"Stilwell","Street":"5830 West 167th Street","Zip":"66085","Longitude":"-94.653190","Latitude":"38.826238","Dates":null,"Products":""},{"Type":"on-farm market","ModifyDate":"Oct 12th, 2014","Image":"default-onfarmmarket-4-3.jpg","ListingID":"701135","Name":"B Smart Apiaries","Description":null,"ContactName":"Billy Y. Smart","ContactEmail":"bsmart3762@gmail.com","ContactPhone":"6207829638","Website":null,"Facebook":null,"Twitter":null,"Instagram":null,"Pinterest":null,"Youtube":null,"Blog":null,"Address":"3762 51st Rd., Udall, Kansas 67146","State":"Kansas","City":"Udall","Street":"3762 51st Rd.","Zip":"67146","Longitude":"-97.060063","Latitude":"37.437208","Dates":null,"Products":""},{"Type":"on-farm market","ModifyDate":"Sep 16th, 2014","Image":"default-onfarmmarket-4-3.jpg","ListingID":"700101","Name":"Meadowlark Farm, LLC","Description":null,"ContactName":"Tom Brown","ContactEmail":"tom@themeadowlarkfarm.com","ContactPhone":"316-518-8907","Website":"www.themeadowlarkfarm.com","Facebook":"https:\/\/www.facebook.com\/meadowlarkfarm","Twitter":null,"Instagram":null,"Pinterest":null,"Youtube":null,"Blog":null,"Address":"11249 SW 160th St, Rose Hill, Kansas 67133","State":"Kansas","City":"Rose Hill","Street":"11249 SW 160th St","Zip":"67133","Longitude":"-97.044939","Latitude":"37.591739","Dates":null,"Products":""},{"Type":"on-farm market","ModifyDate":"Sep 16th, 2014","Image":"default-onfarmmarket-4-3.jpg","ListingID":"701078","Name":"Camp Creek Farms","Description":null,"ContactName":"Rick Newson","ContactEmail":"rwn45@embarqmail.com","ContactPhone":"913-884-6374","Website":null,"Facebook":"www.facebook.com\/campcreekfarms","Twitter":null,"Instagram":null,"Pinterest":null,"Youtube":null,"Blog":null,"Address":"29050 W 127th Street, Olathe , Kansas 66061","State":"Kansas","City":"Olathe","Street":"29050 W 127th Street","Zip":"66061","Longitude":"-94.922090","Latitude":"38.9001530","Dates":null,"Products":""},{"Type":"on-farm market","ModifyDate":"Sep 24th, 2014","Image":"default-onfarmmarket-4-3.jpg","ListingID":"701094","Name":"Skyview Farm and Creamery","Description":null,"ContactName":"Sheri Noffke","ContactEmail":"GodsAcre@ckt.net","ContactPhone":"913-352-8727","Website":"skyviewfarm.net","Facebook":"Skyview Farm","Twitter":null,"Instagram":null,"Pinterest":null,"Youtube":null,"Blog":null,"Address":"22722 E 800 Rd, Pleasanton, Kansas 66075","State":"Kansas","City":"Pleasanton","Street":"22722 E 800 Rd","Zip":"66075","Longitude":"-94.681721","Latitude":"38.140017","Dates":null,"Products":""}]