[{"Type":"farmers market","ModifyDate":"Apr 16th, 2022","Image":"farmersmarket_301353_11164_20220416132919.png","ListingID":"301353","Name":"Cave Spring Farmers Market","Description":null,"ContactName":"CLAUDIA L LITTRELL","ContactEmail":"claudiafungihead@gmail.com","ContactPhone":"6788710288","Website":null,"Facebook":"https:\/\/www.facebook.com\/Cave-Spring-Farmers-Market-107965954240659\/?view_public_for=107965954240659","Twitter":null,"Instagram":null,"Pinterest":null,"Youtube":null,"Blog":null,"Address":"6770 Cave Spring Road Southwest, Cave Spring, Georgia 30124, USA","State":"Georgia","City":"Cave Spring","Street":"6770 Cave Spring Road Southwest","Zip":"30124","Longitude":"-85.30863339999999","Latitude":"34.1332366","Dates":"June to October","Products":"Fresh fruits, Fresh vegetables, Baked goods, Bedding plants, Canned or preserved fruits\/vegetables, Crafts\/woodworking items, Eggs, Fresh\/dried herbs, Honey, Mushrooms, Prepared foods, Soap\/body care products"},{"Type":"farmers market","ModifyDate":"Apr 2nd, 2022","Image":"farmersmarket_301442_11126_20220402152142.png","ListingID":"301442","Name":"Lilburn Farmers Market","Description":null,"ContactName":"Mandy McManus","ContactEmail":"lilburnfarmersmarket@hotmail.com","ContactPhone":"678-667-2592","Website":"www.lilburnfarmersmarket.org","Facebook":"www.facebook.com\/lilburnfarmersmarket","Twitter":null,"Instagram":null,"Pinterest":null,"Youtube":null,"Blog":null,"Address":"1400 Killian Hill Rd, Lilburn, Georgia 30047","State":"Georgia","City":"Lilburn","Street":"1400 Killian Hill Rd","Zip":"30047","Longitude":"-84.081093","Latitude":"33.859588","Dates":"May to August","Products":"Fresh fruits, Fresh vegetables, Baked goods, Bedding plants, Canned or preserved fruits\/vegetables, Coffee\/tea, Eggs, Fish\/seafood, Fresh\/dried herbs, Honey, Juices\/non-alcoholic ciders, Nuts, Pet food, Prepared foods, Soap\/body care products"},{"Type":"farmers market","ModifyDate":"Aug 16th, 2020","Image":"default-farmersmarket-4-3.jpg","ListingID":"301227","Name":"Artistlane Farmers Market","Description":null,"ContactName":"Anita Miller","ContactEmail":"artist7create@gmail.com","ContactPhone":"706-504-3304","Website":null,"Facebook":null,"Twitter":null,"Instagram":null,"Pinterest":null,"Youtube":null,"Blog":null,"Address":"1966 Broad Street, Augusta-Richmond County consolidated government (balance), Georgia 30904","State":"Georgia","City":"Augusta-Richmond County consolidated government (b","Street":"1966 Broad Street","Zip":"30904","Longitude":"-82.073422","Latitude":"33.365531","Dates":"Year-round","Products":"Fresh fruits, Fresh vegetables, Baked goods, Bedding plants, Canned or preserved fruits\/vegetables, Coffee\/tea, Crafts\/woodworking items, Cut flowers, Dairy products., Dry beans, Eggs, Fish\/seafood, Fresh\/dried herbs, Grains\/flour, Honey, Juices\/non-alcoholic ciders, Maple products, Mushrooms, Nursery stock, Nuts, Poultry\/fowl meat and products, Wild harvested forest products"},{"Type":"farmers market","ModifyDate":"Aug 3rd, 2020","Image":"default-farmersmarket-4-3.jpg","ListingID":"300499","Name":"Cotton Mill Farmers Market","Description":null,"ContactName":"Wendy Crager","ContactEmail":"wcrager@yahoo.com","ContactPhone":"770-537-3720","Website":"http:\/\/www.cottonmillfarmersmarket.org","Facebook":"https:\/\/www.facebook.com\/cottonmillfarmersmarket\/?ref=settings","Twitter":null,"Instagram":null,"Pinterest":null,"Youtube":null,"Blog":null,"Address":"609 Dixie Street, Carrollton, Georgia 30117","State":"Georgia","City":"Carrollton","Street":"609 Dixie Street","Zip":"30117","Longitude":"-85.072740","Latitude":"33.571347","Dates":"Year-round","Products":"Fresh fruits, Fresh vegetables, Baked goods, Bedding plants, Canned or preserved fruits\/vegetables, Coffee\/tea, Crafts\/woodworking items, Cut flowers, Dairy products., Dry beans, Eggs, Honey, Juices\/non-alcoholic ciders, Mushrooms, Nursery stock, Poultry\/fowl meat and products, Prepared foods, Red\/other non-poultry meat and products, Soap\/body care products"},{"Type":"farmers market","ModifyDate":"Aug 4th, 2020","Image":"default-farmersmarket-4-3.jpg","ListingID":"301199","Name":"Barrow County Farmers Market","Description":null,"ContactName":"Nannette Kallestad","ContactEmail":"manager@barrowcountyfarmersmarket.com","ContactPhone":"252-202-8873","Website":"www.barrowcountyfarmersmarket.com","Facebook":"https:\/\/www.facebook.com\/barrowcountyfarmersmarket","Twitter":null,"Instagram":null,"Pinterest":null,"Youtube":null,"Blog":null,"Address":"30 N. Broad St, Winder, Georgia 30680","State":"Georgia","City":"Winder","Street":"30 N. Broad St","Zip":"30680","Longitude":"-83.721123","Latitude":"33.993074","Dates":"May to November","Products":"Fresh fruits, Fresh vegetables, Baked goods, Bedding plants, Canned or preserved fruits\/vegetables, Coffee\/tea, Crafts\/woodworking items, Cut flowers, Eggs, Fresh\/dried herbs, Honey, Mushrooms, Nuts, Prepared foods, Soap\/body care products"},{"Type":"farmers market","ModifyDate":"Dec 15th, 2020","Image":"default-farmersmarket-4-3.jpg","ListingID":"301357","Name":"Growing Augusta Pop-Up Market","Description":null,"ContactName":"karen gordon","ContactEmail":"growingaugusta@gmail.com","ContactPhone":"7622335299","Website":"https:\/\/www.growingaugusta.co\/markets","Facebook":"http:\/\/facebook.com\/growingaugusta","Twitter":"http:\/\/twitter.com\/growingaugusta","Instagram":null,"Pinterest":null,"Youtube":"https:\/\/www.youtube.com\/channel\/UCHc7WOK79WWDmzvRKhn9yew","Blog":null,"Address":"3647 Karleen Rd, Hephzibah, Georgia 30815","State":"Georgia","City":"Hephzibah","Street":"3647 Karleen Rd","Zip":"30815","Longitude":"-82.118340","Latitude":"33.387808","Dates":"Year-round","Products":"Fresh vegetables, Cut flowers, Juices\/non-alcoholic ciders, Nursery stock, Soap\/body care products"},{"Type":"farmers market","ModifyDate":"Dec 29th, 2020","Image":"default-farmersmarket-4-3.jpg","ListingID":"300474","Name":"Athens Farmers Market, LLC","Description":null,"ContactName":"Sarah Thurman","ContactEmail":"marketmanager@athensfarmersmarket.net","ContactPhone":"8052179075","Website":"http:\/\/www.athensfarmersmarket.net\/","Facebook":"https:\/\/www.facebook.com\/AthensFarmersMarket","Twitter":"https:\/\/twitter.com\/AthFarmersMkt","Instagram":null,"Pinterest":null,"Youtube":null,"Blog":null,"Address":"705 Sunset Dr, Athens, Georgia 30606","State":"Georgia","City":"Athens","Street":"705 Sunset Dr","Zip":"30606","Longitude":"-83.412131","Latitude":"33.9644564","Dates":"March to December","Products":"Fresh fruits, Fresh vegetables, Baked goods, Bedding plants, Canned or preserved fruits\/vegetables, Coffee\/tea, Crafts\/woodworking items, Cut flowers, Dry beans, Eggs, Fish\/seafood, Fresh\/dried herbs, Grains\/flour, Honey, Juices\/non-alcoholic ciders, Mushrooms, Pet food, Poultry\/fowl meat and products, Prepared foods, Red\/other non-poultry meat and products, Soap\/body care products"},{"Type":"farmers market","ModifyDate":"Dec 29th, 2020","Image":"default-farmersmarket-4-3.jpg","ListingID":"300475","Name":"Athens Farmers Market, LLC","Description":null,"ContactName":"Sarah Thurman","ContactEmail":"marketmanager@athensfarmersmarket.net","ContactPhone":"8052179075","Website":"http:\/\/www.athensfarmersmarket.net\/","Facebook":"https:\/\/www.facebook.com\/AthensFarmersMarket","Twitter":"https:\/\/twitter.com\/AthFarmersMkt","Instagram":null,"Pinterest":null,"Youtube":null,"Blog":null,"Address":"271 W Hancock Ave, Athens, Georgia 30601","State":"Georgia","City":"Athens","Street":"271 W Hancock Ave","Zip":"30601","Longitude":"-83.380247","Latitude":"33.959088","Dates":"April to November","Products":"Fresh fruits, Fresh vegetables, Baked goods, Canned or preserved fruits\/vegetables, Cut flowers, Eggs, Fresh\/dried herbs, Honey, Juices\/non-alcoholic ciders, Poultry\/fowl meat and products, Prepared foods, Red\/other non-poultry meat and products, Soap\/body care products, Wine, spirits, beer, hard cider"},{"Type":"farmers market","ModifyDate":"Jan 10th, 2022","Image":"default-farmersmarket-4-3.jpg","ListingID":"301628","Name":"Morningside Farmers Market","Description":null,"ContactName":"Aubrey Cyphert","ContactEmail":"manager@morningsidemarket.com","ContactPhone":"814-746-6437","Website":"https:\/\/www.morningsidemarket.com","Facebook":"https:\/\/www.facebook.com\/morningsidefarmersmarket","Twitter":null,"Instagram":null,"Pinterest":null,"Youtube":null,"Blog":null,"Address":"1411 N. Morningside Drive NE, Atlanta , Georgia 30306","State":"Georgia","City":"Atlanta","Street":"1411 N. Morningside Drive NE","Zip":"30306","Longitude":"-84.356113","Latitude":"33.793194","Dates":"Year-round","Products":"Fresh fruits, Fresh vegetables, Baked goods, Coffee\/tea, Cut flowers, Dairy products., Eggs, Fish\/seafood, Fresh\/dried herbs, Grains\/flour, Honey, Juices\/non-alcoholic ciders, Mushrooms, Nuts, Poultry\/fowl meat and products, Prepared foods, Red\/other non-poultry meat and products, Soap\/body care products, Wild harvested forest products"},{"Type":"farmers market","ModifyDate":"Jan 26th, 2021","Image":"default-farmersmarket-4-3.jpg","ListingID":"300304","Name":"Mulberry Market","Description":null,"ContactName":"Lacey Resch","ContactEmail":"lresch@chwg.org","ContactPhone":"4782545216","Website":"www.mulberrymarket.org","Facebook":"https:\/\/www.facebook.com\/MulberryStreetMarket","Twitter":null,"Instagram":null,"Pinterest":null,"Youtube":null,"Blog":null,"Address":"1155 College Street, Macon, Georgia 31201","State":"Georgia","City":"Macon","Street":"1155 College Street","Zip":"31201","Longitude":"-83.646551","Latitude":"32.833797","Dates":"Year-round","Products":"Fresh fruits, Fresh vegetables, Baked goods, Bedding plants, Canned or preserved fruits\/vegetables, Crafts\/woodworking items, Cut flowers, Dairy products., Eggs, Fish\/seafood, Fresh\/dried herbs, Grains\/flour, Honey, Mushrooms, Nuts, Pet food, Poultry\/fowl meat and products, Prepared foods, Red\/other non-poultry meat and products, Soap\/body care products"},{"Type":"farmers market","ModifyDate":"Jan 26th, 2021","Image":"default-farmersmarket-4-3.jpg","ListingID":"300311","Name":"Millen Produce Market","Description":null,"ContactName":"Mandy Underwood","ContactEmail":"jcda@bellsouth.net","ContactPhone":"4789825595","Website":"548 Cotton Ave","Facebook":"Main Street Millen","Twitter":null,"Instagram":null,"Pinterest":null,"Youtube":null,"Blog":null,"Address":"Cotton Avenue, Millen , Georgia 30442","State":"Georgia","City":"Millen","Street":"Cotton Avenue","Zip":"30442","Longitude":"-81.936127","Latitude":"32.802685","Dates":"May to October","Products":"Fresh fruits, Fresh vegetables, Baked goods, Canned or preserved fruits\/vegetables, Crafts\/woodworking items, Fresh\/dried herbs, Honey, Nuts, Soap\/body care products"},{"Type":"farmers market","ModifyDate":"Jan 5th, 2021","Image":"default-farmersmarket-4-3.jpg","ListingID":"300591","Name":"Dodge County Farmer's Market","Description":null,"ContactName":"Sharon Cobb Flanagan","ContactEmail":"slevas@sbcglobal.net","ContactPhone":"619-322-4505","Website":null,"Facebook":"www.facebook.com\/DodgeCountyFarmersMarket","Twitter":null,"Instagram":null,"Pinterest":null,"Youtube":null,"Blog":null,"Address":"5401 Courthouse Circle, Eastman, Georgia 31023","State":"Georgia","City":"Eastman","Street":"5401 Courthouse Circle","Zip":"31023","Longitude":"-83.176305","Latitude":"32.200790","Dates":"April","Products":"Fresh fruits, Fresh vegetables, Baked goods, Bedding plants, Canned or preserved fruits\/vegetables, Crafts\/woodworking items, Cut flowers, Eggs, Fresh\/dried herbs, Honey, Nuts, Prepared foods, Soap\/body care products"},{"Type":"farmers market","ModifyDate":"Jan 5th, 2021","Image":"default-farmersmarket-4-3.jpg","ListingID":"300758","Name":"Union County Farmers Market","Description":null,"ContactName":"Mickey Cummings","ContactEmail":"farmersmarket@uniongov.com","ContactPhone":"706-439-6043","Website":"ucfarmersmarket.com","Facebook":"facebook.com\/unioncountyfm","Twitter":null,"Instagram":null,"Pinterest":null,"Youtube":null,"Blog":null,"Address":"290 Farmers Market Way, Blairsville, Georgia 30512","State":"Georgia","City":"Blairsville","Street":"290 Farmers Market Way","Zip":"30512","Longitude":"-83.950669","Latitude":"34.886298","Dates":"June to October","Products":"Fresh fruits, Fresh vegetables, Baked goods, Bedding plants, Canned or preserved fruits\/vegetables, Coffee\/tea, Crafts\/woodworking items, Cut flowers, Dairy products., Eggs, Fresh\/dried herbs, Grains\/flour, Honey, Mushrooms, Nursery stock, Nuts, Pet food, Prepared foods, Red\/other non-poultry meat and products, Soap\/body care products"},{"Type":"farmers market","ModifyDate":"Jan 6th, 2021","Image":"default-farmersmarket-4-3.jpg","ListingID":"300351","Name":"Way Green Local Fare Market","Description":null,"ContactName":"Connie Oliver","ContactEmail":"waygreeninc@gmail.com","ContactPhone":"9122828515","Website":"www.waygreeninc.org","Facebook":"https:\/\/www.facebook.com\/WayxGreen\/","Twitter":null,"Instagram":null,"Pinterest":null,"Youtube":null,"Blog":null,"Address":"1460 n Augusta Ave, Waycross, Georgia 31503","State":"Georgia","City":"Waycross","Street":"1460 n Augusta Ave","Zip":"31503","Longitude":"-82.381851","Latitude":"31.2357520","Dates":"May to November","Products":"Fresh fruits, Fresh vegetables, Baked goods, Bedding plants, Canned or preserved fruits\/vegetables, Coffee\/tea, Crafts\/woodworking items, Cut flowers, Eggs, Fresh\/dried herbs, Honey, Mushrooms, Poultry\/fowl meat and products, Prepared foods, Red\/other non-poultry meat and products, Soap\/body care products"},{"Type":"farmers market","ModifyDate":"Jan 7th, 2021","Image":"default-farmersmarket-4-3.jpg","ListingID":"300661","Name":"Rockmart Farmers Market","Description":null,"ContactName":"Melinda King","ContactEmail":"rockmartfarmersmarket@gmail.com","ContactPhone":"4044361818","Website":"RockmartFarmersMarket.com","Facebook":"https:\/\/www.facebook.com\/rockmartfarmersmarket\/","Twitter":"@rockmartfarmmkt","Instagram":null,"Pinterest":null,"Youtube":null,"Blog":null,"Address":"108 Water St., Rockmart, Georgia 30153","State":"Georgia","City":"Rockmart","Street":"108 Water St.","Zip":"30153","Longitude":"-85.053094","Latitude":"33.997669","Dates":"Year-round","Products":"Fresh fruits, Fresh vegetables, Baked goods, Bedding plants, Canned or preserved fruits\/vegetables, Coffee\/tea, Crafts\/woodworking items, Cut flowers, Dairy products., Eggs, Fresh\/dried herbs, Honey, Juices\/non-alcoholic ciders, Mushrooms, Nursery stock, Nuts, Pet food, Poultry\/fowl meat and products, Red\/other non-poultry meat and products, Soap\/body care products"},{"Type":"farmers market","ModifyDate":"Jul 23rd, 2020","Image":"default-farmersmarket-4-3.jpg","ListingID":"301163","Name":"Decatur Farmers Market","Description":null,"ContactName":null,"ContactEmail":"info@cfmatl.org","ContactPhone":"404-919-3619","Website":"https:\/\/cfmatl.org\/decatur\/","Facebook":"https:\/\/www.facebook.com\/DecaturFarmersMarkets\/","Twitter":null,"Instagram":null,"Pinterest":null,"Youtube":null,"Blog":null,"Address":"308 Clairemont Ave, Decatur, Georgia 30030","State":"Georgia","City":"Decatur","Street":"308 Clairemont Ave","Zip":"30030","Longitude":"-84.296808","Latitude":"33.778773","Dates":"","Products":"Fresh fruits, Fresh vegetables, Baked goods, Canned or preserved fruits\/vegetables, Coffee\/tea, Dairy products., Eggs, Fish\/seafood, Honey, Pet food, Poultry\/fowl meat and products, Prepared foods, Red\/other non-poultry meat and products, Soap\/body care products"},{"Type":"farmers market","ModifyDate":"Jul 23rd, 2020","Image":"default-farmersmarket-4-3.jpg","ListingID":"301164","Name":"Oakhurst Farmers Market","Description":null,"ContactName":null,"ContactEmail":"info@cfmatl.org","ContactPhone":"404-919-3619","Website":"https:\/\/cfmatl.org\/oakhurst\/","Facebook":"https:\/\/www.facebook.com\/OakhurstFarmersMarketGA\/","Twitter":null,"Instagram":null,"Pinterest":null,"Youtube":null,"Blog":null,"Address":"630 East Lake Drive, SUITE E, Decatur , Georgia 30030","State":"Georgia","City":"Decatur","Street":"630 East Lake Drive","Zip":"30030","Longitude":"-84.304799","Latitude":"33.760143","Dates":"","Products":"Fresh fruits, Fresh vegetables, Baked goods, Bedding plants, Canned or preserved fruits\/vegetables, Coffee\/tea, Crafts\/woodworking items, Cut flowers, Dairy products., Eggs, Honey, Red\/other non-poultry meat and products, Wine, spirits, beer, hard cider"},{"Type":"farmers market","ModifyDate":"Jul 29th, 2020","Image":"default-farmersmarket-4-3.jpg","ListingID":"301171","Name":"Suwanee Farmers Market","Description":null,"ContactName":"Amy Doherty","ContactEmail":"adoherty@suwanee.com","ContactPhone":"7709458996","Website":"www.suwanee.com","Facebook":"@cityofsuwaneeGA","Twitter":"cityofsuwaneeGA","Instagram":null,"Pinterest":null,"Youtube":null,"Blog":null,"Address":"330 Town Center Ave, Suwanee, Georgia 30024","State":"Georgia","City":"Suwanee","Street":"330 Town Center Ave","Zip":"30024","Longitude":"-84.063354","Latitude":"34.056170","Dates":"November to December","Products":"Fresh fruits, Fresh vegetables, Baked goods, Canned or preserved fruits\/vegetables, Coffee\/tea, Cut flowers, Eggs, Fresh\/dried herbs, Honey, Juices\/non-alcoholic ciders, Nursery stock, Poultry\/fowl meat and products, Prepared foods, Red\/other non-poultry meat and products, Soap\/body care products"},{"Type":"farmers market","ModifyDate":"Jun 24th, 2022","Image":"farmersmarket_301738_14188_20220624194315.png","ListingID":"301738","Name":"North Rome Farmers Market","Description":"North Rome Farmers Market has some of the best produce in the city of Rome, Georgia. Our fruits and vegetables are grown on our own property without any chemicals. We are very excited about bringing fresh produce to our side of town. We look forward to providing a variety of tomatoes, cucumbers, squash, okra, and more.","ContactName":"Tracey L. Monroe","ContactEmail":"me1@monroeenterprises.org","ContactPhone":"4102535257","Website":"www.monroeenterprises.org","Facebook":"","Twitter":"","Instagram":"https:\/\/instagram.com\/north_rome_farmers_market?igshid=YmMyMTA2M2Y=","Pinterest":"","Youtube":"","Blog":"","Address":"516 Kingston Avenue NE, Rome, GA 30161","State":"Georgia","City":"Rome","Street":"516 Kingston Avenue NE","Zip":"30161","Longitude":"-85.146657","Latitude":"34.264488","Dates":"07\/01\/2022 to 12\/20\/2022","Products":"Fresh fruits, Fresh vegetables, Fresh\/dried herbs"},{"Type":"farmers market","ModifyDate":"Mar 20th, 2023","Image":"default-farmersmarket-4-3.jpg","ListingID":"309469","Name":"285 Farmers Market","Description":null,"ContactName":null,"ContactEmail":null,"ContactPhone":"404-289-5102","Website":null,"Facebook":null,"Twitter":null,"Instagram":null,"Pinterest":null,"Youtube":null,"Blog":null,"Address":"4020 Covington Highway Decatur, GA 30032","State":"Georgia","City":"Decatur","Street":"4020 Covington Highway","Zip":"30032","Longitude":"-84.2366872769074","Latitude":"33.75538546342475","Dates":null,"Products":""},{"Type":"farmers market","ModifyDate":"Mar 20th, 2023","Image":"default-farmersmarket-4-3.jpg","ListingID":"309470","Name":"Acworth Farmers Market","Description":null,"ContactName":null,"ContactEmail":"cworthfarmersmarket@gmail.com","ContactPhone":"770-974-8813","Website":null,"Facebook":"https:\/\/www.facebook.com\/acworthfarmersmarket\/","Twitter":null,"Instagram":null,"Pinterest":null,"Youtube":null,"Blog":null,"Address":"4405 Cherokee Street, Acworth, Georgia 30101","State":"Georgia","City":"Acworth","Street":"4405 Cherokee Street","Zip":"30101","Longitude":"-84.6770225111455","Latitude":"34.0685577822765","Dates":null,"Products":""},{"Type":"farmers market","ModifyDate":"Mar 20th, 2023","Image":"default-farmersmarket-4-3.jpg","ListingID":"309471","Name":"Albany Farmers' Market","Description":null,"ContactName":null,"ContactEmail":null,"ContactPhone":"229-430-9870","Website":null,"Facebook":null,"Twitter":null,"Instagram":null,"Pinterest":null,"Youtube":null,"Blog":null,"Address":"624 W. Oglethorpe Blvd. Albany, GA 31702","State":"Georgia","City":"Albany","Street":"624 W. Oglethorpe Blvd.","Zip":"31702","Longitude":"-84.16273947283011","Latitude":"31.575284344769635","Dates":null,"Products":""},{"Type":"farmers market","ModifyDate":"Mar 20th, 2023","Image":"default-farmersmarket-4-3.jpg","ListingID":"309472","Name":"Albany State Farmers Market","Description":null,"ContactName":null,"ContactEmail":"timothy.vanvalkenburg@agr.georgia.gov","ContactPhone":"229-430-4245","Website":"https:\/\/agr.georgia.gov\/","Facebook":null,"Twitter":null,"Instagram":null,"Pinterest":null,"Youtube":null,"Blog":null,"Address":"701 Gaines Avenue Albany, GA 31706","State":"Georgia","City":"Albany","Street":"701 Gaines Avenue","Zip":"31706","Longitude":"-84.16829612708526","Latitude":"31.550319169851857","Dates":null,"Products":""},{"Type":"farmers market","ModifyDate":"Mar 20th, 2023","Image":"default-farmersmarket-4-3.jpg","ListingID":"309473","Name":"Alpharetta Farmer's Market","Description":null,"ContactName":null,"ContactEmail":"AFMmarketmanager@gmail.com","ContactPhone":"678-297-0102","Website":"https:\/\/alpharettafarmersmarket.com\/","Facebook":null,"Twitter":null,"Instagram":null,"Pinterest":null,"Youtube":null,"Blog":null,"Address":"Old Roswell Street off Milton Ave. & Main Street Alpharetta, GA 30004","State":"Georgia","City":"Alpharetta","Street":"Old Roswell Street off Milton Ave. & Main Street","Zip":"30004","Longitude":"-84.29455002969809","Latitude":"34.07562999710237","Dates":null,"Products":""},{"Type":"farmers market","ModifyDate":"Mar 20th, 2023","Image":"default-farmersmarket-4-3.jpg","ListingID":"309474","Name":"Amicalola Regional Farmers Market","Description":null,"ContactName":null,"ContactEmail":"clarkmac@uga.edu","ContactPhone":"706-265-2442","Website":null,"Facebook":"https:\/\/www.facebook.com\/amicalolafarmersmarket","Twitter":null,"Instagram":null,"Pinterest":null,"Youtube":null,"Blog":null,"Address":"82 Allen St., Dawsonville, Georgia 30534","State":"Georgia","City":"Dawsonville","Street":"82 Allen St.","Zip":"30534","Longitude":"-84.11278883309289","Latitude":"34.419389789091674","Dates":null,"Products":""},{"Type":"farmers market","ModifyDate":"Mar 20th, 2023","Image":"default-farmersmarket-4-3.jpg","ListingID":"309475","Name":"Athens Green Market","Description":null,"ContactName":null,"ContactEmail":null,"ContactPhone":"706-546-4398","Website":null,"Facebook":null,"Twitter":null,"Instagram":null,"Pinterest":null,"Youtube":null,"Blog":null,"Address":"393 North Finley Street Athens, GA 30601","State":"Georgia","City":"Athens","Street":"393 North Finley Street","Zip":"30601","Longitude":"-83.38381126031624","Latitude":"33.95943836410378","Dates":null,"Products":""},{"Type":"farmers market","ModifyDate":"Mar 20th, 2023","Image":"default-farmersmarket-4-3.jpg","ListingID":"309476","Name":"Atlanta State Farmers' Market","Description":null,"ContactName":null,"ContactEmail":"cneilse@agr.state.ga.us","ContactPhone":"404-675-1782","Website":"http:\/\/www.atlantaproducedealers.org\/market_info.php","Facebook":"http:\/\/www.facebook.com\/pages\/Atlanta-State-Farmers-Market\/146420725432569","Twitter":null,"Instagram":null,"Pinterest":null,"Youtube":null,"Blog":null,"Address":"16 Forest Pkwy., Forest Park, GA, 30927","State":"Georgia","City":"Forest Park","Street":"16 Forest Pkwy.","Zip":"30927","Longitude":"-84.39552714988342","Latitude":"33.61826071936867","Dates":null,"Products":""},{"Type":"farmers market","ModifyDate":"Mar 20th, 2023","Image":"default-farmersmarket-4-3.jpg","ListingID":"309477","Name":"Augusta Market at the River","Description":null,"ContactName":null,"ContactEmail":null,"ContactPhone":"706-627-0128","Website":"http:\/\/www.theaugustamarket.com","Facebook":null,"Twitter":null,"Instagram":null,"Pinterest":null,"Youtube":null,"Blog":null,"Address":"836 Reynolds St (8th Street Plaza) Augusta, GA 30901","State":"Georgia","City":"AUGUSTA","Street":"836 REYNOLDS ST","Zip":"30901","Longitude":"-81.96569543099072","Latitude":"33.476993986555364","Dates":null,"Products":""},{"Type":"farmers market","ModifyDate":"Mar 20th, 2023","Image":"default-farmersmarket-4-3.jpg","ListingID":"309478","Name":"Bainbridge Farmers' Market","Description":null,"ContactName":null,"ContactEmail":null,"ContactPhone":"229-329-3135","Website":"https:\/\/www.thebainbridgefarmersmarket.com\/","Facebook":"https:\/\/www.facebook.com\/bainbridgemkt","Twitter":null,"Instagram":null,"Pinterest":null,"Youtube":null,"Blog":null,"Address":"West St between Water & Broughton St Bainbridge, GA 39819","State":"Georgia","City":"Bainbridge","Street":"West St between Water & Broughton St","Zip":"39819","Longitude":"-84.57648003686987","Latitude":"30.90584001546067","Dates":null,"Products":""},{"Type":"farmers market","ModifyDate":"Mar 20th, 2023","Image":"default-farmersmarket-4-3.jpg","ListingID":"309479","Name":"Barnesville Farmers' Market","Description":null,"ContactName":null,"ContactEmail":"president@barnesville.org","ContactPhone":null,"Website":"http:\/\/barnesville.org\/events-festivals\/farmers-market\/","Facebook":null,"Twitter":null,"Instagram":null,"Pinterest":null,"Youtube":null,"Blog":null,"Address":"659 Veterans Pkwy., Barnesville, GA, 30204","State":"Georgia","City":"Barnesville","Street":"659 Veterans Pkwy.","Zip":"30204","Longitude":"-84.16917100742886","Latitude":"33.04098999735014","Dates":null,"Products":""},{"Type":"farmers market","ModifyDate":"Mar 20th, 2023","Image":"default-farmersmarket-4-3.jpg","ListingID":"309480","Name":"Barnesville\/Lamar County Farmers Market","Description":null,"ContactName":null,"ContactEmail":null,"ContactPhone":"770-358-0787","Website":null,"Facebook":null,"Twitter":null,"Instagram":null,"Pinterest":null,"Youtube":null,"Blog":null,"Address":"100 Market Street Barnesville, GA 30204","State":"Georgia","City":"Barnesville","Street":"100 Market Street","Zip":"30204","Longitude":"-84.15737221812935","Latitude":"33.05376900984514","Dates":null,"Products":""},{"Type":"farmers market","ModifyDate":"Mar 20th, 2023","Image":"default-farmersmarket-4-3.jpg","ListingID":"309481","Name":"Battlefield Farmers Market","Description":null,"ContactName":null,"ContactEmail":"bfmanager@battlefieldmkt.org","ContactPhone":"706-397-9958x1252722","Website":null,"Facebook":"https:\/\/www.facebook.com\/Battlefield-Farmers-Market-125272200840113\/","Twitter":null,"Instagram":null,"Pinterest":null,"Youtube":null,"Blog":null,"Address":"10052 Highway 27 North, Rock Spring, Georgia 30739","State":"Georgia","City":"Rock Spring","Street":"10052 Highway 27 North","Zip":"30739","Longitude":"-85.25082179968804","Latitude":"34.84936336504761","Dates":null,"Products":""},{"Type":"farmers market","ModifyDate":"Mar 20th, 2023","Image":"default-farmersmarket-4-3.jpg","ListingID":"309482","Name":"Berkeley Lakeside Market","Description":null,"ContactName":null,"ContactEmail":null,"ContactPhone":null,"Website":"http:\/\/berkeleylakesidemarket.mudfairyfarm.com\/","Facebook":null,"Twitter":null,"Instagram":null,"Pinterest":null,"Youtube":null,"Blog":null,"Address":"4043 South Berkeley Lake Rd. Berkeley Lake, GA 30096","State":"Georgia","City":"BERKELEY LAKE","Street":"4043 S RD","Zip":"30096","Longitude":"-84.18838627508185","Latitude":"33.98526931844324","Dates":null,"Products":""},{"Type":"farmers market","ModifyDate":"Mar 20th, 2023","Image":"default-farmersmarket-4-3.jpg","ListingID":"309483","Name":"Blue Ridge Farmers' Market","Description":null,"ContactName":null,"ContactEmail":"blueridgefarmersmarket@gmail.com","ContactPhone":"706-258-4552","Website":"http:\/\/www.brfarmersmarket.com\/","Facebook":"https:\/\/www.facebook.com\/DowntownMarketBlueRidge\/","Twitter":null,"Instagram":null,"Pinterest":null,"Youtube":null,"Blog":null,"Address":"400 W. Main St., City Park, Blue Ridge, GA, 30513","State":"Georgia","City":"Blue Ridge","Street":"400 W. Main St., City Park","Zip":"30513","Longitude":"-84.32721119595689","Latitude":"34.86338716758654","Dates":null,"Products":""},{"Type":"farmers market","ModifyDate":"Mar 20th, 2023","Image":"default-farmersmarket-4-3.jpg","ListingID":"309484","Name":"Bluebird Market","Description":null,"ContactName":null,"ContactEmail":null,"ContactPhone":"404-300-9519","Website":"https:\/\/www.bluebirdmarket.com\/","Facebook":null,"Twitter":null,"Instagram":null,"Pinterest":null,"Youtube":null,"Blog":null,"Address":"215 Barnesville Street Thomaston, GA 30286","State":"Georgia","City":"Thomaston","Street":"215 Barnesville Street","Zip":"30286","Longitude":"-84.3217177426079","Latitude":"32.88946882903165","Dates":null,"Products":""},{"Type":"farmers market","ModifyDate":"Mar 20th, 2023","Image":"default-farmersmarket-4-3.jpg","ListingID":"309485","Name":"Braselton Farmers Market","Description":null,"ContactName":null,"ContactEmail":"psheffield@braselton.net","ContactPhone":"706-684-0369","Website":"http:\/\/www.downtownbraselton.com\/","Facebook":"https:\/\/www.facebook.com\/BraseltonFarmersMarket\/","Twitter":null,"Instagram":null,"Pinterest":null,"Youtube":null,"Blog":null,"Address":"9924 Davis Street, Braselton, Georgia 30519","State":"Georgia","City":"Braselton","Street":"9924 Davis Street","Zip":"30519","Longitude":"-83.76145384580737","Latitude":"34.10924642578234","Dates":null,"Products":""},{"Type":"farmers market","ModifyDate":"Mar 20th, 2023","Image":"default-farmersmarket-4-3.jpg","ListingID":"309486","Name":"Byron Tailgate Market","Description":null,"ContactName":null,"ContactEmail":"tsandefur@byronga.com","ContactPhone":"478-956-3600","Website":"https:\/\/www.byronga.com\/events.cfm?ID=1","Facebook":null,"Twitter":null,"Instagram":null,"Pinterest":null,"Youtube":null,"Blog":null,"Address":"100 West Heritage Blvd N Byron, GA 31008","State":"Georgia","City":"Byron","Street":"100 West Heritage Blvd N","Zip":"31008","Longitude":"-83.75912699894327","Latitude":"32.65368516988184","Dates":null,"Products":""},{"Type":"farmers market","ModifyDate":"Mar 20th, 2023","Image":"default-farmersmarket-4-3.jpg","ListingID":"309487","Name":"Cabbagetown Market","Description":null,"ContactName":null,"ContactEmail":null,"ContactPhone":"404-221-9186","Website":null,"Facebook":null,"Twitter":null,"Instagram":null,"Pinterest":null,"Youtube":null,"Blog":null,"Address":"198 Carroll Street Atlanta, GA 30316","State":"Georgia","City":"Atlanta","Street":"198 Carroll Street","Zip":"30316","Longitude":"-84.36791800165918","Latitude":"33.749241998302395","Dates":null,"Products":""},{"Type":"farmers market","ModifyDate":"Mar 20th, 2023","Image":"default-farmersmarket-4-3.jpg","ListingID":"309488","Name":"Cairo State Farmers Market","Description":null,"ContactName":null,"ContactEmail":"timothy.vanvalkenburg@agr.georgia.gov","ContactPhone":"229-225-4072","Website":"https:\/\/agr.georgia.gov\/","Facebook":null,"Twitter":null,"Instagram":null,"Pinterest":null,"Youtube":null,"Blog":null,"Address":"1110 North Broad Street Cairo, GA 39828","State":"Georgia","City":"Cairo","Street":"1110 North Broad Street","Zip":"39828","Longitude":"-84.20803969493058","Latitude":"30.88842963141917","Dates":null,"Products":""},{"Type":"farmers market","ModifyDate":"Mar 20th, 2023","Image":"default-farmersmarket-4-3.jpg","ListingID":"309489","Name":"Canton Farmers Market","Description":null,"ContactName":null,"ContactEmail":"cantongafarmersmarket@yahoo.com","ContactPhone":"770-704-1500","Website":null,"Facebook":"https:\/\/www.facebook.com\/CantonGAFarmersMarket\/","Twitter":null,"Instagram":null,"Pinterest":null,"Youtube":null,"Blog":null,"Address":"130 E Main Sreet, Canton, Georgia 30114","State":"Georgia","City":"Canton","Street":"130 E Main Sreet","Zip":"30114","Longitude":"-84.48644994780767","Latitude":"34.23429793364382","Dates":null,"Products":""},{"Type":"farmers market","ModifyDate":"Mar 20th, 2023","Image":"default-farmersmarket-4-3.jpg","ListingID":"309490","Name":"Cartersville Farmers Market","Description":null,"ContactName":null,"ContactEmail":"regina.shaw@uga.edu","ContactPhone":"770-607-3480","Website":null,"Facebook":"https:\/\/www.facebook.com\/CartersvilleFarmersMarket","Twitter":null,"Instagram":null,"Pinterest":null,"Youtube":null,"Blog":null,"Address":"10 North Public Square, Cartersville, Georgia 30120","State":"Georgia","City":"Cartersville","Street":"10 North Public Square","Zip":"30120","Longitude":"-84.79628878347376","Latitude":"34.166092273670344","Dates":null,"Products":""},{"Type":"farmers market","ModifyDate":"Mar 20th, 2023","Image":"default-farmersmarket-4-3.jpg","ListingID":"309491","Name":"Cherokee Fresh Market","Description":null,"ContactName":null,"ContactEmail":null,"ContactPhone":"678-575-8535","Website":"https:\/\/www.cherokeefreshmarket.com\/","Facebook":null,"Twitter":null,"Instagram":null,"Pinterest":null,"Youtube":null,"Blog":null,"Address":"362 Stringer Road Canton, GA 30115","State":"Georgia","City":"Canton","Street":"362 Stringer Road","Zip":"30115","Longitude":"-84.44165624247347","Latitude":"34.17121885043616","Dates":null,"Products":""},{"Type":"farmers market","ModifyDate":"Mar 20th, 2023","Image":"default-farmersmarket-4-3.jpg","ListingID":"309492","Name":"Cherokee Market Farm Fresh Produce & Antiques","Description":null,"ContactName":null,"ContactEmail":"cherokeemarket@aol.com","ContactPhone":null,"Website":null,"Facebook":"https:\/\/www.facebook.com\/cherokeemarketfarmfreshproduce\/","Twitter":null,"Instagram":null,"Pinterest":null,"Youtube":null,"Blog":null,"Address":"11611 Cumming Highway, Canton, Georgia 30115","State":"Georgia","City":"Canton","Street":"11611 Cumming Highway","Zip":"30115","Longitude":"-84.30228878691247","Latitude":"34.24674646306195","Dates":null,"Products":""},{"Type":"farmers market","ModifyDate":"Mar 20th, 2023","Image":"default-farmersmarket-4-3.jpg","ListingID":"309493","Name":"Christ United Farmer's Market","Description":null,"ContactName":null,"ContactEmail":null,"ContactPhone":null,"Website":"http:\/\/www.christchurchumc.org\/wp\/","Facebook":"http:\/\/www.facebook.com\/ChristUnitedMethodistChurchRoswellGa","Twitter":null,"Instagram":null,"Pinterest":null,"Youtube":null,"Blog":null,"Address":"1340 Woodstock Road Roswell, GA 30075","State":"Georgia","City":"ROSWELL","Street":"1340 WOODSTOCK RD","Zip":"30075","Longitude":"-84.40055149120593","Latitude":"34.0615391945469","Dates":null,"Products":""},{"Type":"farmers market","ModifyDate":"Mar 20th, 2023","Image":"default-farmersmarket-4-3.jpg","ListingID":"309494","Name":"City Market on the Green","Description":null,"ContactName":null,"ContactEmail":null,"ContactPhone":"478-836-4564","Website":"https:\/\/www.maconmarket.com\/","Facebook":null,"Twitter":null,"Instagram":null,"Pinterest":null,"Youtube":null,"Blog":null,"Address":"Third and Poplar Street, Downtown Macon, GA 31201","State":"Georgia","City":"Macon","Street":"Third and Poplar Street","Zip":"31201","Longitude":"-83.62884000112714","Latitude":"32.83430001830416","Dates":null,"Products":""},{"Type":"farmers market","ModifyDate":"Mar 20th, 2023","Image":"default-farmersmarket-4-3.jpg","ListingID":"309495","Name":"City of Dahlonega Farmers Market","Description":null,"ContactName":null,"ContactEmail":null,"ContactPhone":"706-864-6133","Website":null,"Facebook":null,"Twitter":null,"Instagram":null,"Pinterest":null,"Youtube":null,"Blog":null,"Address":"465 Riley Road Dahlonega, GA 30533","State":"Georgia","City":"Dahlonega","Street":"465 Riley Road","Zip":"30533","Longitude":"-83.97563020632742","Latitude":"34.52843706208519","Dates":null,"Products":""},{"Type":"farmers market","ModifyDate":"Mar 20th, 2023","Image":"default-farmersmarket-4-3.jpg","ListingID":"309496","Name":"City of Duluth Farmers Market","Description":null,"ContactName":null,"ContactEmail":null,"ContactPhone":"678-475-3512","Website":"http:\/\/www.duluthga.net\/community\/duluth_farmers_market.php","Facebook":null,"Twitter":null,"Instagram":null,"Pinterest":null,"Youtube":null,"Blog":null,"Address":"3167 Main Street Duluth, GA 30096","State":"Georgia","City":"DULUTH","Street":"3167 MAIN ST","Zip":"30096","Longitude":"-84.14555419807023","Latitude":"34.00236455617895","Dates":null,"Products":""},{"Type":"farmers market","ModifyDate":"Mar 20th, 2023","Image":"default-farmersmarket-4-3.jpg","ListingID":"309497","Name":"City of Emerson Farmer's Market","Description":null,"ContactName":null,"ContactEmail":"jwheeler@cityofemerson.org","ContactPhone":"770-382-9819","Website":"https:\/\/www.cityofemerson.org","Facebook":"https:\/\/www.facebook.com\/cityofemerson","Twitter":null,"Instagram":null,"Pinterest":null,"Youtube":null,"Blog":null,"Address":"700 Highway 293, Emerson, Georgia 30137","State":"Georgia","City":"Emerson","Street":"700 Highway 293","Zip":"30137","Longitude":"-84.75658679898592","Latitude":"34.12693048186203","Dates":null,"Products":""},{"Type":"farmers market","ModifyDate":"Mar 20th, 2023","Image":"default-farmersmarket-4-3.jpg","ListingID":"309498","Name":"City of Forsyth Farmers Market","Description":null,"ContactName":null,"ContactEmail":"cordy@cityofforsyth.com","ContactPhone":"478-994-7747","Website":"https:\/\/mainstreet.cityofforsyth.net\/events\/event\/2517\/","Facebook":"https:\/\/www.facebook.com\/City-of-Forsyth-Farmers-Market-1944158559140262","Twitter":null,"Instagram":null,"Pinterest":null,"Youtube":null,"Blog":null,"Address":"9 North Jackson Street, Forsyth, Georgia 31029","State":"Georgia","City":"Forsyth","Street":"9 North Jackson Street","Zip":"31029","Longitude":"-83.93938440554601","Latitude":"33.035766257806124","Dates":null,"Products":""},{"Type":"farmers market","ModifyDate":"Mar 20th, 2023","Image":"default-farmersmarket-4-3.jpg","ListingID":"309499","Name":"Clarkesville Farmers' Market","Description":null,"ContactName":null,"ContactEmail":"clarkesvillefarmersmarket@gmail.com","ContactPhone":"706-778-9374","Website":"http:\/\/www.clarkesvillefarmersmarket.com","Facebook":null,"Twitter":null,"Instagram":null,"Pinterest":null,"Youtube":null,"Blog":null,"Address":"583 Grant St., in front of The Old Clarkesville Mill, Clarkesville, GA, 30523","State":"Georgia","City":"Clarkesville","Street":"583 Grant St.","Zip":"30523","Longitude":"-83.51927695959773","Latitude":"34.619204003652186","Dates":null,"Products":""},{"Type":"farmers market","ModifyDate":"Mar 20th, 2023","Image":"default-farmersmarket-4-3.jpg","ListingID":"309500","Name":"Cochran Farmers Market","Description":null,"ContactName":null,"ContactEmail":null,"ContactPhone":"478-298-0099","Website":null,"Facebook":"http:\/\/www.facebook.com\/cochranfarmersmarket","Twitter":null,"Instagram":null,"Pinterest":null,"Youtube":null,"Blog":null,"Address":"112 N Second Street Cochran, GA 31014","State":"Georgia","City":"COCHRAN","Street":"112 N 2ND ST","Zip":"31014","Longitude":"-83.35590014271986","Latitude":"32.38755743909796","Dates":null,"Products":""},{"Type":"farmers market","ModifyDate":"Mar 20th, 2023","Image":"default-farmersmarket-4-3.jpg","ListingID":"309501","Name":"Columbus State Farmers Market","Description":null,"ContactName":null,"ContactEmail":null,"ContactPhone":"706-332-6378","Website":"https:\/\/www.internationalmarketplace.us\/","Facebook":null,"Twitter":null,"Instagram":null,"Pinterest":null,"Youtube":null,"Blog":null,"Address":"318 10th Avenue Columbus, GA 31901","State":"Georgia","City":"Columbus","Street":"318 10th Avenue","Zip":"31901","Longitude":"-84.97979842287648","Latitude":"32.453101788671844","Dates":null,"Products":""},{"Type":"farmers market","ModifyDate":"Mar 20th, 2023","Image":"default-farmersmarket-4-3.jpg","ListingID":"309502","Name":"Commerce Crossing Country Market","Description":null,"ContactName":null,"ContactEmail":null,"ContactPhone":"706-335-6352","Website":null,"Facebook":null,"Twitter":null,"Instagram":null,"Pinterest":null,"Youtube":null,"Blog":null,"Address":"199 Pottery Factory Drive Commerce, GA 30529","State":"Georgia","City":"COMMERCE","Street":"199 POTTERY FACTORY DR","Zip":"30529","Longitude":"-83.46130052807878","Latitude":"34.25085296509552","Dates":null,"Products":""},{"Type":"farmers market","ModifyDate":"Mar 20th, 2023","Image":"default-farmersmarket-4-3.jpg","ListingID":"309503","Name":"Common Ground Farmers Market","Description":null,"ContactName":null,"ContactEmail":"esta@uga.edu","ContactPhone":"404-292-0613","Website":null,"Facebook":null,"Twitter":null,"Instagram":null,"Pinterest":null,"Youtube":null,"Blog":null,"Address":"7741 Roswell Road., Atlanta, Georgia 30350","State":"Georgia","City":"Atlanta","Street":"7741 Roswell Road.","Zip":"30350","Longitude":"-84.36304535254689","Latitude":"33.966033121188644","Dates":null,"Products":""},{"Type":"farmers market","ModifyDate":"Mar 20th, 2023","Image":"default-farmersmarket-4-3.jpg","ListingID":"309504","Name":"Community Market of Rabun County","Description":null,"ContactName":null,"ContactEmail":"williams@rabuncounty.ga.gov","ContactPhone":"706-982-9432","Website":"https:\/\/www.rabuncountyeventvenues.com\/","Facebook":"https:\/\/www.facebook.com\/Community-Market-of-Rabun-County-102924617765438\/","Twitter":null,"Instagram":null,"Pinterest":null,"Youtube":null,"Blog":null,"Address":"201 West Savannah Street, Clayton, Georgia 30525","State":"Georgia","City":"Clayton","Street":"201 West Savannah Street","Zip":"30525","Longitude":"-83.40307676298126","Latitude":"34.8784996078329","Dates":null,"Products":""},{"Type":"farmers market","ModifyDate":"Mar 20th, 2023","Image":"default-farmersmarket-4-3.jpg","ListingID":"309505","Name":"Coweta County Farmers Market","Description":null,"ContactName":null,"ContactEmail":"charcourt@cityofnewnan.org","ContactPhone":"770-254-2620","Website":"https:\/\/www.mainstreetnewnan.com\/p\/events\/296","Facebook":"https:\/\/www.facebook.com\/events\/164289217601950\/","Twitter":null,"Instagram":null,"Pinterest":null,"Youtube":null,"Blog":null,"Address":"6 First Avenue, Newnan, Georgia 30263","State":"Georgia","City":"Newnan","Street":"6 First Avenue","Zip":"30263","Longitude":"-84.80363854276031","Latitude":"33.37006154613327","Dates":null,"Products":""},{"Type":"farmers market","ModifyDate":"Mar 20th, 2023","Image":"default-farmersmarket-4-3.jpg","ListingID":"309506","Name":"Coweta County Surplus Vegetable Market","Description":null,"ContactName":null,"ContactEmail":null,"ContactPhone":"770-254-2620","Website":null,"Facebook":null,"Twitter":null,"Instagram":null,"Pinterest":null,"Youtube":null,"Blog":null,"Address":"229 Temple Avenue Newnan, GA 30263","State":"Georgia","City":"Newnan","Street":"229 Temple Avenue","Zip":"30263","Longitude":"-84.8167151307075","Latitude":"33.38512101922755","Dates":null,"Products":""},{"Type":"farmers market","ModifyDate":"Mar 20th, 2023","Image":"default-farmersmarket-4-3.jpg","ListingID":"309507","Name":"Creation Health Farmers' Market","Description":null,"ContactName":null,"ContactEmail":null,"ContactPhone":"706-879-5850","Website":"http:\/\/www.facebook.com\/GordonHospital","Facebook":null,"Twitter":null,"Instagram":null,"Pinterest":null,"Youtube":null,"Blog":null,"Address":"444 Red Bud Rd., Piggly Wiggly Parking Lot, Calhoun, GA, 30703","State":"Georgia","City":"Calhoun","Street":"444 Red Bud Rd.","Zip":"30703","Longitude":"-84.94124596237263","Latitude":"34.5146320082781","Dates":null,"Products":""},{"Type":"farmers market","ModifyDate":"Mar 20th, 2023","Image":"default-farmersmarket-4-3.jpg","ListingID":"309508","Name":"Cumming Farmers' Market","Description":null,"ContactName":null,"ContactEmail":null,"ContactPhone":"770-887-2418","Website":null,"Facebook":null,"Twitter":null,"Instagram":null,"Pinterest":null,"Youtube":null,"Blog":null,"Address":"235 Castleberry Road Cumming, GA 30040","State":"Georgia","City":"Cumming","Street":"235 Castleberry Road","Zip":"30040","Longitude":"-84.14560612484142","Latitude":"34.20238729762025","Dates":null,"Products":""},{"Type":"farmers market","ModifyDate":"Mar 20th, 2023","Image":"default-farmersmarket-4-3.jpg","ListingID":"309509","Name":"Dallas Farmers Market","Description":null,"ContactName":null,"ContactEmail":null,"ContactPhone":"770-609-4982","Website":"http:\/\/ www.farmersdallas.com\/","Facebook":"http:\/\/www.facebook.com\/thedallasfarmersmarket","Twitter":null,"Instagram":null,"Pinterest":null,"Youtube":null,"Blog":null,"Address":"160 Confederate Avenue Dallas, GA 30132 Regions' Bank parking lot across from the old Courthouse in downtown Dallas, GA.","State":"Georgia","City":"DALLAS","Street":"160 CONFEDERATE AVE","Zip":"30132","Longitude":"-84.84160296432768","Latitude":"33.92532769896571","Dates":null,"Products":""},{"Type":"farmers market","ModifyDate":"Mar 20th, 2023","Image":"default-farmersmarket-4-3.jpg","ListingID":"309510","Name":"Dalton Saturday Market","Description":null,"ContactName":null,"ContactEmail":"admin@downtowndalton.com","ContactPhone":"706-278-3332","Website":"https:\/\/www.downtowndalton.com\/","Facebook":"https:\/\/www.facebook.com\/DowntownDaltonSaturdayMarket\/","Twitter":null,"Instagram":null,"Pinterest":null,"Youtube":null,"Blog":null,"Address":"300 W. Waugh Street Dalton, GA 30720","State":"Georgia","City":"Dalton","Street":"300 W. Waugh Street","Zip":"30720","Longitude":"-84.97200901823048","Latitude":"34.77416518510847","Dates":null,"Products":""},{"Type":"farmers market","ModifyDate":"Mar 20th, 2023","Image":"default-farmersmarket-4-3.jpg","ListingID":"309511","Name":"Darien Farmers Market","Description":null,"ContactName":null,"ContactEmail":"darienfarmersmarket@gmail.com","ContactPhone":null,"Website":null,"Facebook":"https:\/\/www.facebook.com\/dariengalionsclub","Twitter":null,"Instagram":null,"Pinterest":null,"Youtube":null,"Blog":null,"Address":"905 E Broad Street, Darien, Georgia 31305","State":"Georgia","City":"Darien","Street":"905 E Broad Street","Zip":"31305","Longitude":"-81.4231280150931","Latitude":"31.367042000110743","Dates":null,"Products":""},{"Type":"farmers market","ModifyDate":"Mar 20th, 2023","Image":"default-farmersmarket-4-3.jpg","ListingID":"309512","Name":"Dawson County Farmers Market","Description":null,"ContactName":null,"ContactEmail":null,"ContactPhone":"706-265-2442","Website":null,"Facebook":null,"Twitter":null,"Instagram":null,"Pinterest":null,"Youtube":null,"Blog":null,"Address":"298 Academy Avenue Dawsonville, GA 30534","State":"Georgia","City":"Dawsonville","Street":"298 Academy Avenue","Zip":"30534","Longitude":"-84.11984246843986","Latitude":"34.4205780545207","Dates":null,"Products":""},{"Type":"farmers market","ModifyDate":"Mar 20th, 2023","Image":"default-farmersmarket-4-3.jpg","ListingID":"309513","Name":"Decatur Saturday Farmers' Market","Description":null,"ContactName":null,"ContactEmail":"info@decaturfarmersmarket.com","ContactPhone":null,"Website":"http:\/\/www.decaturfarmersmarket.com","Facebook":"https:\/\/www.facebook.com\/DecaturFarmersMarkets","Twitter":null,"Instagram":null,"Pinterest":null,"Youtube":null,"Blog":null,"Address":"498 N. McDonough St., Decatur, GA, 30030","State":"Georgia","City":"Decatur","Street":"498 N. McDonough St.","Zip":"30030","Longitude":"-84.29650310648462","Latitude":"33.773427755831406","Dates":null,"Products":""},{"Type":"farmers market","ModifyDate":"Mar 20th, 2023","Image":"default-farmersmarket-4-3.jpg","ListingID":"309514","Name":"DeKalb Farmers Market","Description":null,"ContactName":null,"ContactEmail":null,"ContactPhone":"404-377-6400","Website":"https:\/\/www.dekalbfarmersmarket.com\/","Facebook":null,"Twitter":null,"Instagram":null,"Pinterest":null,"Youtube":null,"Blog":null,"Address":"3000 East Ponce De leon Avenue Decatur, GA 30030","State":"Georgia","City":"Decatur","Street":"3000 East Ponce De leon Avenue","Zip":"30030","Longitude":"-84.27175431401308","Latitude":"33.78422966042084","Dates":null,"Products":""},{"Type":"farmers market","ModifyDate":"Mar 20th, 2023","Image":"default-farmersmarket-4-3.jpg","ListingID":"309515","Name":"Dogwood Farmers Market","Description":null,"ContactName":null,"ContactEmail":null,"ContactPhone":"770-574-9688","Website":null,"Facebook":null,"Twitter":null,"Instagram":null,"Pinterest":null,"Youtube":null,"Blog":null,"Address":"299 Robertson Avenue Tallapoosa, GA 30176","State":"Georgia","City":"Tallapoosa","Street":"299 Robertson Avenue","Zip":"30176","Longitude":"-85.29118186982048","Latitude":"33.755635849808","Dates":null,"Products":""},{"Type":"farmers market","ModifyDate":"Mar 20th, 2023","Image":"default-farmersmarket-4-3.jpg","ListingID":"309516","Name":"Donalsonville Farmers Market","Description":null,"ContactName":null,"ContactEmail":null,"ContactPhone":"404-656-3680","Website":null,"Facebook":null,"Twitter":null,"Instagram":null,"Pinterest":null,"Youtube":null,"Blog":null,"Address":"U.S. Highway 84 Donalsonville, GA 31745","State":"Georgia","City":"Donalsonville","Street":"U.S. Highway 84","Zip":"31745","Longitude":"-84.88059330983144","Latitude":"31.040419116148396","Dates":null,"Products":""},{"Type":"farmers market","ModifyDate":"Mar 20th, 2023","Image":"default-farmersmarket-4-3.jpg","ListingID":"309517","Name":"Douglas-Coffee County Farmers Curb Market","Description":null,"ContactName":null,"ContactEmail":null,"ContactPhone":"912-384-9046","Website":null,"Facebook":null,"Twitter":null,"Instagram":null,"Pinterest":null,"Youtube":null,"Blog":null,"Address":"606 S Gaskin Avenue Douglas, GA 31533","State":"Georgia","City":"Douglas","Street":"606 S Gaskin Avenue","Zip":"31533","Longitude":"-82.8453816431015","Latitude":"31.503104141920254","Dates":null,"Products":""},{"Type":"farmers market","ModifyDate":"Mar 20th, 2023","Image":"default-farmersmarket-4-3.jpg","ListingID":"309518","Name":"Douglasville WIC Market","Description":null,"ContactName":null,"ContactEmail":null,"ContactPhone":"678-504-1056","Website":null,"Facebook":null,"Twitter":null,"Instagram":null,"Pinterest":null,"Youtube":null,"Blog":null,"Address":"6770 Selman Drive Douglasville, GA 30134","State":"Georgia","City":"Douglasville","Street":"6770 Selman Drive","Zip":"30134","Longitude":"-84.75056119579223","Latitude":"33.742663892315186","Dates":null,"Products":""},{"Type":"farmers market","ModifyDate":"Mar 20th, 2023","Image":"default-farmersmarket-4-3.jpg","ListingID":"309519","Name":"Downtown Alpharetta Farmers Market","Description":null,"ContactName":null,"ContactEmail":"nager@alpharettafarmersmarket.com","ContactPhone":"678-865-6608","Website":null,"Facebook":"https:\/\/www.facebook.com\/DowntownAlpharettaFarmersMarket\/","Twitter":null,"Instagram":null,"Pinterest":null,"Youtube":null,"Blog":null,"Address":"North and, Alpharetta, Georgia 30004","State":"Georgia","City":"Alpharetta","Street":"Alpharetta City Center","Zip":"30004","Longitude":"-84.28351667251397","Latitude":"34.11143004279721","Dates":null,"Products":""},{"Type":"farmers market","ModifyDate":"Mar 20th, 2023","Image":"default-farmersmarket-4-3.jpg","ListingID":"309520","Name":"Downtown Byron Saturday Market","Description":null,"ContactName":null,"ContactEmail":"byronwelcomecenter@gmail.com","ContactPhone":"478-956-2409","Website":"https:\/\/www.tourbyron.com\/","Facebook":null,"Twitter":null,"Instagram":null,"Pinterest":null,"Youtube":null,"Blog":null,"Address":"100 West Heritage Blvd. S Byron, GA 31030","State":"Georgia","City":"Byron","Street":"100 West Heritage Blvd. S","Zip":"31030","Longitude":"-83.75945705429592","Latitude":"32.653781009172725","Dates":null,"Products":""},{"Type":"farmers market","ModifyDate":"Mar 20th, 2023","Image":"default-farmersmarket-4-3.jpg","ListingID":"309521","Name":"Downtown Canton Farmers Market","Description":null,"ContactName":null,"ContactEmail":null,"ContactPhone":"770-704-1548","Website":"http:\/\/www.cantonhdl.com","Facebook":null,"Twitter":null,"Instagram":null,"Pinterest":null,"Youtube":null,"Blog":null,"Address":"151 Elizabeth Street Canton, GA 30114","State":"Georgia","City":"CANTON","Street":"151 ELIZABETH ST","Zip":"30114","Longitude":"-84.49095855066605","Latitude":"34.235469056296935","Dates":null,"Products":""},{"Type":"farmers market","ModifyDate":"Mar 20th, 2023","Image":"default-farmersmarket-4-3.jpg","ListingID":"309522","Name":"Downtown Commerce Farmers Market","Description":null,"ContactName":null,"ContactEmail":"sandrah@commercega.org","ContactPhone":"706-335-2954","Website":"https:\/\/www.commercega.org\/","Facebook":null,"Twitter":null,"Instagram":null,"Pinterest":null,"Youtube":null,"Blog":null,"Address":"S. Elm Street & Pine Street Commerce, GA 30529","State":"Georgia","City":"Commerce","Street":"S. Elm Street & Pine Street","Zip":"30529","Longitude":"-83.45648996692918","Latitude":"34.20239999620355","Dates":null,"Products":""},{"Type":"farmers market","ModifyDate":"Mar 20th, 2023","Image":"default-farmersmarket-4-3.jpg","ListingID":"309523","Name":"Downtown Dalton Saturday Market","Description":null,"ContactName":null,"ContactEmail":null,"ContactPhone":null,"Website":null,"Facebook":"https:\/\/www.facebook.com\/DowntownDaltonSaturdayMarket","Twitter":null,"Instagram":null,"Pinterest":null,"Youtube":null,"Blog":null,"Address":"N. Thornton Ave. and W. Waugh St., Dalton, GA, 30720","State":"Georgia","City":"Dalton","Street":"N. Thornton Ave. and W. Waugh St.","Zip":"30720","Longitude":"-84.97183999278202","Latitude":"34.77420999425193","Dates":null,"Products":""},{"Type":"farmers market","ModifyDate":"Mar 20th, 2023","Image":"default-farmersmarket-4-3.jpg","ListingID":"309524","Name":"Downtown Decatur Market","Description":null,"ContactName":null,"ContactEmail":null,"ContactPhone":"404-377-0894","Website":null,"Facebook":null,"Twitter":null,"Instagram":null,"Pinterest":null,"Youtube":null,"Blog":null,"Address":"101 E. Court Square Decatur, GA 30030","State":"Georgia","City":"Decatur","Street":"101 E. Court Square","Zip":"30030","Longitude":"-84.29592926274914","Latitude":"33.774931292906096","Dates":null,"Products":""},{"Type":"farmers market","ModifyDate":"Mar 20th, 2023","Image":"default-farmersmarket-4-3.jpg","ListingID":"309525","Name":"Downtown Farmers Market","Description":null,"ContactName":null,"ContactEmail":null,"ContactPhone":null,"Website":null,"Facebook":null,"Twitter":null,"Instagram":null,"Pinterest":null,"Youtube":null,"Blog":null,"Address":"Jackson Street Americus, GA 31709","State":"Georgia","City":"Americus","Street":"Jackson Street","Zip":"31709","Longitude":"-84.23387997049554","Latitude":"32.07572150752716","Dates":null,"Products":""},{"Type":"farmers market","ModifyDate":"Mar 20th, 2023","Image":"default-farmersmarket-4-3.jpg","ListingID":"309526","Name":"Downtown Market","Description":null,"ContactName":null,"ContactEmail":null,"ContactPhone":"706-647-8989","Website":null,"Facebook":null,"Twitter":null,"Instagram":null,"Pinterest":null,"Youtube":null,"Blog":null,"Address":"215 N Center Thomaston, GA 30286","State":"Georgia","City":"Thomaston","Street":"215 N Center","Zip":"30286","Longitude":"-84.33668938812623","Latitude":"32.93037735361287","Dates":null,"Products":""},{"Type":"farmers market","ModifyDate":"Mar 20th, 2023","Image":"default-farmersmarket-4-3.jpg","ListingID":"309527","Name":"Downtown Sandersville Market","Description":null,"ContactName":null,"ContactEmail":"sandersvillefarmersmarket@gmail.com","ContactPhone":"478-552-2525","Website":"http:\/\/www.sandersville.net\/DowntownFarmersMarket.cfm","Facebook":"https:\/\/www.facebook.com\/Sandersville-Farmers-Market-190410441108590\/","Twitter":null,"Instagram":null,"Pinterest":null,"Youtube":null,"Blog":null,"Address":"132 W Haynes Sreet, Sandersville, Georgia 31082","State":"Georgia","City":"Sandersville","Street":"132 W Haynes Sreet","Zip":"31082","Longitude":"-82.8114729089944","Latitude":"32.98292839624147","Dates":null,"Products":""},{"Type":"farmers market","ModifyDate":"Mar 20th, 2023","Image":"default-farmersmarket-4-3.jpg","ListingID":"309528","Name":"Dunwoody Farmers Market","Description":null,"ContactName":null,"ContactEmail":null,"ContactPhone":null,"Website":"http:\/\/www.DunwoodyFarmersMkt.com","Facebook":"http:\/\/www.facebook.com\/DunwoodyFarmersMarket","Twitter":null,"Instagram":null,"Pinterest":null,"Youtube":null,"Blog":null,"Address":"4770 N. Peachtree Road Dunwoody, GA 30338 Dunwoody Farmers Market takes place Saturday mornings from May - October, 8:30 am - 1 pm at Brook Run Park in Dunwoody, GA. Exit 30 (Chamblee Dunwoody) off 28","State":"Georgia","City":"DUNWOODY","Street":"4770 N PEACHTREE RD","Zip":"30338","Longitude":"-84.29425344726839","Latitude":"33.93542972884155","Dates":null,"Products":""},{"Type":"farmers market","ModifyDate":"Mar 20th, 2023","Image":"default-farmersmarket-4-3.jpg","ListingID":"309529","Name":"Dunwoody Green Market","Description":null,"ContactName":null,"ContactEmail":null,"ContactPhone":null,"Website":"http:\/\/dunwoodygreenmarket.com","Facebook":"http:\/\/www.facebook.com\/Dunwoodygreenmarket","Twitter":null,"Instagram":null,"Pinterest":null,"Youtube":null,"Blog":null,"Address":"1445 Mt Vernon Rd (at Dunwoody Baptist Church Campus) Dunwoody, GA 30338","State":"Georgia","City":"DUNWOODY","Street":"1445 MOUNT VERNON RD","Zip":"30338","Longitude":"-84.33954285982256","Latitude":"33.94268113089436","Dates":null,"Products":""},{"Type":"farmers market","ModifyDate":"Mar 20th, 2023","Image":"default-farmersmarket-4-3.jpg","ListingID":"309530","Name":"Dunwoody Spruill Green Market","Description":null,"ContactName":null,"ContactEmail":"email@example.com","ContactPhone":"770-214-8531","Website":"https:\/\/www.localharvest.org\/farmers-markets\/M12065","Facebook":null,"Twitter":null,"Instagram":null,"Pinterest":null,"Youtube":null,"Blog":null,"Address":"4755 N Peachtree Rd Atlanta, GA 30338","State":"Georgia","City":"Atlanta","Street":"4755 N Peachtree Rd","Zip":"30338","Longitude":"-84.29478137641395","Latitude":"33.93349285749982","Dates":null,"Products":""},{"Type":"farmers market","ModifyDate":"Mar 20th, 2023","Image":"default-farmersmarket-4-3.jpg","ListingID":"309531","Name":"East Atlanta Village Farmers Market","Description":null,"ContactName":null,"ContactEmail":"nfo@cfmatl.org","ContactPhone":"404-919-3619","Website":"http:\/\/cfmatl.org\/eav","Facebook":"https:\/\/www.facebook.com\/EAVFarmersMarket\/","Twitter":null,"Instagram":null,"Pinterest":null,"Youtube":null,"Blog":null,"Address":"572 Stokeswood Avenue, Atlanta, Georgia 30316","State":"Georgia","City":"Atlanta","Street":"572 Stokeswood Avenue","Zip":"30316","Longitude":"-84.3447053189672","Latitude":"33.73824611179536","Dates":null,"Products":""},{"Type":"farmers market","ModifyDate":"Mar 20th, 2023","Image":"default-farmersmarket-4-3.jpg","ListingID":"309532","Name":"East Lake Farmers Market","Description":null,"ContactName":null,"ContactEmail":null,"ContactPhone":"404-428-8017","Website":null,"Facebook":null,"Twitter":null,"Instagram":null,"Pinterest":null,"Youtube":null,"Blog":null,"Address":"Hosea L. Williams Dr SE & 2nd Ave SE Atlanta, GA 30317","State":"Georgia","City":"Atlanta","Street":"Hosea L. Williams Dr SE & 2nd Ave SE","Zip":"30317","Longitude":"-84.30972001716016","Latitude":"33.7510799820307","Dates":null,"Products":""},{"Type":"farmers market","ModifyDate":"Mar 20th, 2023","Image":"default-farmersmarket-4-3.jpg","ListingID":"309533","Name":"East Metro Farmers Market at Stonecrest","Description":null,"ContactName":null,"ContactEmail":null,"ContactPhone":"770-661-0233","Website":"https:\/\/eastmetrofarmersmarket.com\/","Facebook":null,"Twitter":null,"Instagram":null,"Pinterest":null,"Youtube":null,"Blog":null,"Address":"2929 Turner Hill Road Lithonia, GA 30038","State":"Georgia","City":"Lithonia","Street":"2929 Turner Hill Road","Zip":"30038","Longitude":"-84.08865273519119","Latitude":"33.698533224078666","Dates":null,"Products":""},{"Type":"farmers market","ModifyDate":"Mar 20th, 2023","Image":"default-farmersmarket-4-3.jpg","ListingID":"309534","Name":"Ellijay Farmers Market","Description":null,"ContactName":null,"ContactEmail":"ellijayfarmersmarketgc@gmail.com","ContactPhone":"706-273-9163","Website":"https:\/\/gcmgvolunteers.wordpress.com\/farmers-market\/","Facebook":"https:\/\/www.facebook.com\/ellijayfarmers\/","Twitter":null,"Instagram":null,"Pinterest":null,"Youtube":null,"Blog":null,"Address":"1 Broad Street, Ellijay, Georgia 30540","State":"Georgia","City":"Ellijay","Street":"1 Broad Street","Zip":"30540","Longitude":"-84.48363774685117","Latitude":"34.695615057531896","Dates":null,"Products":""},{"Type":"farmers market","ModifyDate":"Mar 20th, 2023","Image":"default-farmersmarket-4-3.jpg","ListingID":"309535","Name":"Emory Farmers Market","Description":null,"ContactName":null,"ContactEmail":"Julie.shaffer@emory.edu","ContactPhone":"404-727-4015","Website":"http:\/\/www.emory.edu\/dining\/emory_farmers_market.php","Facebook":"https:\/\/www.facebook.com\/EmoryFarmersMarket\/?fref=ts","Twitter":null,"Instagram":null,"Pinterest":null,"Youtube":null,"Blog":null,"Address":"569 Asbury Circle, Atlanta, Georgia 30322","State":"Georgia","City":"Atlanta","Street":"569 Asbury Circle","Zip":"30322","Longitude":"-84.32427795945135","Latitude":"33.794288769009746","Dates":null,"Products":""},{"Type":"farmers market","ModifyDate":"Mar 20th, 2023","Image":"default-farmersmarket-4-3.jpg","ListingID":"309536","Name":"Fall Line Farmers Market on First Fridays","Description":null,"ContactName":null,"ContactEmail":null,"ContactPhone":"478-452-9394","Website":null,"Facebook":"http:\/\/www.facebook.com\/FallLineFarmersMarket","Twitter":null,"Instagram":null,"Pinterest":null,"Youtube":null,"Blog":null,"Address":"210 S. Wayne St. Milledgeville, GA 31061","State":"Georgia","City":"MILLEDGEVILLE","Street":"210 N WAYNE ST","Zip":"31061","Longitude":"-83.22767832268956","Latitude":"33.08333446700214","Dates":null,"Products":""},{"Type":"farmers market","ModifyDate":"Mar 20th, 2023","Image":"default-farmersmarket-4-3.jpg","ListingID":"309537","Name":"FARM Atlanta Road Farmers Market","Description":null,"ContactName":null,"ContactEmail":null,"ContactPhone":null,"Website":"http:\/\/www.farmersatlantaroadmarket.org\/","Facebook":null,"Twitter":null,"Instagram":null,"Pinterest":null,"Youtube":null,"Blog":null,"Address":"2160 Cooper Lake Road SE Smryna, GA 30080","State":"Georgia","City":"SMYRNA","Street":"2160 COOPER LAKE DR SE","Zip":"30080","Longitude":"-84.49772954210249","Latitude":"33.854418102601464","Dates":null,"Products":""},{"Type":"farmers market","ModifyDate":"Mar 20th, 2023","Image":"default-farmersmarket-4-3.jpg","ListingID":"309538","Name":"Farmers Market at Spruill Gallery","Description":null,"ContactName":null,"ContactEmail":null,"ContactPhone":"770-394-4019","Website":null,"Facebook":null,"Twitter":null,"Instagram":null,"Pinterest":null,"Youtube":null,"Blog":null,"Address":"4681 Ashford Dunwoody Road Atlanta, GA 30338","State":"Georgia","City":"Atlanta","Street":"4681 Ashford Dunwoody Road","Zip":"30338","Longitude":"-84.33756701444064","Latitude":"33.9328056698327","Dates":null,"Products":""},{"Type":"farmers market","ModifyDate":"Mar 20th, 2023","Image":"default-farmersmarket-4-3.jpg","ListingID":"309539","Name":"Farmers Market Days","Description":null,"ContactName":null,"ContactEmail":null,"ContactPhone":"229-794-2567","Website":null,"Facebook":null,"Twitter":null,"Instagram":null,"Pinterest":null,"Youtube":null,"Blog":null,"Address":"Main Street Hahira, GA 31632","State":"Georgia","City":"Hahira","Street":"Main Street","Zip":"31632","Longitude":"-83.3780349933437","Latitude":"30.990028362919148","Dates":null,"Products":""},{"Type":"farmers market","ModifyDate":"Mar 20th, 2023","Image":"default-farmersmarket-4-3.jpg","ListingID":"309540","Name":"Farmers Market in Downtown Thomasville","Description":null,"ContactName":null,"ContactEmail":"ura@hubsandhops.com","ContactPhone":"229-236-1890","Website":"https:\/\/thomasvillega.com\/downtown-thomasville","Facebook":null,"Twitter":null,"Instagram":null,"Pinterest":null,"Youtube":null,"Blog":null,"Address":"209 West Remington Ave, Thomasville, Georgia 31792","State":"Georgia","City":"Thomasville","Street":"209 West Remington Ave","Zip":"31792","Longitude":"-83.98053000169166","Latitude":"30.835601825333036","Dates":null,"Products":""},{"Type":"farmers market","ModifyDate":"Mar 20th, 2023","Image":"default-farmersmarket-4-3.jpg","ListingID":"309541","Name":"Farmview Market","Description":null,"ContactName":null,"ContactEmail":null,"ContactPhone":"844-210-7030","Website":"http:\/\/FarmviewMarket.com","Facebook":"http:\/\/www.facebook.com\/FarmviewMarket","Twitter":null,"Instagram":null,"Pinterest":null,"Youtube":null,"Blog":null,"Address":"2610 Eatonton Rd. Madison, GA 30650 Take Interstate 20 to Exit 114. We are located 1 mile south of the interstate on the left. Parking lot and restrooms are available.","State":"Georgia","City":"MADISON","Street":"2610 EATONTON HWY","Zip":"30650","Longitude":"-83.46130109659565","Latitude":"33.538885540861465","Dates":null,"Products":""},{"Type":"farmers market","ModifyDate":"Mar 20th, 2023","Image":"default-farmersmarket-4-3.jpg","ListingID":"309542","Name":"Flowery Branch Farmers Market","Description":null,"ContactName":null,"ContactEmail":null,"ContactPhone":"678-400-5108","Website":"http:\/\/flowerybranchfarmersmarket.com\/","Facebook":"http:\/\/www.facebook.com\/FarmersMarketFloweryBranch","Twitter":null,"Instagram":null,"Pinterest":null,"Youtube":null,"Blog":null,"Address":"5410 W Pine Street Flowery Branch, GA 30542 The 2021 market season opens Thursday, May 6th 3:30pm-6:30pm and will run weekly through October. Free parking is available adjacent to the market which wil","State":"Georgia","City":"FLOWERY BR","Street":"5410 W PINE ST","Zip":"30542","Longitude":"-83.92672268845332","Latitude":"34.18655635705545","Dates":null,"Products":""},{"Type":"farmers market","ModifyDate":"Mar 20th, 2023","Image":"default-farmersmarket-4-3.jpg","ListingID":"309543","Name":"Forsyth County Farmers' Market","Description":null,"ContactName":null,"ContactEmail":null,"ContactPhone":"770-887-3348","Website":null,"Facebook":null,"Twitter":null,"Instagram":null,"Pinterest":null,"Youtube":null,"Blog":null,"Address":"1759 Old Atlanta Road Cumming, GA 30041","State":"Georgia","City":"Cumming","Street":"1759 Old Atlanta Road","Zip":"30041","Longitude":"-84.14818858176098","Latitude":"34.14322563311036","Dates":null,"Products":""},{"Type":"farmers market","ModifyDate":"Mar 20th, 2023","Image":"default-farmersmarket-4-3.jpg","ListingID":"309544","Name":"Forsyth Farmers' Market","Description":null,"ContactName":null,"ContactEmail":"forsythfarmersmarket@gmail.com","ContactPhone":null,"Website":"http:\/\/www.forsythfarmersmarket.org\/","Facebook":"https:\/\/www.facebook.com\/ForsythFarmersMarket","Twitter":null,"Instagram":null,"Pinterest":null,"Youtube":null,"Blog":null,"Address":"W. Park Ave. and Bull St., Forsyth Park, Savannah, GA, 31401","State":"Georgia","City":"Savannah","Street":"W. Park Ave. and Bull St.","Zip":"31401","Longitude":"-81.09724003872705","Latitude":"32.06485999844263","Dates":null,"Products":""},{"Type":"farmers market","ModifyDate":"Mar 20th, 2023","Image":"default-farmersmarket-4-3.jpg","ListingID":"309545","Name":"Forsyth Farmers Market","Description":null,"ContactName":null,"ContactEmail":null,"ContactPhone":"478-994-7014","Website":"https:\/\/www.ugaextension.com\/monroe","Facebook":null,"Twitter":null,"Instagram":null,"Pinterest":null,"Youtube":null,"Blog":null,"Address":"78 N Jackson St. Forsyth, GA 31029","State":"Georgia","City":"Forsyth","Street":"78 N Jackson St.","Zip":"31029","Longitude":"-83.93939188808922","Latitude":"33.03607743562117","Dates":null,"Products":""},{"Type":"farmers market","ModifyDate":"Mar 20th, 2023","Image":"default-farmersmarket-4-3.jpg","ListingID":"309546","Name":"Forsyth Park Farmers Market","Description":null,"ContactName":null,"ContactEmail":null,"ContactPhone":"912-443-5355","Website":"https:\/\/www.forsythfarmersmarket.org\/","Facebook":null,"Twitter":null,"Instagram":null,"Pinterest":null,"Youtube":null,"Blog":null,"Address":"700 Whitaker Street, Forsyth Park Savannah, GA 31401","State":"Georgia","City":"Savannah","Street":"700 Whitaker Street","Zip":"31401","Longitude":"-81.09703576249383","Latitude":"32.06842818494427","Dates":null,"Products":""},{"Type":"farmers market","ModifyDate":"Mar 20th, 2023","Image":"default-farmersmarket-4-3.jpg","ListingID":"309547","Name":"Freedom Farmers' Market at the Carter","Description":null,"ContactName":null,"ContactEmail":"freedomfarmersmkt@gmail.com","ContactPhone":null,"Website":"http:\/\/www.freedomfarmersmkt.com\/","Facebook":"https:\/\/www.facebook.com\/freedomfarmersmkt\/","Twitter":null,"Instagram":null,"Pinterest":null,"Youtube":null,"Blog":null,"Address":"453 Freedom Pkwy. NE, Atlanta, GA, 30307","State":"Georgia","City":"Atlanta","Street":"453 Freedom Pkwy. NE","Zip":"30307","Longitude":"-84.35835084804965","Latitude":"33.766866020069955","Dates":null,"Products":""},{"Type":"farmers market","ModifyDate":"Mar 20th, 2023","Image":"default-farmersmarket-4-3.jpg","ListingID":"309548","Name":"Fresh off the Farm Farmer's Market","Description":null,"ContactName":null,"ContactEmail":null,"ContactPhone":"202-810-3276","Website":null,"Facebook":null,"Twitter":null,"Instagram":null,"Pinterest":null,"Youtube":null,"Blog":null,"Address":"1558 S. Coastal Hwy Midway, GA 31320","State":"Georgia","City":"MIDWAY","Street":"1558 S COASTAL HWY","Zip":"31320","Longitude":"-81.44525774185864","Latitude":"31.773956328264156","Dates":null,"Products":""},{"Type":"farmers market","ModifyDate":"Mar 20th, 2023","Image":"default-farmersmarket-4-3.jpg","ListingID":"309549","Name":"Fresh South Market","Description":null,"ContactName":null,"ContactEmail":null,"ContactPhone":"404-401-4636","Website":"http:\/\/freshsouthmarket.org","Facebook":null,"Twitter":null,"Instagram":null,"Pinterest":null,"Youtube":null,"Blog":null,"Address":"100 North Peachtree Parkway Peachtree City, GA 30269","State":"Georgia","City":"PEACHTREE CITY","Street":"100 N PEACHTREE PKWY","Zip":"30269","Longitude":"-84.56892674927711","Latitude":"33.407809630774175","Dates":null,"Products":""},{"Type":"farmers market","ModifyDate":"Mar 20th, 2023","Image":"default-farmersmarket-4-3.jpg","ListingID":"309550","Name":"Gainesville Farmers Market","Description":null,"ContactName":null,"ContactEmail":"sthomas625@icloud.co","ContactPhone":"678-943-4442","Website":"http:\/\/www.hallfarmers.org\/","Facebook":"https:\/\/www.facebook.com\/hallfarmers","Twitter":null,"Instagram":null,"Pinterest":null,"Youtube":null,"Blog":null,"Address":"323 Broad Sreet SW, Gainesville, Georgia 30501","State":"Georgia","City":"Gainesville","Street":"323 Broad Sreet SW","Zip":"30501","Longitude":"-83.82350663823384","Latitude":"34.29954317629648","Dates":null,"Products":""},{"Type":"farmers market","ModifyDate":"Mar 20th, 2023","Image":"default-farmersmarket-4-3.jpg","ListingID":"309551","Name":"Gainesville Friday Market on the Square","Description":null,"ContactName":null,"ContactEmail":null,"ContactPhone":"770-531-6988","Website":"https:\/\/www.hallfarmersmarket.org\/","Facebook":null,"Twitter":null,"Instagram":null,"Pinterest":null,"Youtube":null,"Blog":null,"Address":"100 Main Street Gainesville, GA 30501","State":"Georgia","City":"Gainesville","Street":"100 Main Street","Zip":"30501","Longitude":"-83.82754246240857","Latitude":"34.29954029440823","Dates":null,"Products":""},{"Type":"farmers market","ModifyDate":"Mar 20th, 2023","Image":"default-farmersmarket-4-3.jpg","ListingID":"309552","Name":"Gertie Mae's Farmers' Market","Description":null,"ContactName":null,"ContactEmail":null,"ContactPhone":"706-754-0406","Website":null,"Facebook":null,"Twitter":null,"Instagram":null,"Pinterest":null,"Youtube":null,"Blog":null,"Address":"1500 Washington Street Clarkesville, GA 30523","State":"Georgia","City":"Clarkesville","Street":"1500 Washington Street","Zip":"30523","Longitude":"-83.52701898828475","Latitude":"34.616030992295606","Dates":null,"Products":""},{"Type":"farmers market","ModifyDate":"Mar 20th, 2023","Image":"default-farmersmarket-4-3.jpg","ListingID":"309553","Name":"GHA Farmers Market","Description":null,"ContactName":null,"ContactEmail":null,"ContactPhone":"706-949-2426","Website":"http:\/\/ghafarmersmarket.weebly.com","Facebook":null,"Twitter":null,"Instagram":null,"Pinterest":null,"Youtube":null,"Blog":null,"Address":"1587 Dee Kennedy Road Hoschton, GA 30548","State":"Georgia","City":"HOSCHTON","Street":"1587 DEE KENNEDY RD","Zip":"30548","Longitude":"-83.83648040920713","Latitude":"34.06491800465002","Dates":null,"Products":""},{"Type":"farmers market","ModifyDate":"Mar 20th, 2023","Image":"default-farmersmarket-4-3.jpg","ListingID":"309554","Name":"Gilliand's Heritage Alpacas Farmers Market","Description":null,"ContactName":null,"ContactEmail":"ghafarmersmarket@gmail.com","ContactPhone":"770-601-7376","Website":"http:\/\/ghafarmersmarket.weebly.com\/gha-locally-grown.html","Facebook":null,"Twitter":null,"Instagram":null,"Pinterest":null,"Youtube":null,"Blog":null,"Address":"1587 Dee Kennedy Road., Hoschton, Georgia 30548","State":"Georgia","City":"Hoschton","Street":"1587 Dee Kennedy Road.","Zip":"30548","Longitude":"-83.83648040920713","Latitude":"34.06491800465002","Dates":null,"Products":""},{"Type":"farmers market","ModifyDate":"Mar 20th, 2023","Image":"default-farmersmarket-4-3.jpg","ListingID":"309555","Name":"Gilmer County Farmers Market","Description":null,"ContactName":null,"ContactEmail":null,"ContactPhone":"706-636-5973","Website":"https:\/\/www.facebook.com\/pages\/Gilmer-Farmers-Market\/124803590897124","Facebook":null,"Twitter":null,"Instagram":null,"Pinterest":null,"Youtube":null,"Blog":null,"Address":"1 Broad St., At the courthouse parking lot, Ellijay, GA, 30540","State":"Georgia","City":"Ellijay","Street":"1 Broad St.","Zip":"30540","Longitude":"-84.48363774685117","Latitude":"34.695615057531896","Dates":null,"Products":""},{"Type":"farmers market","ModifyDate":"Mar 20th, 2023","Image":"default-farmersmarket-4-3.jpg","ListingID":"309556","Name":"Green Market at Piedmont Park","Description":null,"ContactName":null,"ContactEmail":"market@piedontpark.org","ContactPhone":"404-876-4024","Website":"http:\/\/www.piedmontpark.org\/programs\/green_market.html","Facebook":null,"Twitter":null,"Instagram":null,"Pinterest":null,"Youtube":null,"Blog":null,"Address":"12th St. and Piedmont Ave., NE Park Entrance, Atlanta, GA, 30309","State":"Georgia","City":"Atlanta","Street":"12th St. and Piedmont Ave.","Zip":"30309","Longitude":"-84.37957002053949","Latitude":"33.78330999230188","Dates":null,"Products":""},{"Type":"farmers market","ModifyDate":"Mar 20th, 2023","Image":"default-farmersmarket-4-3.jpg","ListingID":"309557","Name":"Growers Market at the Curb","Description":null,"ContactName":null,"ContactEmail":null,"ContactPhone":"404-659-1665","Website":"http:\/\/TheCurbMarket.com","Facebook":"http:\/\/www.facebook.com\/thecurbmarket","Twitter":null,"Instagram":null,"Pinterest":null,"Youtube":null,"Blog":null,"Address":"209 Edgewood Avenue SE Atlanta, GA 30303 Paid parking (1 hr free with $5> purchase).","State":"Georgia","City":"ATLANTA","Street":"209 EDGEWOOD AVE SE","Zip":"30303","Longitude":"-84.38100218888012","Latitude":"33.754422039083714","Dates":null,"Products":""},{"Type":"farmers market","ModifyDate":"Mar 20th, 2023","Image":"default-farmersmarket-4-3.jpg","ListingID":"309558","Name":"Hall County Farmers Market","Description":null,"ContactName":null,"ContactEmail":"hallcountyfarmersmarket@gmail.com","ContactPhone":"404-379-7621","Website":"http:\/\/hallcountyfarmersmarket.org","Facebook":"https:\/\/www.facebook.com\/Hall.County.Farmers.Market","Twitter":null,"Instagram":null,"Pinterest":null,"Youtube":null,"Blog":null,"Address":"Hall County Farmers Market 734 E Crescent Dr, Gainesville, GA 30501","State":"Georgia","City":"Gainesville","Street":"734 E Crescent Dr","Zip":"30501","Longitude":"-83.79063998525527","Latitude":"34.314081982855726","Dates":null,"Products":""},{"Type":"farmers market","ModifyDate":"Mar 20th, 2023","Image":"default-farmersmarket-4-3.jpg","ListingID":"309559","Name":"Harmony Crossing Farmers' Market","Description":null,"ContactName":null,"ContactEmail":"dhoersten@vharmonycrossing.com","ContactPhone":"706-923-0190","Website":"http:\/\/www.vharmonycrossing.com\/farmers-market\/","Facebook":null,"Twitter":null,"Instagram":null,"Pinterest":null,"Youtube":null,"Blog":null,"Address":"112 Harmony Crossing, Eatonton, GA, 31024","State":"Georgia","City":"Eatonton","Street":"112 Harmony Crossing","Zip":"31024","Longitude":"-83.34219671070495","Latitude":"33.44070677689639","Dates":null,"Products":""},{"Type":"farmers market","ModifyDate":"Mar 20th, 2023","Image":"default-farmersmarket-4-3.jpg","ListingID":"309560","Name":"Harmony Park Farmers Market","Description":null,"ContactName":null,"ContactEmail":"nfo@vharmonycrossing.com","ContactPhone":"706-923-0190","Website":"https:\/\/www.vharmonycrossing.com\/farmersmarket","Facebook":"https:\/\/www.facebook.com\/HarmonyParkFarmersMarket","Twitter":null,"Instagram":null,"Pinterest":null,"Youtube":null,"Blog":null,"Address":"119 Harmony Crossing, Eatonton, Georgia 31024","State":"Georgia","City":"Eatonton","Street":"119 Harmony Crossing","Zip":"31024","Longitude":"-83.27577587945895","Latitude":"33.42835761718717","Dates":null,"Products":""},{"Type":"farmers market","ModifyDate":"Mar 20th, 2023","Image":"default-farmersmarket-4-3.jpg","ListingID":"309561","Name":"Harris Farmers Market","Description":null,"ContactName":null,"ContactEmail":null,"ContactPhone":"770-278-7373","Website":null,"Facebook":null,"Twitter":null,"Instagram":null,"Pinterest":null,"Youtube":null,"Blog":null,"Address":"1400 Parker Rd Conyers, GA 30084","State":"Georgia","City":"Conyers","Street":"1400 Parker Rd","Zip":"30084","Longitude":"-84.01913502440748","Latitude":"33.65252900107416","Dates":null,"Products":""},{"Type":"farmers market","ModifyDate":"Mar 20th, 2023","Image":"default-farmersmarket-4-3.jpg","ListingID":"309562","Name":"Hartwell Farmers Market","Description":null,"ContactName":null,"ContactEmail":null,"ContactPhone":"706-436-0332","Website":null,"Facebook":null,"Twitter":null,"Instagram":null,"Pinterest":null,"Youtube":null,"Blog":null,"Address":"500 East Howell Street Hartwell, GA 30643","State":"Georgia","City":"Hartwell","Street":"500 East Howell Street","Zip":"30643","Longitude":"-82.92858949568378","Latitude":"34.35177543908415","Dates":null,"Products":""},{"Type":"farmers market","ModifyDate":"Mar 20th, 2023","Image":"default-farmersmarket-4-3.jpg","ListingID":"309563","Name":"Harvest Moon Market, LLC","Description":null,"ContactName":null,"ContactEmail":null,"ContactPhone":"229-246-6750","Website":"http:\/\/www.harvestmoonmarketllc.com","Facebook":"http:\/\/www.facebook.com\/harvestmoonmarket?ref=hl","Twitter":null,"Instagram":null,"Pinterest":null,"Youtube":null,"Blog":null,"Address":"3103 Thomasville Rd, Bainbridge, GA 39817","State":"Georgia","City":"BAINBRIDGE","Street":"3103 THOMASVILLE RD","Zip":"39819","Longitude":"-84.45532145956945","Latitude":"30.880683248032287","Dates":null,"Products":""},{"Type":"farmers market","ModifyDate":"Mar 20th, 2023","Image":"default-farmersmarket-4-3.jpg","ListingID":"309564","Name":"Hawkinsville Downtown Community Market","Description":null,"ContactName":null,"ContactEmail":null,"ContactPhone":"478-783-9294","Website":null,"Facebook":null,"Twitter":null,"Instagram":null,"Pinterest":null,"Youtube":null,"Blog":null,"Address":"105 North Lumpkin Street Hawkinsville, GA 31036","State":"Georgia","City":"Hawkinsville","Street":"105 North Lumpkin Street","Zip":"31036","Longitude":"-83.46912081977159","Latitude":"32.287818882479236","Dates":null,"Products":""},{"Type":"farmers market","ModifyDate":"Mar 20th, 2023","Image":"default-farmersmarket-4-3.jpg","ListingID":"309565","Name":"Hinesville Farmers Market","Description":null,"ContactName":null,"ContactEmail":"nstreet@hinesvilledowntown.com","ContactPhone":"912-877-4382","Website":null,"Facebook":"https:\/\/www.facebook.com\/hinesvillefarmersmarket\/","Twitter":null,"Instagram":null,"Pinterest":null,"Youtube":null,"Blog":null,"Address":"Commerce Street, Hinesville, Georgia 31313","State":"Georgia","City":"Hinesville","Street":"Commerce Street","Zip":"31313","Longitude":"-81.59512430983975","Latitude":"31.848750894157238","Dates":null,"Products":""},{"Type":"farmers market","ModifyDate":"Mar 20th, 2023","Image":"default-farmersmarket-4-3.jpg","ListingID":"309566","Name":"Historic Downtown Gainesville Market","Description":null,"ContactName":null,"ContactEmail":"steve@hallfarmers.org","ContactPhone":"678-943-4442","Website":"http:\/\/www.hallfarmers.org\/","Facebook":"https:\/\/www.facebook.com\/hallfarmers","Twitter":null,"Instagram":null,"Pinterest":null,"Youtube":null,"Blog":null,"Address":"Main St. and Spring St., Gainesville, GA, 30501","State":"Georgia","City":"Gainesville","Street":"Main St. and Spring St.","Zip":"30501","Longitude":"-83.82710998124774","Latitude":"34.29883002038059","Dates":null,"Products":""},{"Type":"farmers market","ModifyDate":"Mar 20th, 2023","Image":"default-farmersmarket-4-3.jpg","ListingID":"309567","Name":"Hunker Downs Fresh Market","Description":null,"ContactName":null,"ContactEmail":null,"ContactPhone":"706-817-5004","Website":null,"Facebook":null,"Twitter":null,"Instagram":null,"Pinterest":null,"Youtube":null,"Blog":null,"Address":"146 Academy St. Madison, GA 30650","State":"Georgia","City":"Madison","Street":"146 Academy St.","Zip":"30650","Longitude":"-83.46949933818667","Latitude":"33.59625799791414","Dates":null,"Products":""},{"Type":"farmers market","ModifyDate":"Mar 20th, 2023","Image":"default-farmersmarket-4-3.jpg","ListingID":"309568","Name":"I C Farmers Market, Llc","Description":null,"ContactName":null,"ContactEmail":"icfarmersmarket@yahoo.com","ContactPhone":"478-256-9216","Website":"http:\/\/www.internationalcityfarmersmarket.com","Facebook":"http:\/\/InternationalCityFarmersMarket","Twitter":null,"Instagram":null,"Pinterest":null,"Youtube":null,"Blog":null,"Address":"Corner Of Maple St And Watson Blvd @ Perkins Field 1412 A Russell Pkwy 235, Warner Robins, GA 31088","State":"Georgia","City":"Warner Robins","Street":"1412 A Russell Pkwy","Zip":"31088","Longitude":"-83.65248501470894","Latitude":"32.59438798883669","Dates":null,"Products":""},{"Type":"farmers market","ModifyDate":"Mar 20th, 2023","Image":"default-farmersmarket-4-3.jpg","ListingID":"309569","Name":"Jefferson Farmers Market","Description":null,"ContactName":null,"ContactEmail":null,"ContactPhone":"706-367-5714","Website":"http:\/\/www.jeffersonfarmersmarket.com","Facebook":"http:\/\/www.facebook.com\/Jefferson-Farmers-Market-1731029137110076\/","Twitter":null,"Instagram":null,"Pinterest":null,"Youtube":null,"Blog":null,"Address":"28 College Street Jefferson, GA 30549 Located in the public parking lot at the intersection of Sycamore and Gordon Street on the west side of Jefferson's Downtown Public Square.","State":"Georgia","City":"JEFFERSON","Street":"28 COLLEGE ST","Zip":"30549","Longitude":"-83.5737488158835","Latitude":"34.11894984068215","Dates":null,"Products":""},{"Type":"farmers market","ModifyDate":"Mar 20th, 2023","Image":"default-farmersmarket-4-3.jpg","ListingID":"309570","Name":"Jersey Jodi's Farmers Market","Description":null,"ContactName":null,"ContactEmail":null,"ContactPhone":null,"Website":"http:\/\/jerseyjodimarket.com","Facebook":null,"Twitter":null,"Instagram":null,"Pinterest":null,"Youtube":null,"Blog":null,"Address":"2116 Adams Dr. NW Atlanta, GA 30318","State":"Georgia","City":"ATLANTA","Street":"2116 ADAMS DR NW","Zip":"30318","Longitude":"-84.45478202806585","Latitude":"33.81311233616355","Dates":null,"Products":""},{"Type":"farmers market","ModifyDate":"Mar 20th, 2023","Image":"default-farmersmarket-4-3.jpg","ListingID":"309571","Name":"Jesup Farmers Market","Description":null,"ContactName":null,"ContactEmail":null,"ContactPhone":"404-656-3680","Website":null,"Facebook":null,"Twitter":null,"Instagram":null,"Pinterest":null,"Youtube":null,"Blog":null,"Address":"U.S. Highway 301 Jesup, GA 31545","State":"Georgia","City":"Jesup","Street":"U.S. Highway 301","Zip":"31545","Longitude":"-81.8570024703078","Latitude":"31.645074747203346","Dates":null,"Products":""},{"Type":"farmers market","ModifyDate":"Mar 20th, 2023","Image":"default-farmersmarket-4-3.jpg","ListingID":"309572","Name":"Jonesboro Farmers Market","Description":null,"ContactName":null,"ContactEmail":"psebo@jonesboroga.com","ContactPhone":"770-478-3800","Website":null,"Facebook":"https:\/\/www.facebook.com\/pg\/jonesborofarmersmarket\/","Twitter":null,"Instagram":null,"Pinterest":null,"Youtube":null,"Blog":null,"Address":"155 Lee Street, Jonesboro, Georgia 30236","State":"Georgia","City":"Jonesboro","Street":"155 Lee Street","Zip":"30236","Longitude":"-84.35764640947687","Latitude":"33.52700040377472","Dates":null,"Products":""},{"Type":"farmers market","ModifyDate":"Mar 20th, 2023","Image":"default-farmersmarket-4-3.jpg","ListingID":"309573","Name":"Kennesaw Farmers Market","Description":null,"ContactName":null,"ContactEmail":null,"ContactPhone":"770-424-1919","Website":null,"Facebook":"http:\/\/www.facebook.com\/kennesawfarmersmarket","Twitter":null,"Instagram":null,"Pinterest":null,"Youtube":null,"Blog":null,"Address":"2785 Watts Drive Kennesaw, GA 30144 The market is held in the city's new parking lot on Watts Drive, near the entrance to Adams Park, just west of the roundabout. Plenty of free parking is available","State":"Georgia","City":"KENNESAW","Street":"2785 WATTS DR","Zip":"30144","Longitude":"-84.62083240433866","Latitude":"34.02057360527674","Dates":null,"Products":""},{"Type":"farmers market","ModifyDate":"Mar 20th, 2023","Image":"default-farmersmarket-4-3.jpg","ListingID":"309574","Name":"Lavonia Farmers Market","Description":null,"ContactName":null,"ContactEmail":null,"ContactPhone":"706-356-8202","Website":null,"Facebook":null,"Twitter":null,"Instagram":null,"Pinterest":null,"Youtube":null,"Blog":null,"Address":"1269 E. Main Street Lavonia, GA 30553","State":"Georgia","City":"Lavonia","Street":"1269 E. Main Street","Zip":"30553","Longitude":"-83.1066567808627","Latitude":"34.437691842617625","Dates":null,"Products":""},{"Type":"farmers market","ModifyDate":"Mar 20th, 2023","Image":"default-farmersmarket-4-3.jpg","ListingID":"309575","Name":"Lawrenceville Farmers' Market","Description":null,"ContactName":null,"ContactEmail":null,"ContactPhone":"404-395-4215","Website":"http:\/\/www.lawrencevillefarmersmarket.com\/","Facebook":null,"Twitter":null,"Instagram":null,"Pinterest":null,"Youtube":null,"Blog":null,"Address":"153 E. Crogan St. , Lawrenceville, GA, 30046","State":"Georgia","City":"Lawrenceville","Street":"153 E. Crogan St.","Zip":"30046","Longitude":"-83.97430807871503","Latitude":"33.95871847170869","Dates":null,"Products":""},{"Type":"farmers market","ModifyDate":"Mar 20th, 2023","Image":"default-farmersmarket-4-3.jpg","ListingID":"309576","Name":"Lenny's Farmers Market","Description":null,"ContactName":null,"ContactEmail":"qwillis@americusga.gov","ContactPhone":"229-924-4411","Website":"https:\/\/www.downtownamericus.com\/farmers-market\/","Facebook":"https:\/\/www.facebook.com\/Lennys-Farmers-Market-232998753421660\/","Twitter":null,"Instagram":null,"Pinterest":null,"Youtube":null,"Blog":null,"Address":"110 N. Hampton Street., Americus, Georgia 31709","State":"Georgia","City":"Americus","Street":"110 N. Hampton Street.","Zip":"31709","Longitude":"-84.236257542296","Latitude":"32.0722723756917","Dates":null,"Products":""},{"Type":"farmers market","ModifyDate":"Mar 20th, 2023","Image":"default-farmersmarket-4-3.jpg","ListingID":"309577","Name":"Lenny's Market","Description":null,"ContactName":null,"ContactEmail":null,"ContactPhone":"229-924-4411","Website":"https:\/\/www.cityofamericus.net\/main_street\/downtown_happenings.htm","Facebook":null,"Twitter":null,"Instagram":null,"Pinterest":null,"Youtube":null,"Blog":null,"Address":"101 North Hampton Street Americus, GA 31709","State":"Georgia","City":"Americus","Street":"101 North Hampton Street","Zip":"31709","Longitude":"-84.23627524659604","Latitude":"32.07197981581753","Dates":null,"Products":""},{"Type":"farmers market","ModifyDate":"Mar 20th, 2023","Image":"default-farmersmarket-4-3.jpg","ListingID":"309578","Name":"Little Farmers Market","Description":null,"ContactName":null,"ContactEmail":null,"ContactPhone":"706-482-2707","Website":null,"Facebook":"https:\/\/www.facebook.com\/DahlonegaFarmersMarket\/","Twitter":null,"Instagram":null,"Pinterest":null,"Youtube":null,"Blog":null,"Address":"4 Camper Park Rd Dahlonega, GA 30533","State":"Georgia","City":"Dahlonega","Street":"4 Camper Park Rd","Zip":"30533","Longitude":"-83.96957010032443","Latitude":"34.56319090948414","Dates":null,"Products":""},{"Type":"farmers market","ModifyDate":"Mar 20th, 2023","Image":"default-farmersmarket-4-3.jpg","ListingID":"309579","Name":"Locust Grove Farmer's Market","Description":null,"ContactName":null,"ContactEmail":null,"ContactPhone":"770-692-2320","Website":null,"Facebook":"http:\/\/www.facebook.com\/events\/1082476558480344\/","Twitter":null,"Instagram":null,"Pinterest":null,"Youtube":null,"Blog":null,"Address":"3849 Hwy 42 Locust Grove, GA 30248 Come get your fresh local fruits, veggies, and more every Saturday Morning in Downtown Locust Grove! Parking is available next to the Train Watching Platform, where","State":"Georgia","City":"LOCUST GROVE","Street":"3849 STATE RTE 42","Zip":"30248","Longitude":"-84.10831622718162","Latitude":"33.34435857175338","Dates":null,"Products":""},{"Type":"farmers market","ModifyDate":"Mar 20th, 2023","Image":"default-farmersmarket-4-3.jpg","ListingID":"309580","Name":"Macon State Farmers Market","Description":null,"ContactName":null,"ContactEmail":"timothy.vanvalkenburg@agr.georgia.gov","ContactPhone":"478-752-1097","Website":"https:\/\/agr.georgia.gov\/","Facebook":null,"Twitter":null,"Instagram":null,"Pinterest":null,"Youtube":null,"Blog":null,"Address":"2055 Eisenhower Parkway Macon, GA 31206","State":"Georgia","City":"Macon","Street":"2055 Eisenhower Parkway","Zip":"31206","Longitude":"-83.68392291368943","Latitude":"32.815242555383506","Dates":null,"Products":""},{"Type":"farmers market","ModifyDate":"Mar 20th, 2023","Image":"default-farmersmarket-4-3.jpg","ListingID":"309581","Name":"Main Street Farmers Market","Description":null,"ContactName":null,"ContactEmail":null,"ContactPhone":"912-764-7227","Website":"http:\/\/www.mainstreetstatesborofarmersmarket.com","Facebook":null,"Twitter":null,"Instagram":null,"Pinterest":null,"Youtube":null,"Blog":null,"Address":"10 Siebald Street Statesboro, GA 30458","State":"Georgia","City":"STATESBORO","Street":"10 SIEBALD ST","Zip":"30458","Longitude":"-81.78271149767514","Latitude":"32.449021707480654","Dates":null,"Products":""},{"Type":"farmers market","ModifyDate":"Mar 20th, 2023","Image":"default-farmersmarket-4-3.jpg","ListingID":"309582","Name":"Main Street Newnan's Market Day","Description":null,"ContactName":null,"ContactEmail":null,"ContactPhone":null,"Website":null,"Facebook":null,"Twitter":null,"Instagram":null,"Pinterest":null,"Youtube":null,"Blog":null,"Address":"1 LaGrange Street Newnan, GA 30263","State":"Georgia","City":"NEWNAN","Street":"1 LAGRANGE ST","Zip":"30263","Longitude":"-84.80052229345269","Latitude":"33.37440497945175","Dates":null,"Products":""},{"Type":"farmers market","ModifyDate":"Mar 20th, 2023","Image":"default-farmersmarket-4-3.jpg","ListingID":"309583","Name":"Marietta Square Farmers Market","Description":null,"ContactName":null,"ContactEmail":null,"ContactPhone":"770-499-9393","Website":"https:\/\/www.mariettasquarefarmersmarket.net\/","Facebook":null,"Twitter":null,"Instagram":null,"Pinterest":null,"Youtube":null,"Blog":null,"Address":"65 Church Street Marietta, GA 30060","State":"Georgia","City":"Marietta","Street":"65 Church Street","Zip":"30060","Longitude":"-84.55018773674082","Latitude":"33.95439328680331","Dates":null,"Products":""},{"Type":"farmers market","ModifyDate":"Mar 20th, 2023","Image":"default-farmersmarket-4-3.jpg","ListingID":"309584","Name":"Market on Madison","Description":null,"ContactName":null,"ContactEmail":null,"ContactPhone":"478-272-2560","Website":"http:\/\/www.marketonmadison.com","Facebook":"http:\/\/www.facebook.com\/marketonmadison","Twitter":null,"Instagram":null,"Pinterest":null,"Youtube":null,"Blog":null,"Address":"314 W. Madison Street Dublin, GA 31021 Free public parking on site","State":"Georgia","City":"DUBLIN","Street":"314 MADISON ST","Zip":"31021","Longitude":"-82.90553037263676","Latitude":"32.53828022258617","Dates":null,"Products":""},{"Type":"farmers market","ModifyDate":"Mar 20th, 2023","Image":"default-farmersmarket-4-3.jpg","ListingID":"309585","Name":"Market on Main","Description":null,"ContactName":null,"ContactEmail":null,"ContactPhone":"678-907-2912","Website":null,"Facebook":null,"Twitter":null,"Instagram":null,"Pinterest":null,"Youtube":null,"Blog":null,"Address":"8420 Main Street Woodstock, GA 30188","State":"Georgia","City":"Woodstock","Street":"8420 Main Street","Zip":"30188","Longitude":"-84.51864964799677","Latitude":"34.10323029993009","Dates":null,"Products":""},{"Type":"farmers market","ModifyDate":"Mar 20th, 2023","Image":"default-farmersmarket-4-3.jpg","ListingID":"309586","Name":"Market on the Green","Description":null,"ContactName":null,"ContactEmail":null,"ContactPhone":"760-580-7186","Website":null,"Facebook":"http:\/\/www.facebook.com\/marketonthegreen","Twitter":null,"Instagram":null,"Pinterest":null,"Youtube":null,"Blog":null,"Address":"118 Lakeshore Dr. Roswell, GA 30075","State":"Georgia","City":"ROSWELL","Street":"118 S LAKESHORE DR","Zip":"30075","Longitude":"-84.414535618829","Latitude":"34.0835789971775","Dates":null,"Products":""},{"Type":"farmers market","ModifyDate":"Mar 20th, 2023","Image":"default-farmersmarket-4-3.jpg","ListingID":"309587","Name":"Market on the Square","Description":null,"ContactName":null,"ContactEmail":null,"ContactPhone":"770-412-4786","Website":"https:\/\/www.pikecountyag.com\/market.html","Facebook":null,"Twitter":null,"Instagram":null,"Pinterest":null,"Youtube":null,"Blog":null,"Address":"110 Jackson Street Zebulon, GA 30295","State":"Georgia","City":"Zebulon","Street":"110 Jackson Street","Zip":"30295","Longitude":"-84.3366454980696","Latitude":"33.10390685192844","Dates":null,"Products":""},{"Type":"farmers market","ModifyDate":"Mar 20th, 2023","Image":"default-farmersmarket-4-3.jpg","ListingID":"309588","Name":"Metro Market Atlanta","Description":null,"ContactName":null,"ContactEmail":null,"ContactPhone":"404-372-1390","Website":"https:\/\/www.metromarketatlanta.com\/","Facebook":null,"Twitter":null,"Instagram":null,"Pinterest":null,"Youtube":null,"Blog":null,"Address":"2133 Piedmont Rd Atlanta, GA 30324","State":"Georgia","City":"Atlanta","Street":"2133 Piedmont Rd","Zip":"30324","Longitude":"-84.36657160168446","Latitude":"33.814862869082575","Dates":null,"Products":""},{"Type":"farmers market","ModifyDate":"Mar 20th, 2023","Image":"default-farmersmarket-4-3.jpg","ListingID":"309589","Name":"Midland Community Farmers Market","Description":null,"ContactName":null,"ContactEmail":null,"ContactPhone":null,"Website":null,"Facebook":"http:\/\/www.facebook.com\/Midland-Community-Farmers-Market\/584202175008593","Twitter":null,"Instagram":null,"Pinterest":null,"Youtube":null,"Blog":null,"Address":"9110 Warm Springs Road Midland, GA 31820","State":"Georgia","City":"MIDLAND","Street":"9110 WARM SPRINGS RD","Zip":"31820","Longitude":"-84.83003025215757","Latitude":"32.57620701783292","Dates":null,"Products":""},{"Type":"farmers market","ModifyDate":"Mar 20th, 2023","Image":"default-farmersmarket-4-3.jpg","ListingID":"309590","Name":"Milledgeville Marketplace Farmers' Market","Description":null,"ContactName":null,"ContactEmail":"mainstreetdesk@milledgevillega.us","ContactPhone":"478-414-4014","Website":"http:\/\/www.milledgevillemainstreet.com\/","Facebook":"https:\/\/www.facebook.com\/MilledgevilleMarketplaceFarmersMarket","Twitter":null,"Instagram":null,"Pinterest":null,"Youtube":null,"Blog":null,"Address":"222 E. Hancock St., Milledgeville, GA, 31061","State":"Georgia","City":"Milledgeville","Street":"222 E. Hancock St.","Zip":"31061","Longitude":"-83.22141399082068","Latitude":"33.082363986332204","Dates":null,"Products":""},{"Type":"farmers market","ModifyDate":"Mar 20th, 2023","Image":"default-farmersmarket-4-3.jpg","ListingID":"309591","Name":"Milton Farmers Market","Description":null,"ContactName":null,"ContactEmail":null,"ContactPhone":"770-653-0552","Website":"https:\/\/www.accessmilton.com\/","Facebook":null,"Twitter":null,"Instagram":null,"Pinterest":null,"Youtube":null,"Blog":null,"Address":"13005 Bethany Road Alpharetta, GA 30004","State":"Georgia","City":"Alpharetta","Street":"13005 Bethany Road","Zip":"30004","Longitude":"-84.32611868970206","Latitude":"34.098831818248165","Dates":null,"Products":""},{"Type":"farmers market","ModifyDate":"Mar 20th, 2023","Image":"default-farmersmarket-4-3.jpg","ListingID":"309592","Name":"Milton GA Farmers Market","Description":null,"ContactName":null,"ContactEmail":null,"ContactPhone":"770-653-0552","Website":"http:\/\/www.accessmilton.com","Facebook":null,"Twitter":null,"Instagram":null,"Pinterest":null,"Youtube":null,"Blog":null,"Address":"13005 Bethany Road Milton, GA 30004","State":"Georgia","City":"MILTON","Street":"13005 BETHANY RD","Zip":"30009","Longitude":"-84.32611868970206","Latitude":"34.098831818248165","Dates":null,"Products":""},{"Type":"farmers market","ModifyDate":"Mar 20th, 2023","Image":"default-farmersmarket-4-3.jpg","ListingID":"309593","Name":"Monroe Farmers Market","Description":null,"ContactName":null,"ContactEmail":null,"ContactPhone":"770-722-9145","Website":"https:\/\/www.monroedowntown.com\/","Facebook":"https:\/\/www.facebook.com\/monroegafarmersmarket","Twitter":null,"Instagram":null,"Pinterest":null,"Youtube":null,"Blog":null,"Address":"PO Box 581 Monroe, GA 30655","State":"Georgia","City":"Monroe","Street":"PO Box 581","Zip":"30655","Longitude":"-83.70967499999995","Latitude":"33.79269500000004","Dates":null,"Products":""},{"Type":"farmers market","ModifyDate":"Mar 20th, 2023","Image":"default-farmersmarket-4-3.jpg","ListingID":"309594","Name":"Monticello Market Festival on the Square","Description":null,"ContactName":null,"ContactEmail":null,"ContactPhone":"706-468-8683","Website":null,"Facebook":null,"Twitter":null,"Instagram":null,"Pinterest":null,"Youtube":null,"Blog":null,"Address":"145 East Washington St. Monticello, GA 31064","State":"Georgia","City":"Monticello","Street":"145 East Washington St.","Zip":"31064","Longitude":"-83.68288198657469","Latitude":"33.30379199856138","Dates":null,"Products":""},{"Type":"farmers market","ModifyDate":"Mar 20th, 2023","Image":"default-farmersmarket-4-3.jpg","ListingID":"309595","Name":"Mountain Fresh Market","Description":null,"ContactName":null,"ContactEmail":null,"ContactPhone":null,"Website":"http:\/\/www.livingwellbydesign.com","Facebook":null,"Twitter":null,"Instagram":null,"Pinterest":null,"Youtube":null,"Blog":null,"Address":"105 West Main Street Blue Ridge, GA 30513","State":"Georgia","City":"BLUE RIDGE","Street":"105 E MAIN ST","Zip":"30513","Longitude":"-84.31799569656738","Latitude":"34.871682609027616","Dates":null,"Products":""},{"Type":"farmers market","ModifyDate":"Mar 20th, 2023","Image":"default-farmersmarket-4-3.jpg","ListingID":"309596","Name":"Municipal Market in Sweet Auburn","Description":null,"ContactName":null,"ContactEmail":"nager@thecurbmarket.com","ContactPhone":"404-584-7057","Website":"http:\/\/thecurbmarket.com\/","Facebook":"https:\/\/www.facebook.com\/thecurbmarket\/","Twitter":null,"Instagram":null,"Pinterest":null,"Youtube":null,"Blog":null,"Address":"209 Edgewood Avenue SE, Atlanta, Georgia 30303","State":"Georgia","City":"Atlanta","Street":"209 Edgewood Avenue SE","Zip":"30303","Longitude":"-84.38100218888012","Latitude":"33.754422039083714","Dates":null,"Products":""},{"Type":"farmers market","ModifyDate":"Mar 20th, 2023","Image":"default-farmersmarket-4-3.jpg","ListingID":"309597","Name":"Nam Dae Mun Farmers Market at Cobb International","Description":null,"ContactName":null,"ContactEmail":null,"ContactPhone":"770-407-6360","Website":"https:\/\/www.ndmmarket.com","Facebook":"https:\/\/www.facebook.com\/ndmmarket\/","Twitter":null,"Instagram":null,"Pinterest":null,"Youtube":null,"Blog":null,"Address":"2350 Spring Road., Smyrna, Georgia 30080","State":"Georgia","City":"Smyrna","Street":"2350 Spring Road.","Zip":"30080","Longitude":"-84.48520815493983","Latitude":"33.883310159645944","Dates":null,"Products":""},{"Type":"farmers market","ModifyDate":"Mar 20th, 2023","Image":"default-farmersmarket-4-3.jpg","ListingID":"309598","Name":"Norcross Community Market","Description":null,"ContactName":null,"ContactEmail":null,"ContactPhone":"678-667-0015","Website":"http:\/\/www.norcrosscommunitymarket.com","Facebook":"http:\/\/www.facebook.com\/norcrosscommunitymarket\/","Twitter":null,"Instagram":null,"Pinterest":null,"Youtube":null,"Blog":null,"Address":"5 College St Norcross, GA 30071 Sign up for newsletter at https:\/\/norcrosscommunitymarket.us13.list-manage.com\/subscribe?u=a7e330014ec0cab8f46476371&id=fe53772bc0 Follow us on Facebook or our website","State":"Georgia","City":"NORCROSS","Street":"5 COLLEGE ST NW","Zip":"30071","Longitude":"-84.21212975326479","Latitude":"33.941418952806636","Dates":null,"Products":""},{"Type":"farmers market","ModifyDate":"Mar 20th, 2023","Image":"default-farmersmarket-4-3.jpg","ListingID":"309599","Name":"North Georgia Farmers & Flea Market","Description":null,"ContactName":null,"ContactEmail":null,"ContactPhone":"706-278-6369","Website":null,"Facebook":null,"Twitter":null,"Instagram":null,"Pinterest":null,"Youtube":null,"Blog":null,"Address":"310 Legion Drive Dalton, GA 30721","State":"Georgia","City":"Dalton","Street":"310 Legion Drive","Zip":"30721","Longitude":"-84.96011716961245","Latitude":"34.79029132888477","Dates":null,"Products":""},{"Type":"farmers market","ModifyDate":"Mar 20th, 2023","Image":"default-farmersmarket-4-3.jpg","ListingID":"309600","Name":"Northside Farmers' Market","Description":null,"ContactName":null,"ContactEmail":null,"ContactPhone":"404-229-4302","Website":"http:\/\/northsidefarmersmarket.com","Facebook":null,"Twitter":null,"Instagram":null,"Pinterest":null,"Youtube":null,"Blog":null,"Address":"3100 Northside Drive Atlanta, GA 30305","State":"Georgia","City":"ATLANTA","Street":"3100 NORTHSIDE DR NW","Zip":"30305","Longitude":"-84.40830507875864","Latitude":"33.8407614186945","Dates":null,"Products":""},{"Type":"farmers market","ModifyDate":"Mar 20th, 2023","Image":"default-farmersmarket-4-3.jpg","ListingID":"309601","Name":"Oconee Farmers Market","Description":null,"ContactName":null,"ContactEmail":"coneefm@yahoo.com","ContactPhone":"770-769-2704","Website":"http:\/\/www.oconeeFarmersMarket.net","Facebook":"https:\/\/www.facebook.com\/TheOconeeFarmersMarket\/","Twitter":null,"Instagram":null,"Pinterest":null,"Youtube":null,"Blog":null,"Address":"23 North Main Street, Watkinsville, Georgia 30677","State":"Georgia","City":"Watkinsville","Street":"23 North Main Street","Zip":"30677","Longitude":"-83.41140729140221","Latitude":"33.86724790841044","Dates":null,"Products":""},{"Type":"farmers market","ModifyDate":"Mar 20th, 2023","Image":"default-farmersmarket-4-3.jpg","ListingID":"309602","Name":"Old Fourth Ward Farmers' Market","Description":null,"ContactName":null,"ContactEmail":null,"ContactPhone":"678-685-1696","Website":"http:\/\/www.FourthFarmers.com","Facebook":null,"Twitter":null,"Instagram":null,"Pinterest":null,"Youtube":null,"Blog":null,"Address":"621 North Avenue NE Atlanta, GA 30306 We are located behind Ponce City Market, on North Avenue, between Glen Iris Drive and Old Fourth Ward Park.","State":"Georgia","City":"ATLANTA","Street":"621 NORTH AVE NE","Zip":"30308","Longitude":"-84.3670035332271","Latitude":"33.77112372168247","Dates":null,"Products":""},{"Type":"farmers market","ModifyDate":"Mar 20th, 2023","Image":"default-farmersmarket-4-3.jpg","ListingID":"309603","Name":"Oxford Farmers Market","Description":null,"ContactName":null,"ContactEmail":null,"ContactPhone":"770-786-7004","Website":"http:\/\/www.oxfordgeorgia.org","Facebook":"http:\/\/www.facebook.com\/City-of-Oxford-Georgia-340108629467104\/","Twitter":null,"Instagram":null,"Pinterest":null,"Youtube":null,"Blog":null,"Address":"915 Emory Street Oxford, GA 30054 The Oxford Farmers Market is located on the grass field across the street from Oxford City Hall located at 110 West Clark St. Contact City Hall for more information.","State":"Georgia","City":"OXFORD","Street":"915 EMORY ST","Zip":"30054","Longitude":"-83.86748094012532","Latitude":"33.622375904203935","Dates":null,"Products":""},{"Type":"farmers market","ModifyDate":"Mar 20th, 2023","Image":"default-farmersmarket-4-3.jpg","ListingID":"309604","Name":"Paper Mill Farmers Market","Description":null,"ContactName":null,"ContactEmail":null,"ContactPhone":"404-841-8002","Website":"https:\/\/www.papermillfarmersmarket.com\/index.html","Facebook":null,"Twitter":null,"Instagram":null,"Pinterest":null,"Youtube":null,"Blog":null,"Address":"255 Village Parkway, NE Marietta, GA 30067","State":"Georgia","City":"Marietta","Street":"255 Village Parkway, NE","Zip":"30067","Longitude":"-84.41319997627903","Latitude":"33.9507499914387","Dates":null,"Products":""},{"Type":"farmers market","ModifyDate":"Mar 20th, 2023","Image":"default-farmersmarket-4-3.jpg","ListingID":"309605","Name":"Paulding County Farm Bureau Farmers Market","Description":null,"ContactName":null,"ContactEmail":null,"ContactPhone":null,"Website":null,"Facebook":"http:\/\/www.facebook.com\/pages\/Paulding-County-Farm-Bureau-Farmers-Markets\/196057580432234","Twitter":null,"Instagram":null,"Pinterest":null,"Youtube":null,"Blog":null,"Address":"1297 Villa Rica Hwy Dallas, GA 30157","State":"Georgia","City":"DALLAS","Street":"1297 VILLA RICA HWY","Zip":"30157","Longitude":"-84.835630670677","Latitude":"33.893271344798585","Dates":null,"Products":""},{"Type":"farmers market","ModifyDate":"Mar 20th, 2023","Image":"default-farmersmarket-4-3.jpg","ListingID":"309606","Name":"Peachtree City Farmers Market","Description":null,"ContactName":null,"ContactEmail":null,"ContactPhone":null,"Website":"http:\/\/www.ptcfarmersmarket.org","Facebook":"http:\/\/www.facebook.com\/PeachtreeCityFarmersMarket","Twitter":null,"Instagram":null,"Pinterest":null,"Youtube":null,"Blog":null,"Address":"215 Northlake Dr. Peachtree City, GA 30269","State":"Georgia","City":"PEACHTREE CITY","Street":"215 NORTHLAKE DR","Zip":"30269","Longitude":"-84.58429225070357","Latitude":"33.40422878458018","Dates":null,"Products":""},{"Type":"farmers market","ModifyDate":"Mar 20th, 2023","Image":"default-farmersmarket-4-3.jpg","ListingID":"309607","Name":"Peachtree Road Farmers Market","Description":null,"ContactName":null,"ContactEmail":null,"ContactPhone":"404-365-1105","Website":"http:\/\/www.peachtreeroadfarmersmarket.com\/","Facebook":"http:\/\/www.facebook.com\/PtreeFarmersMkt","Twitter":null,"Instagram":null,"Pinterest":null,"Youtube":null,"Blog":null,"Address":"2744 Peachtree Road N.W Atlanta, GA 30305 Free parking in the Cathedral of St. Philip lots. Enter from Peachtree Rd or Andrews Dr.","State":"Georgia","City":"ATLANTA","Street":"2744 PEACHTREE ST NW","Zip":"30305","Longitude":"-84.38750024498353","Latitude":"33.82890182113803","Dates":null,"Products":""},{"Type":"farmers market","ModifyDate":"Mar 20th, 2023","Image":"default-farmersmarket-4-3.jpg","ListingID":"309608","Name":"Pelham State Farmers Market","Description":null,"ContactName":null,"ContactEmail":"timothy.vanvalkenburg@agr.georgia.gov","ContactPhone":"229-377-4504","Website":"https:\/\/agr.georgia.gov\/","Facebook":null,"Twitter":null,"Instagram":null,"Pinterest":null,"Youtube":null,"Blog":null,"Address":"U.S. Hwy 19 North Pelham, GA 31779","State":"Georgia","City":"Pelham","Street":"U.S. Hwy 19 North","Zip":"31779","Longitude":"-84.1397573998364","Latitude":"31.121129376127314","Dates":null,"Products":""},{"Type":"farmers market","ModifyDate":"Mar 20th, 2023","Image":"default-farmersmarket-4-3.jpg","ListingID":"309609","Name":"Perry Farmers Market","Description":null,"ContactName":null,"ContactEmail":"jadaley65@gmail.com","ContactPhone":"478-255-7626","Website":"https:\/\/www.landtohand.org\/farmersmarkets\/","Facebook":"https:\/\/www.facebook.com\/cityofPerryFarmersMarket\/","Twitter":null,"Instagram":null,"Pinterest":null,"Youtube":null,"Blog":null,"Address":"901 Carroll Street, Perry, Georgia 31069","State":"Georgia","City":"Perry","Street":"901 Carroll Street","Zip":"31069","Longitude":"-83.73350220256927","Latitude":"32.45832631012287","Dates":null,"Products":""},{"Type":"farmers market","ModifyDate":"Mar 20th, 2023","Image":"default-farmersmarket-4-3.jpg","ListingID":"309610","Name":"Powder Springs Farmers Market","Description":null,"ContactName":null,"ContactEmail":"planner@cityofpowdersprings.org","ContactPhone":"678-567-1826","Website":"https:\/\/www.cityofpowdersprings.org\/index.aspx?NID=482","Facebook":null,"Twitter":null,"Instagram":null,"Pinterest":null,"Youtube":null,"Blog":null,"Address":"4451 Marietta Street Powder Springs, GA 30127","State":"Georgia","City":"Powder Springs","Street":"4451 Marietta Street","Zip":"30127","Longitude":"-84.68396000782212","Latitude":"33.85937999648013","Dates":null,"Products":""},{"Type":"farmers market","ModifyDate":"Mar 20th, 2023","Image":"default-farmersmarket-4-3.jpg","ListingID":"309611","Name":"PTC Farmers Market CSA","Description":null,"ContactName":null,"ContactEmail":null,"ContactPhone":"404-771-3171","Website":"http:\/\/www.ptcfarmersmarket.org","Facebook":"http:\/\/www.facebook.com\/PeachtreeCityFarmersMarket","Twitter":null,"Instagram":null,"Pinterest":null,"Youtube":null,"Blog":null,"Address":"215 North Lake Drive, Peachtree City GA 30269","State":"Georgia","City":"Peachtree City","Street":"215 North Lake Drive","Zip":"30269","Longitude":"-84.58429225070357","Latitude":"33.40422878458018","Dates":null,"Products":""},{"Type":"farmers market","ModifyDate":"Mar 20th, 2023","Image":"default-farmersmarket-4-3.jpg","ListingID":"309612","Name":"Richmond Hill Farmers' Market","Description":null,"ContactName":null,"ContactEmail":"jlee@richmondhill-ga.gov","ContactPhone":"912-572-5888","Website":"http:\/\/visitrichmondhill.com\/richmond-hill-farmers-market\/","Facebook":"https:\/\/www.facebook.com\/RichmondHillFarmersMarket","Twitter":null,"Instagram":null,"Pinterest":null,"Youtube":null,"Blog":null,"Address":"520 Cedar St., Richmond Hill, GA, 31324","State":"Georgia","City":"Richmond Hill","Street":"520 Cedar St.","Zip":"31324","Longitude":"-81.3056801807555","Latitude":"31.947739156972133","Dates":null,"Products":""},{"Type":"farmers market","ModifyDate":"Mar 20th, 2023","Image":"default-farmersmarket-4-3.jpg","ListingID":"309613","Name":"Ridge Ferry Park Farmers Market","Description":null,"ContactName":null,"ContactEmail":null,"ContactPhone":"706-291-0766","Website":"https:\/\/www.rfpra.com\/farmers-market","Facebook":"https:\/\/www.facebook.com\/rfprd\/","Twitter":null,"Instagram":null,"Pinterest":null,"Youtube":null,"Blog":null,"Address":"363 Riverside Parkway NE, Rome, Georgia 30161","State":"Georgia","City":"Rome","Street":"363 Riverside Parkway NE","Zip":"30161","Longitude":"-85.16879423871592","Latitude":"34.260076326002476","Dates":null,"Products":""},{"Type":"farmers market","ModifyDate":"Mar 20th, 2023","Image":"default-farmersmarket-4-3.jpg","ListingID":"309614","Name":"Ripe Thing Market","Description":null,"ContactName":null,"ContactEmail":null,"ContactPhone":"706-454-2155","Website":null,"Facebook":"https:\/\/www.facebook.com\/RipeThingMarket","Twitter":null,"Instagram":null,"Pinterest":null,"Youtube":null,"Blog":null,"Address":"112 West Broad st Greensboro, GA 30642","State":"Georgia","City":"Greensboro","Street":"112 West Broad st","Zip":"30642","Longitude":"-83.18390603325511","Latitude":"33.57578299640481","Dates":null,"Products":""},{"Type":"farmers market","ModifyDate":"Mar 20th, 2023","Image":"default-farmersmarket-4-3.jpg","ListingID":"309615","Name":"River Street Farmers Market","Description":null,"ContactName":null,"ContactEmail":null,"ContactPhone":"678-404-2139","Website":"http:\/\/www.riverstreetmarketellijay.com","Facebook":"http:\/\/www.facebook.com\/riverstreetfarmersmarketellijay\/","Twitter":null,"Instagram":null,"Pinterest":null,"Youtube":null,"Blog":null,"Address":"518 River Street Ellijay, GA 30540 Located in between highway 515 and downtown on River Street in Ellijay Ga. The covered location is ideal for the hot summer in Georgia!","State":"Georgia","City":"ELLIJAY","Street":"518 RIVER ST","Zip":"30540","Longitude":"-84.47768315687661","Latitude":"34.69139249888426","Dates":null,"Products":""},{"Type":"farmers market","ModifyDate":"Mar 20th, 2023","Image":"default-farmersmarket-4-3.jpg","ListingID":"309616","Name":"Rockdale Farmers Market","Description":null,"ContactName":null,"ContactEmail":null,"ContactPhone":"770-922-3566","Website":null,"Facebook":"http:\/\/www.facebook.com\/pages\/Rockdale-County-Farmers-Market\/126653210765243","Twitter":null,"Instagram":null,"Pinterest":null,"Youtube":null,"Blog":null,"Address":"1400 Parker Road Conyers, GA 30094","State":"Georgia","City":"CONYERS","Street":"1400 PARKER RD SE","Zip":"30094","Longitude":"-84.02037267668813","Latitude":"33.6533213654903","Dates":null,"Products":""},{"Type":"farmers market","ModifyDate":"Mar 20th, 2023","Image":"default-farmersmarket-4-3.jpg","ListingID":"309617","Name":"Rome Green Market","Description":null,"ContactName":null,"ContactEmail":null,"ContactPhone":"706-236-4405","Website":null,"Facebook":null,"Twitter":null,"Instagram":null,"Pinterest":null,"Youtube":null,"Blog":null,"Address":"601 Broad Street Rome, GA 30161","State":"Georgia","City":"Rome","Street":"601 Broad Street","Zip":"30161","Longitude":"-85.16893911461307","Latitude":"34.25634979289848","Dates":null,"Products":""},{"Type":"farmers market","ModifyDate":"Mar 20th, 2023","Image":"default-farmersmarket-4-3.jpg","ListingID":"309618","Name":"Sandersville Downtown Farmers' Market","Description":null,"ContactName":null,"ContactEmail":"sandersvillefarmersmarket@gmail.com","ContactPhone":"478-552-2322","Website":"http:\/\/www.sandersville.net\/DowntownFarmersMarket.cfm?lid=1203","Facebook":"https:\/\/www.facebook.com\/Sandersville-Farmers-Market-190410441108590","Twitter":null,"Instagram":null,"Pinterest":null,"Youtube":null,"Blog":null,"Address":"132 W. Haynes St., On the Courthouse Square, Sandersville, GA, 31082","State":"Georgia","City":"Sandersville","Street":"132 W. Haynes St.","Zip":"31082","Longitude":"-82.8114729089944","Latitude":"32.98292839624147","Dates":null,"Products":""},{"Type":"farmers market","ModifyDate":"Mar 20th, 2023","Image":"default-farmersmarket-4-3.jpg","ListingID":"309619","Name":"Sandy Springs Farmers Market","Description":null,"ContactName":null,"ContactEmail":null,"ContactPhone":"404-835-1473","Website":"http:\/\/www.sandyspringsfarmersmarket.com","Facebook":null,"Twitter":null,"Instagram":null,"Pinterest":null,"Youtube":null,"Blog":null,"Address":"235 Sandy Springs Circle Sandy Springs, GA 30328","State":"Georgia","City":"SANDY SPGS","Street":"235 SANDY SPRINGS CIR NE","Zip":"30328","Longitude":"-84.38269992831508","Latitude":"33.92461745866127","Dates":null,"Products":""},{"Type":"farmers market","ModifyDate":"Mar 20th, 2023","Image":"default-farmersmarket-4-3.jpg","ListingID":"309620","Name":"Sandy Springs Farmers Market","Description":null,"ContactName":null,"ContactEmail":null,"ContactPhone":"770-953-8200","Website":"https:\/\/www.sandyspringsfarmersmarket.com\/","Facebook":null,"Twitter":null,"Instagram":null,"Pinterest":null,"Youtube":null,"Blog":null,"Address":"5605 Glenridge Drive; Suite 775 Atlanta, GA 30342","State":"Georgia","City":"Atlanta","Street":"5605 Glenridge Drive","Zip":"30342","Longitude":"-84.36453026452527","Latitude":"33.907194480992","Dates":null,"Products":""},{"Type":"farmers market","ModifyDate":"Mar 20th, 2023","Image":"default-farmersmarket-4-3.jpg","ListingID":"309621","Name":"Saturday Farmers Market on Broad","Description":null,"ContactName":null,"ContactEmail":null,"ContactPhone":"706-722-7245","Website":null,"Facebook":null,"Twitter":null,"Instagram":null,"Pinterest":null,"Youtube":null,"Blog":null,"Address":"945 Broad Street Augusta, GA 30901","State":"Georgia","City":"Augusta","Street":"945 Broad Street","Zip":"30901","Longitude":"-81.96874999179268","Latitude":"33.476550917784834","Dates":null,"Products":""},{"Type":"farmers market","ModifyDate":"Mar 20th, 2023","Image":"default-farmersmarket-4-3.jpg","ListingID":"309622","Name":"Sewell Mill Community & Farmers Market","Description":null,"ContactName":null,"ContactEmail":null,"ContactPhone":"770-546-7299","Website":"http:\/\/www.thesewellmill.org","Facebook":"http:\/\/www.facebook.com\/sewellmillcommunity&farmersmarket","Twitter":null,"Instagram":null,"Pinterest":null,"Youtube":null,"Blog":null,"Address":"126 Hamilton Avenue Bremen, GA 30110","State":"Georgia","City":"BREMEN","Street":"126 HAMILTON AVE","Zip":"30110","Longitude":"-85.14602945214676","Latitude":"33.72159203720099","Dates":null,"Products":""},{"Type":"farmers market","ModifyDate":"Mar 20th, 2023","Image":"default-farmersmarket-4-3.jpg","ListingID":"309623","Name":"Smyrna Fresh Produce Market","Description":null,"ContactName":null,"ContactEmail":"webmaster@smyrnaga.gov","ContactPhone":"770-431-2863","Website":"https:\/\/www.smyrnacity.com\/","Facebook":null,"Twitter":null,"Instagram":null,"Pinterest":null,"Youtube":null,"Blog":null,"Address":"1275 Church Street SE Smyrna, GA 30080","State":"Georgia","City":"Smyrna","Street":"1275 Church Street SE","Zip":"30080","Longitude":"-84.51805659801381","Latitude":"33.88158363778526","Dates":null,"Products":""},{"Type":"farmers market","ModifyDate":"Mar 20th, 2023","Image":"default-farmersmarket-4-3.jpg","ListingID":"309624","Name":"Smyrna Outdoor Market","Description":null,"ContactName":null,"ContactEmail":"jliberman@smyrnaga.gov","ContactPhone":"770-431-2863","Website":"https:\/\/www.smyrnaga.gov\/Home\/Components\/Calendar\/Event\/15089\/953","Facebook":"https:\/\/www.facebook.com\/smyrnaoutdoormarket\/","Twitter":null,"Instagram":null,"Pinterest":null,"Youtube":null,"Blog":null,"Address":"200 Village Green Circle SE, Smyrna, Georgia 30080","State":"Georgia","City":"Smyrna","Street":"200 Village Green Circle SE","Zip":"30080","Longitude":"-84.51642874270702","Latitude":"33.884888949943274","Dates":null,"Products":""},{"Type":"farmers market","ModifyDate":"Mar 20th, 2023","Image":"default-farmersmarket-4-3.jpg","ListingID":"309625","Name":"Snellville Farmers Market","Description":null,"ContactName":null,"ContactEmail":null,"ContactPhone":null,"Website":"http:\/\/snellvillefarmersmarket.com","Facebook":null,"Twitter":null,"Instagram":null,"Pinterest":null,"Youtube":null,"Blog":null,"Address":"2342 Oak Road Snellville, GA 30078","State":"Georgia","City":"SNELLVILLE","Street":"2342 OAK RD SW","Zip":"30078","Longitude":"-84.01590811103321","Latitude":"33.85780686836768","Dates":null,"Products":""},{"Type":"farmers market","ModifyDate":"Mar 20th, 2023","Image":"default-farmersmarket-4-3.jpg","ListingID":"309626","Name":"South Atlanta Farmers Market","Description":null,"ContactName":null,"ContactEmail":null,"ContactPhone":"404-755-9441","Website":null,"Facebook":null,"Twitter":null,"Instagram":null,"Pinterest":null,"Youtube":null,"Blog":null,"Address":"555 Hopkins St. SW Atlanta, GA 30310","State":"Georgia","City":"Atlanta","Street":"555 Hopkins St. SW","Zip":"30310","Longitude":"-84.43066044032439","Latitude":"33.73976193961377","Dates":null,"Products":""},{"Type":"farmers market","ModifyDate":"Mar 20th, 2023","Image":"default-farmersmarket-4-3.jpg","ListingID":"309627","Name":"South Augusta Market - Journey Sherwood","Description":null,"ContactName":null,"ContactEmail":"growingaugusta@gmail.com","ContactPhone":"762-233-5299","Website":"http:\/\/growingaugusta.co\/augustamarkets","Facebook":"https:\/\/www.facebook.com\/growingaugusta","Twitter":null,"Instagram":null,"Pinterest":null,"Youtube":null,"Blog":null,"Address":"3131 Old Louisville Road, Augusta, Georgia 30906","State":"Georgia","City":"Augusta","Street":"3131 Old Louisville Road","Zip":"30906","Longitude":"-82.01062524027766","Latitude":"33.408319939266846","Dates":null,"Products":""},{"Type":"farmers market","ModifyDate":"Mar 20th, 2023","Image":"default-farmersmarket-4-3.jpg","ListingID":"309628","Name":"Southern Girls Market","Description":null,"ContactName":null,"ContactEmail":null,"ContactPhone":"678-739-8376","Website":null,"Facebook":"http:\/\/www.facebook.com\/southerngirlsmarket","Twitter":null,"Instagram":null,"Pinterest":null,"Youtube":null,"Blog":null,"Address":"631 Hwy 293 Emerson, GA 30137","State":"Georgia","City":"EMERSON","Street":"631 STATE RTE 293","Zip":"30137","Longitude":"-84.75784450696372","Latitude":"34.13063866253518","Dates":null,"Products":""},{"Type":"farmers market","ModifyDate":"Mar 20th, 2023","Image":"default-farmersmarket-4-3.jpg","ListingID":"309629","Name":"Sparta\/Hancock Cooperative Market","Description":null,"ContactName":null,"ContactEmail":null,"ContactPhone":"706-444-9555","Website":"https:\/\/www.spartahancockgrowers.com\/","Facebook":null,"Twitter":null,"Instagram":null,"Pinterest":null,"Youtube":null,"Blog":null,"Address":"12860 Broad Street Sparta, GA 31087","State":"Georgia","City":"Sparta","Street":"12860 Broad Street","Zip":"31087","Longitude":"-82.97214202721237","Latitude":"33.27566899511761","Dates":null,"Products":""},{"Type":"farmers market","ModifyDate":"Mar 20th, 2023","Image":"default-farmersmarket-4-3.jpg","ListingID":"309630","Name":"Square Market of Covington","Description":null,"ContactName":null,"ContactEmail":null,"ContactPhone":"770-784-1718","Website":"https:\/\/squaremarket.org\/","Facebook":null,"Twitter":null,"Instagram":null,"Pinterest":null,"Youtube":null,"Blog":null,"Address":"1169 Washington Street Covington, GA 30014","State":"Georgia","City":"Covington","Street":"1169 Washington Street","Zip":"30014","Longitude":"-83.86084029618397","Latitude":"33.596069007514174","Dates":null,"Products":""},{"Type":"farmers market","ModifyDate":"Mar 20th, 2023","Image":"default-farmersmarket-4-3.jpg","ListingID":"309631","Name":"St. Marys Community Market","Description":null,"ContactName":null,"ContactEmail":"info@stmarysdda.com","ContactPhone":"912-882-8111","Website":"http:\/\/www.stmarysga.gov\/department\/economic_development\/downtown_development_authority\/community_market\/index.php","Facebook":null,"Twitter":null,"Instagram":null,"Pinterest":null,"Youtube":null,"Blog":null,"Address":"Osborne St. and St. Marys St., Downtown Pavilion, St Marys, GA, 31558","State":"Georgia","City":"St Marys","Street":"Osborne St. and St. Marys St.","Zip":"31558","Longitude":"-81.54865003263049","Latitude":"30.720339990556397","Dates":null,"Products":""},{"Type":"farmers market","ModifyDate":"Mar 20th, 2023","Image":"default-farmersmarket-4-3.jpg","ListingID":"309632","Name":"Stephens County Farmers Market","Description":null,"ContactName":null,"ContactEmail":null,"ContactPhone":"706-779-5501","Website":null,"Facebook":"http:\/\/www.facebook.com\/StephensCountyFarmersMarket\/","Twitter":null,"Instagram":null,"Pinterest":null,"Youtube":null,"Blog":null,"Address":"325 N. Broad Street Toccoa, GA 30577","State":"Georgia","City":"TOCCOA","Street":"325 BROAD ST","Zip":"30577","Longitude":"-83.33279735575007","Latitude":"34.57220528569604","Dates":null,"Products":""},{"Type":"farmers market","ModifyDate":"Mar 20th, 2023","Image":"default-farmersmarket-4-3.jpg","ListingID":"309633","Name":"Stewards of the Earth Farmers Market","Description":null,"ContactName":null,"ContactEmail":null,"ContactPhone":"678-580-5405","Website":"http:\/\/sandyspringsroswell@locallygrown.net","Facebook":null,"Twitter":null,"Instagram":null,"Pinterest":null,"Youtube":null,"Blog":null,"Address":"7770 Roswell Road NE Sandy Springs, GA 30350","State":"Georgia","City":"SANDY SPGS","Street":"7770 ROSWELL RD","Zip":"30350","Longitude":"-84.36257402989442","Latitude":"33.966702676868366","Dates":null,"Products":""},{"Type":"farmers market","ModifyDate":"Mar 20th, 2023","Image":"default-farmersmarket-4-3.jpg","ListingID":"309634","Name":"Stone Mountain Farmers Market","Description":null,"ContactName":null,"ContactEmail":null,"ContactPhone":"770-498-8984","Website":"http:\/\/www.stonemountaincity.org","Facebook":"http:\/\/www.facebook.com\/stonemountainfarmersmarket","Twitter":null,"Instagram":null,"Pinterest":null,"Youtube":null,"Blog":null,"Address":"922 Main Street Stone Mountain, GA 30083 Parking is available along Main Street, in the Municipal Parking Lot and in the Depot Parking Lot.","State":"Georgia","City":"STONE MOUNTAIN","Street":"922 MAIN ST","Zip":"30083","Longitude":"-84.17042634835154","Latitude":"33.8068142798419","Dates":null,"Products":""},{"Type":"farmers market","ModifyDate":"Mar 20th, 2023","Image":"default-farmersmarket-4-3.jpg","ListingID":"309635","Name":"Swainsboro Emanuel Farmers Market","Description":null,"ContactName":null,"ContactEmail":"twicelifeapo@gmail.com","ContactPhone":"912-665-4095","Website":null,"Facebook":"http:\/\/www.facebook.com\/theSEFM","Twitter":null,"Instagram":null,"Pinterest":null,"Youtube":null,"Blog":null,"Address":"Swainsboro Ga South Green Street, Swainsboro, GA 30401","State":"Georgia","City":"Swainsboro","Street":"South Green Street","Zip":"30401","Longitude":"-82.33244624121878","Latitude":"32.5933545054814","Dates":null,"Products":""},{"Type":"farmers market","ModifyDate":"Mar 20th, 2023","Image":"default-farmersmarket-4-3.jpg","ListingID":"309636","Name":"Telfair County Farmers' Market","Description":null,"ContactName":null,"ContactEmail":null,"ContactPhone":"229-860-0370","Website":null,"Facebook":null,"Twitter":null,"Instagram":null,"Pinterest":null,"Youtube":null,"Blog":null,"Address":"139 N. Third Ave McRae-Helena, GA 31037","State":"Georgia","City":"MC RAE HELENA","Street":"139 3RD AVE","Zip":"31055","Longitude":"-82.90320883166098","Latitude":"32.06104819933678","Dates":null,"Products":""},{"Type":"farmers market","ModifyDate":"Mar 20th, 2023","Image":"default-farmersmarket-4-3.jpg","ListingID":"309637","Name":"The Dallas Farmers' Market","Description":null,"ContactName":null,"ContactEmail":"eddie@tdfm.org","ContactPhone":"404-353-8973","Website":"http:\/\/www.tdfm.org","Facebook":"https:\/\/www.facebook.com\/TheDallasFarmersMarket","Twitter":null,"Instagram":null,"Pinterest":null,"Youtube":null,"Blog":null,"Address":"25 Courthouse Sq., Dallas, GA, 30132","State":"Georgia","City":"Dallas","Street":"25 Courthouse Sq.","Zip":"30132","Longitude":"-84.84160362276539","Latitude":"33.92431600529875","Dates":null,"Products":""},{"Type":"farmers market","ModifyDate":"Mar 20th, 2023","Image":"default-farmersmarket-4-3.jpg","ListingID":"309638","Name":"The Green Door Fresh Market","Description":null,"ContactName":null,"ContactEmail":null,"ContactPhone":"404-245-9836","Website":null,"Facebook":null,"Twitter":null,"Instagram":null,"Pinterest":null,"Youtube":null,"Blog":null,"Address":"431 Fair Street Atlanta, GA 30313","State":"Georgia","City":"ATLANTA","Street":"431 FAIR ST","Zip":"30313","Longitude":"-84.40076697431616","Latitude":"33.74773064744526","Dates":null,"Products":""},{"Type":"farmers market","ModifyDate":"Mar 20th, 2023","Image":"default-farmersmarket-4-3.jpg","ListingID":"309639","Name":"The Green Market","Description":null,"ContactName":null,"ContactEmail":null,"ContactPhone":null,"Website":null,"Facebook":"http:\/\/www.facebook.com\/MarketAtTheGreenway","Twitter":null,"Instagram":null,"Pinterest":null,"Youtube":null,"Blog":null,"Address":"122 East Hancock Street Milledgeville, GA 31061 At the Market pavilion in downtown Milledgeville, next to the Golden Pantry gas station, about a block from the post office toward the river.","State":"Georgia","City":"MILLEDGEVILLE","Street":"122 E HANCOCK ST","Zip":"31061","Longitude":"-83.22071874416179","Latitude":"33.082507011378546","Dates":null,"Products":""},{"Type":"farmers market","ModifyDate":"Mar 20th, 2023","Image":"default-farmersmarket-4-3.jpg","ListingID":"309640","Name":"The Market","Description":null,"ContactName":null,"ContactEmail":"emily@newtownmacon.com","ContactPhone":"478-722-9909","Website":"https:\/\/newtownmacon.com\/enjoyingplaces\/the-market\/","Facebook":"https:\/\/www.facebook.com\/NTMacon","Twitter":null,"Instagram":null,"Pinterest":null,"Youtube":null,"Blog":null,"Address":"678 Poplar Street, Macon, Georgia","State":"Georgia","City":"Macon","Street":"678 Poplar Street","Zip":null,"Longitude":"-83.63095933881502","Latitude":"32.83558458753282","Dates":null,"Products":""},{"Type":"farmers market","ModifyDate":"Mar 20th, 2023","Image":"default-farmersmarket-4-3.jpg","ListingID":"309641","Name":"The Market at Trustees' Garden","Description":null,"ContactName":null,"ContactEmail":null,"ContactPhone":"912-844-3184","Website":"https:\/\/www.trusteesmarket.com\/","Facebook":null,"Twitter":null,"Instagram":null,"Pinterest":null,"Youtube":null,"Blog":null,"Address":"10 East Broad Street Savannah, GA 31401","State":"Georgia","City":"Savannah","Street":"10 East Broad Street","Zip":"31401","Longitude":"-81.08416862379919","Latitude":"32.078375080904365","Dates":null,"Products":""},{"Type":"farmers market","ModifyDate":"Mar 20th, 2023","Image":"default-farmersmarket-4-3.jpg","ListingID":"309642","Name":"The Night Market","Description":null,"ContactName":null,"ContactEmail":"nfo@peachtreecornersga.gov","ContactPhone":"404-529-4405","Website":"https:\/\/www.peachtreecornersga.gov\/visitors\/town-center\/town-center-events","Facebook":null,"Twitter":null,"Instagram":null,"Pinterest":null,"Youtube":null,"Blog":null,"Address":"5140 Town Center Boulevard, Peachtree Corners, Georgia 30092","State":"Georgia","City":"Peachtree Corners","Street":"5140 Town Center Boulevard","Zip":"30092","Longitude":"-84.21304540270347","Latitude":"33.97992483959443","Dates":null,"Products":""},{"Type":"farmers market","ModifyDate":"Mar 20th, 2023","Image":"default-farmersmarket-4-3.jpg","ListingID":"309643","Name":"The North Georgia Farmers Market","Description":null,"ContactName":null,"ContactEmail":"jarheadtoccoa@gmail.com","ContactPhone":"706-244-4105","Website":"http:\/\/www.thenorthgeorgiafarmersmarket.com","Facebook":"https:\/\/www.facebook.com\/ClarkesvilleFarmersMarket\/","Twitter":null,"Instagram":null,"Pinterest":null,"Youtube":null,"Blog":null,"Address":"555 Monroe Sreet, Clarkesville, Georgia 30523","State":"Georgia","City":"Clarkesville","Street":"555 Monroe Sreet","Zip":"30523","Longitude":"-83.52665902060531","Latitude":"34.615651272107065","Dates":null,"Products":""},{"Type":"farmers market","ModifyDate":"Mar 20th, 2023","Image":"default-farmersmarket-4-3.jpg","ListingID":"309644","Name":"The Savannah Starland Farmers' Market","Description":null,"ContactName":null,"ContactEmail":"starlandfarmersmarket.com@gmail.com","ContactPhone":"912-443-5355","Website":"https:\/\/www.starlandfarmersmarket.com\/","Facebook":null,"Twitter":null,"Instagram":null,"Pinterest":null,"Youtube":null,"Blog":null,"Address":"2418 De Soto Avenue Savannah, GA 31401","State":"Georgia","City":"Savannah","Street":"2418 De Soto Avenue","Zip":"31401","Longitude":"-81.10204503594925","Latitude":"32.05395735532816","Dates":null,"Products":""},{"Type":"farmers market","ModifyDate":"Mar 20th, 2023","Image":"default-farmersmarket-4-3.jpg","ListingID":"309645","Name":"Thomasville State Farmers Market","Description":null,"ContactName":null,"ContactEmail":"timothy.vanvalkenburg@agr.georgia.gov","ContactPhone":"229-225-4072","Website":"https:\/\/agr.georgia.gov\/","Facebook":null,"Twitter":null,"Instagram":null,"Pinterest":null,"Youtube":null,"Blog":null,"Address":"502 Smith Avenue Thomasville, GA 31792","State":"Georgia","City":"Thomasville","Street":"502 Smith Avenue","Zip":"31792","Longitude":"-83.9716253149923","Latitude":"30.835533656966145","Dates":null,"Products":""},{"Type":"farmers market","ModifyDate":"Mar 20th, 2023","Image":"default-farmersmarket-4-3.jpg","ListingID":"309646","Name":"Tifton Downtown Farmers' Market","Description":null,"ContactName":null,"ContactEmail":"lgaskins@tifton.net","ContactPhone":"229-391-3966","Website":"http:\/\/downtowntifton.com\/?page_id=9","Facebook":"https:\/\/www.facebook.com\/DowntownTiftonFarmersMarket","Twitter":null,"Instagram":null,"Pinterest":null,"Youtube":null,"Blog":null,"Address":"121 S. Tift Ave., Tifton, GA, 31794","State":"Georgia","City":"Tifton","Street":"121 S. Tift Ave.","Zip":"31794","Longitude":"-83.50371954354944","Latitude":"31.463203528005632","Dates":null,"Products":""},{"Type":"farmers market","ModifyDate":"Mar 20th, 2023","Image":"default-farmersmarket-4-3.jpg","ListingID":"309647","Name":"Tifton Farmers Market","Description":null,"ContactName":null,"ContactEmail":"timothy.vanvalkenburg@agr.georgia.gov","ContactPhone":"229-225-4072","Website":"https:\/\/agr.georgia.gov\/","Facebook":null,"Twitter":null,"Instagram":null,"Pinterest":null,"Youtube":null,"Blog":null,"Address":"U.S. Highway 41 Tifton, GA 31794","State":"Georgia","City":"Tifton","Street":"U.S. Highway 41","Zip":"31794","Longitude":"-83.51888143831547","Latitude":"31.485757253573926","Dates":null,"Products":""},{"Type":"farmers market","ModifyDate":"Mar 20th, 2023","Image":"default-farmersmarket-4-3.jpg","ListingID":"309648","Name":"Trenton Farmers' Market","Description":null,"ContactName":null,"ContactEmail":"trentonmarketvendors@gmail.com","ContactPhone":"423-987-0039","Website":null,"Facebook":"https:\/\/www.facebook.com\/trentongafarmersmarket\/","Twitter":null,"Instagram":null,"Pinterest":null,"Youtube":null,"Blog":null,"Address":"Veterans Park, Trenton, GA, 30752","State":"Georgia","City":"Trenton","Street":"Veterans Park","Zip":"30752","Longitude":"-85.46083506009771","Latitude":"34.959069867510415","Dates":null,"Products":""},{"Type":"farmers market","ModifyDate":"Mar 20th, 2023","Image":"default-farmersmarket-4-3.jpg","ListingID":"309649","Name":"Tucker Farmers Market","Description":null,"ContactName":null,"ContactEmail":null,"ContactPhone":null,"Website":"http:\/\/www.tuckerfarmersmarket.com","Facebook":"http:\/\/www.facebook.com\/tuckerfarmersmarket\/","Twitter":null,"Instagram":null,"Pinterest":null,"Youtube":null,"Blog":null,"Address":"2333 Main Street Tucker, GA 30084 Located in the Bank of America parking lot and Freemasons square. Park along main street or any side street. Plenty of parking.","State":"Georgia","City":"TUCKER","Street":"2333 MAIN ST","Zip":"30084","Longitude":"-84.21442035796723","Latitude":"33.853346918048366","Dates":null,"Products":""},{"Type":"farmers market","ModifyDate":"Mar 20th, 2023","Image":"default-farmersmarket-4-3.jpg","ListingID":"309650","Name":"UMOJA Farmers' Market","Description":null,"ContactName":null,"ContactEmail":null,"ContactPhone":"404-622-7778","Website":"https:\/\/www.ga-hungercoalition.org\/","Facebook":null,"Twitter":null,"Instagram":null,"Pinterest":null,"Youtube":null,"Blog":null,"Address":"9 Gammon Avenue SW Atlanta, GA 30315","State":"Georgia","City":"Atlanta","Street":"9 Gammon Avenue SW","Zip":"30315","Longitude":"-84.38571927359278","Latitude":"33.71836972782344","Dates":null,"Products":""},{"Type":"farmers market","ModifyDate":"Mar 20th, 2023","Image":"default-farmersmarket-4-3.jpg","ListingID":"309651","Name":"Valdosta Farmers Market","Description":null,"ContactName":null,"ContactEmail":"timothy.vanvalkenburg@agr.georgia.gov","ContactPhone":"229-225-4072","Website":"https:\/\/agr.georgia.gov\/","Facebook":null,"Twitter":null,"Instagram":null,"Pinterest":null,"Youtube":null,"Blog":null,"Address":"1500 South Patterson Street Valdosta, GA 31601","State":"Georgia","City":"Valdosta","Street":"1500 South Patterson Street","Zip":"31601","Longitude":"-83.26434374944598","Latitude":"30.81368216528409","Dates":null,"Products":""},{"Type":"farmers market","ModifyDate":"Mar 20th, 2023","Image":"default-farmersmarket-4-3.jpg","ListingID":"309652","Name":"Valdosta State Farmers Market","Description":null,"ContactName":null,"ContactEmail":null,"ContactPhone":"229-225-4072","Website":null,"Facebook":null,"Twitter":null,"Instagram":null,"Pinterest":null,"Youtube":null,"Blog":null,"Address":"1500 S. Patterson Sreet., Valdosta, Georgia 31601","State":"Georgia","City":"Valdosta","Street":"1500 S. Patterson Sreet.","Zip":"31601","Longitude":"-83.26432943221519","Latitude":"30.813671022156356","Dates":null,"Products":""},{"Type":"farmers market","ModifyDate":"Mar 20th, 2023","Image":"default-farmersmarket-4-3.jpg","ListingID":"309653","Name":"Vickery Village Thursday Farmers Market","Description":null,"ContactName":null,"ContactEmail":null,"ContactPhone":null,"Website":null,"Facebook":"http:\/\/www.facebook.com\/events\/798831580475716\/","Twitter":null,"Instagram":null,"Pinterest":null,"Youtube":null,"Blog":null,"Address":"5920 Post Road Cumming, GA 30040 Free parking available Market is located in the Vickery Village Courtyard","State":"Georgia","City":"CUMMING","Street":"5920 POST RD","Zip":"30040","Longitude":"-84.21765164841851","Latitude":"34.18482232458623","Dates":null,"Products":""},{"Type":"farmers market","ModifyDate":"Mar 20th, 2023","Image":"default-farmersmarket-4-3.jpg","ListingID":"309654","Name":"Villa Rica Farmers' Market","Description":null,"ContactName":null,"ContactEmail":"carmon.williams@ymail.com","ContactPhone":"770-459-7000","Website":"http:\/\/www.villarica-mainstreet.com\/mill-ampitheater\/farmers-market\/","Facebook":"https:\/\/www.facebook.com\/VillaRicaFarmersMarketAtTheMill","Twitter":null,"Instagram":null,"Pinterest":null,"Youtube":null,"Blog":null,"Address":"106 Temple St., Villa Rica, GA, 30180","State":"Georgia","City":"Villa Rica","Street":"106 Temple St.","Zip":"30180","Longitude":"-84.91922269236713","Latitude":"33.732292678558885","Dates":null,"Products":""},{"Type":"farmers market","ModifyDate":"Mar 20th, 2023","Image":"default-farmersmarket-4-3.jpg","ListingID":"309655","Name":"Village Farmers' Market at Life University","Description":null,"ContactName":null,"ContactEmail":null,"ContactPhone":"770-427-9513","Website":"https:\/\/www.life.edu\/","Facebook":null,"Twitter":null,"Instagram":null,"Pinterest":null,"Youtube":null,"Blog":null,"Address":"1269 Barclay Circle Marietta, GA 30060","State":"Georgia","City":"Marietta","Street":"1269 Barclay Circle","Zip":"30060","Longitude":"-84.5231602647696","Latitude":"33.93131778040668","Dates":null,"Products":""},{"Type":"farmers market","ModifyDate":"Mar 20th, 2023","Image":"default-farmersmarket-4-3.jpg","ListingID":"309656","Name":"Washington Farmers' Market","Description":null,"ContactName":null,"ContactEmail":"thewashingtonfm@gmail.com","ContactPhone":"706-678-6256","Website":"http:\/\/www.washingtonfarmersmkt.com\/","Facebook":"https:\/\/www.facebook.com\/washingtonfarmersmarket","Twitter":null,"Instagram":null,"Pinterest":null,"Youtube":null,"Blog":null,"Address":"13 N. Spring St., Washington, GA, 30673","State":"Georgia","City":"Washington","Street":"13 N. Spring St.","Zip":"30673","Longitude":"-82.73830097160351","Latitude":"33.73897723943402","Dates":null,"Products":""},{"Type":"farmers market","ModifyDate":"Mar 20th, 2023","Image":"default-farmersmarket-4-3.jpg","ListingID":"309657","Name":"Wayne County Farmers Market","Description":null,"ContactName":null,"ContactEmail":"nfo@waynefarmersmarket.com","ContactPhone":"912-221-1233","Website":null,"Facebook":"https:\/\/www.facebook.com\/thewcfm\/","Twitter":null,"Instagram":null,"Pinterest":null,"Youtube":null,"Blog":null,"Address":"533 North 1st Street, Jesup, Georgia 31545","State":"Georgia","City":"Jesup","Street":"533 North 1st Street","Zip":"31545","Longitude":"-81.8822066567881","Latitude":"31.609910763015733","Dates":null,"Products":""},{"Type":"farmers market","ModifyDate":"Mar 20th, 2023","Image":"default-farmersmarket-4-3.jpg","ListingID":"309658","Name":"Wesleyan Market","Description":null,"ContactName":null,"ContactEmail":"hdoan@wesleyancollege.edu","ContactPhone":"478-757-5233","Website":"http:\/\/www.wesleyancollege.edu\/community\/wesleyanmarket.cfm","Facebook":"https:\/\/www.facebook.com\/WesleyanMarket","Twitter":null,"Instagram":null,"Pinterest":null,"Youtube":null,"Blog":null,"Address":"4760 Forsyth Rd., Macon, GA, 31210","State":"Georgia","City":"Macon","Street":"4760 Forsyth Rd.","Zip":"31210","Longitude":"-83.71811539542531","Latitude":"32.87761285865671","Dates":null,"Products":""},{"Type":"farmers market","ModifyDate":"Mar 20th, 2023","Image":"default-farmersmarket-4-3.jpg","ListingID":"309659","Name":"Whistle Stop Farmers Market","Description":null,"ContactName":null,"ContactEmail":null,"ContactPhone":"404-824-4350","Website":"https:\/\/www.thewhistlestopfarmersmarket.com\/","Facebook":null,"Twitter":null,"Instagram":null,"Pinterest":null,"Youtube":null,"Blog":null,"Address":"74 Park Drive Norcross, GA 30071","State":"Georgia","City":"Norcross","Street":"74 Park Drive","Zip":"30071","Longitude":"-84.21422018475188","Latitude":"33.943115914831495","Dates":null,"Products":""},{"Type":"farmers market","ModifyDate":"Mar 20th, 2023","Image":"default-farmersmarket-4-3.jpg","ListingID":"309660","Name":"Wiregrass Farmers Market","Description":null,"ContactName":null,"ContactEmail":null,"ContactPhone":"229-391-5222","Website":null,"Facebook":null,"Twitter":null,"Instagram":null,"Pinterest":null,"Youtube":null,"Blog":null,"Address":"1392 Whiddon Mill Road Tifton, GA 31793","State":"Georgia","City":"TIFTON","Street":"1392 WHIDDON MILL RD","Zip":"31793","Longitude":"-83.53385746394841","Latitude":"31.464200026145082","Dates":null,"Products":""},{"Type":"farmers market","ModifyDate":"Mar 20th, 2023","Image":"default-farmersmarket-4-3.jpg","ListingID":"309661","Name":"Woodbury Farmers Market","Description":null,"ContactName":null,"ContactEmail":null,"ContactPhone":"706-553-5812","Website":"http:\/\/woodburymarket.blogspot.com","Facebook":null,"Twitter":null,"Instagram":null,"Pinterest":null,"Youtube":null,"Blog":null,"Address":"355 Dromedary St. Woodbury, GA 30293","State":"Georgia","City":"WOODBURY","Street":"355 DROMEDARY ST","Zip":"30293","Longitude":"-84.58125219695054","Latitude":"32.97982978194221","Dates":null,"Products":""},{"Type":"farmers market","ModifyDate":"Mar 20th, 2023","Image":"default-farmersmarket-4-3.jpg","ListingID":"309662","Name":"Woodstock Farm Fresh Market","Description":null,"ContactName":null,"ContactEmail":"kbennett@woodstockga.gov","ContactPhone":"770-924-0406","Website":"https:\/\/visitwoodstockga.com\/event-group\/farm-fresh-market\/","Facebook":null,"Twitter":null,"Instagram":null,"Pinterest":null,"Youtube":null,"Blog":null,"Address":"Market Sreet, Woodstock, Georgia 30188","State":"Georgia","City":"Woodstock","Street":"Market Sreet","Zip":"30188","Longitude":"-84.5215365674646","Latitude":"34.09886130162251","Dates":null,"Products":""},{"Type":"farmers market","ModifyDate":"Mar 20th, 2023","Image":"default-farmersmarket-4-3.jpg","ListingID":"309663","Name":"Woodstock Farmers Market","Description":null,"ContactName":null,"ContactEmail":"email@example.com","ContactPhone":"770-924-0406","Website":"https:\/\/www.localharvest.org\/farmers-markets\/M30877","Facebook":null,"Twitter":null,"Instagram":null,"Pinterest":null,"Youtube":null,"Blog":null,"Address":"Fowler Street and Main Street Woodstock, GA 30188","State":"Georgia","City":"Woodstock","Street":"Fowler Street and Main Street","Zip":"30188","Longitude":"-84.5202399811336","Latitude":"34.09858999964716","Dates":null,"Products":""},{"Type":"farmers market","ModifyDate":"Mar 20th, 2023","Image":"default-farmersmarket-4-3.jpg","ListingID":"309664","Name":"Woodville Farmers' Market","Description":null,"ContactName":null,"ContactEmail":null,"ContactPhone":"706-486-2276","Website":null,"Facebook":null,"Twitter":null,"Instagram":null,"Pinterest":null,"Youtube":null,"Blog":null,"Address":"1110 Dogwood Road N. Woodville, GA 30669","State":"Georgia","City":"Woodville","Street":"1110 Dogwood Road N.","Zip":"30669","Longitude":"-83.10657737101637","Latitude":"33.67407796230712","Dates":null,"Products":""},{"Type":"farmers market","ModifyDate":"Mar 20th, 2023","Image":"default-farmersmarket-4-3.jpg","ListingID":"309665","Name":"Young Female Farmers Market","Description":null,"ContactName":null,"ContactEmail":"youngfemalefarmers@gmail.com","ContactPhone":"706-769-5530","Website":"https:\/\/youngfemalefarmers.com\/","Facebook":"https:\/\/www.facebook.com\/youngfemalefarmers","Twitter":null,"Instagram":null,"Pinterest":null,"Youtube":null,"Blog":null,"Address":"365 Anthony Lane Bishop, GA 30621","State":"Georgia","City":"Bishop","Street":"365 Anthony Lane","Zip":"30621","Longitude":"-83.5108467243234","Latitude":"33.8249096978556","Dates":null,"Products":""},{"Type":"farmers market","ModifyDate":"Mar 5th, 2021","Image":"default-farmersmarket-4-3.jpg","ListingID":"301450","Name":"Monticello Market on the Square","Description":null,"ContactName":"Brandi McMichael","ContactEmail":"jasperchamber@bellsouth.net","ContactPhone":"7064688994","Website":"https:\/\/jaspercountycoc.com\/events\/market-on-the-square\/","Facebook":"https:\/\/www.facebook.com\/monticellogafarmersmarket","Twitter":null,"Instagram":null,"Pinterest":null,"Youtube":null,"Blog":null,"Address":"119 W. Washington St., Monticello, Georgia 31064","State":"Georgia","City":"Monticello","Street":"119 W. Washington St.","Zip":"31064","Longitude":"-83.683495","Latitude":"33.304642","Dates":"May to September","Products":"Fresh fruits, Fresh vegetables, Baked goods, Bedding plants, Canned or preserved fruits\/vegetables, Crafts\/woodworking items, Fish\/seafood, Fresh\/dried herbs, Honey, Nuts, Prepared foods, Soap\/body care products"},{"Type":"farmers market","ModifyDate":"May 1st, 2022","Image":"farmersmarket_301721_14133_20220501154546.png","ListingID":"301721","Name":"South Augusta Farmers Market","Description":"","ContactName":"C. Joy Johnson Brown","ContactEmail":"Gamarketsouth@gmail.com","ContactPhone":"706-814-8021","Website":"https:\/\/www.growingaugusta.co\/","Facebook":"","Twitter":"","Instagram":"","Pinterest":"","Youtube":"","Blog":"","Address":"2463 Golden Camp Road, Augusta, GA, USA","State":"Georgia","City":"Augusta","Street":"2463 Golden Camp Road","Zip":"30906","Longitude":"-82.05175229999999","Latitude":"33.4300318","Dates":"05\/18\/2022 to 10\/19\/2022","Products":"Fresh fruits, Fresh vegetables, Bedding plants, Canned or preserved fruits\/vegetables, Fresh\/dried herbs, Juices\/non-alcoholic ciders, Nursery stock (trees), Soap\/body care products"},{"Type":"farmers market","ModifyDate":"May 26th, 2021","Image":"default-farmersmarket-4-3.jpg","ListingID":"301511","Name":"Grant Park Farmers Market","Description":null,"ContactName":null,"ContactEmail":"grantpark@cfmatl.org","ContactPhone":"4049193619","Website":"https:\/\/cfmatl.org\/markets\/","Facebook":"https:\/\/www.facebook.com\/grantparkfarmersmarket","Twitter":null,"Instagram":null,"Pinterest":null,"Youtube":null,"Blog":null,"Address":"1040 Grant Street SE, Atlanta, Georgia 30315","State":"Georgia","City":"Atlanta","Street":"1040 Grant Street SE","Zip":"30315","Longitude":"-84.376724","Latitude":"33.725504","Dates":"Year-round","Products":"Fresh fruits, Fresh vegetables, Baked goods, Bedding plants, Canned or preserved fruits\/vegetables, Coffee\/tea, Crafts\/woodworking items, Cut flowers, Dairy products., Eggs, Fish\/seafood, Fresh\/dried herbs, Grains\/flour, Honey, Juices\/non-alcoholic ciders, Mushrooms, Nuts, Pet food, Poultry\/fowl meat and products, Prepared foods, Red\/other non-poultry meat and products, Soap\/body care products, Tofu\/non-animal protein, Wild harvested forest products, Wine, spirits, beer, hard cider"},{"Type":"farmers market","ModifyDate":"May 26th, 2021","Image":"default-farmersmarket-4-3.jpg","ListingID":"301512","Name":"Ponce City Farmers Market on the BeltLine","Description":null,"ContactName":null,"ContactEmail":"ponce@cfmatl.org","ContactPhone":"4049193619","Website":"https:\/\/cfmatl.org\/markets\/","Facebook":"https:\/\/www.facebook.com\/pcfmbeltline","Twitter":null,"Instagram":null,"Pinterest":null,"Youtube":null,"Blog":null,"Address":"675 Ponce de Leon Ave, Atlanta, Georgia 30315","State":"Georgia","City":"Atlanta","Street":"675 Ponce de Leon Ave","Zip":"30315","Longitude":"-84.364611","Latitude":"33.772425","Dates":"March to October","Products":"Fresh fruits, Fresh vegetables, Baked goods, Bedding plants, Canned or preserved fruits\/vegetables, Coffee\/tea, Crafts\/woodworking items, Dairy products., Fresh\/dried herbs, Grains\/flour, Honey, Juices\/non-alcoholic ciders, Nuts, Prepared foods, Soap\/body care products, Tofu\/non-animal protein, Wine, spirits, beer, hard cider"},{"Type":"farmers market","ModifyDate":"May 26th, 2021","Image":"default-farmersmarket-4-3.jpg","ListingID":"301513","Name":"Virginia Highland Farmers Market","Description":null,"ContactName":null,"ContactEmail":"virginiahighland@cfmatl.org","ContactPhone":"4049193619","Website":"https:\/\/cfmatl.org\/virginia-highland\/","Facebook":"www.facebook.com\/VirginiaHighlandFarmersMarket","Twitter":null,"Instagram":null,"Pinterest":null,"Youtube":null,"Blog":null,"Address":"1017 North Highland Avenue NE, Atlanta, Georgia 30306","State":"Georgia","City":"Atlanta","Street":"1017 North Highland Avenue NE","Zip":"30306","Longitude":"-84.354177","Latitude":"33.782208","Dates":"April to October","Products":"Fresh fruits, Fresh vegetables, Baked goods, Canned or preserved fruits\/vegetables, Crafts\/woodworking items, Cut flowers, Eggs, Fresh\/dried herbs, Grains\/flour, Honey, Juices\/non-alcoholic ciders, Nuts, Soap\/body care products"},{"Type":"farmers market","ModifyDate":"Oct 30th, 2020","Image":"default-farmersmarket-4-3.jpg","ListingID":"301351","Name":"Church St Farmers Market","Description":null,"ContactName":"Nicholas Pehrson","ContactEmail":"kdbvista@douglasvillega.gov","ContactPhone":"6784493240","Website":"https:\/\/www.douglasvillega.gov\/government\/city-departments\/keep-douglasville-beautiful\/church-st-farmers-market","Facebook":"https:\/\/www.facebook.com\/events\/6730-church-st-douglasville-ga-30134\/church-st-farmers-market\/198037544608925\/","Twitter":null,"Instagram":null,"Pinterest":null,"Youtube":null,"Blog":null,"Address":"6730 Church St, Douglasville, Georgia 30134","State":"Georgia","City":"Douglasville","Street":"6730 Church St","Zip":"30134","Longitude":"-84.750061","Latitude":"33.749649","Dates":"June to September","Products":"Fresh fruits, Fresh vegetables, Canned or preserved fruits\/vegetables, Crafts\/woodworking items, Cut flowers, Dry beans, Fresh\/dried herbs, Honey, Nuts, Pet food, Soap\/body care products"},{"Type":"farmers market","ModifyDate":"Sep 11th, 2020","Image":"default-farmersmarket-4-3.jpg","ListingID":"300362","Name":"Mableton Farmers Market","Description":null,"ContactName":"David M. McDaniel","ContactEmail":"mcda5958@bellsouth.net","ContactPhone":"404-323-0608","Website":"www.mableton.org\/mableton-farmers-market","Facebook":"Mableton Farmers Market","Twitter":null,"Instagram":null,"Pinterest":null,"Youtube":null,"Blog":null,"Address":"5239 Floyd Road, Mableton, Georgia 30126","State":"Georgia","City":"Mableton","Street":"5239 Floyd Road","Zip":"30126","Longitude":"-84.575384","Latitude":"33.826085","Dates":"June to August","Products":"Fresh fruits, Fresh vegetables, Baked goods, Canned or preserved fruits\/vegetables, Eggs, Fresh\/dried herbs, Honey"},{"Type":"farmers market","ModifyDate":"Sep 11th, 2020","Image":"default-farmersmarket-4-3.jpg","ListingID":"300443","Name":"East Point Farmers Market","Description":null,"ContactName":"Sissie Lang","ContactEmail":"EastPointFarmersMarket@gmail.com","ContactPhone":"4042078048","Website":"http:\/\/www.downtowneastpoint.com\/eastpointfarmersmarket\/","Facebook":"https:\/\/www.facebook.com\/search\/top\/?q=East%20Point%20Farmers%20Market","Twitter":null,"Instagram":null,"Pinterest":null,"Youtube":null,"Blog":null,"Address":"2757 East Point St., East Point , Georgia 30344","State":"Georgia","City":"East Point","Street":"2757 East Point St.","Zip":"30344","Longitude":"-84.442141","Latitude":"33.679488","Dates":"February to December","Products":"Fresh fruits, Fresh vegetables, Baked goods, Bedding plants, Canned or preserved fruits\/vegetables, Coffee\/tea, Crafts\/woodworking items, Cut flowers, Dry beans, Eggs, Fresh\/dried herbs, Honey, Juices\/non-alcoholic ciders, Nuts, Poultry\/fowl meat and products, Prepared foods, Red\/other non-poultry meat and products, Soap\/body care products, Wild harvested forest products"},{"Type":"on-farm market","ModifyDate":"Apr 22nd, 2021","Image":"default-onfarmmarket-4-3.jpg","ListingID":"701597","Name":"HorsePower Farm","Description":null,"ContactName":"Michele Ingram","ContactEmail":"michele.ingram912@gmail.com","ContactPhone":"9124846067","Website":null,"Facebook":"@IngramHorsePowerFarm","Twitter":null,"Instagram":null,"Pinterest":null,"Youtube":null,"Blog":null,"Address":"105 Needle Pointe Drive, Guyton, Georgia 31312","State":"Georgia","City":"Guyton","Street":"105 Needle Pointe Drive","Zip":"31312","Longitude":"-81.390385","Latitude":"32.33227","Dates":null,"Products":""},{"Type":"on-farm market","ModifyDate":"Aug 14th, 2014","Image":"default-onfarmmarket-4-3.jpg","ListingID":"700842","Name":"Two By Two Farms","Description":null,"ContactName":"Sonia Lopez","ContactEmail":"TwoByTwoFarms@comcast.net","ContactPhone":"770-608-1119","Website":"www.twobytwofarmsga.com","Facebook":"Www.facebook.com\/TwoByTwoFarms","Twitter":null,"Instagram":null,"Pinterest":null,"Youtube":null,"Blog":null,"Address":"5720 MacLand Rd , Powder Springs , Georgia 30127","State":"Georgia","City":"Powder Springs","Street":"5720 MacLand Rd","Zip":"30127","Longitude":"-84.720153","Latitude":"33.9047020","Dates":null,"Products":""},{"Type":"on-farm market","ModifyDate":"Aug 15th, 2014","Image":"default-onfarmmarket-4-3.jpg","ListingID":"700766","Name":"Harrietts Bluff Farm","Description":null,"ContactName":null,"ContactEmail":"gwkrewer@gmail.com","ContactPhone":"229-392-1388","Website":null,"Facebook":null,"Twitter":null,"Instagram":null,"Pinterest":null,"Youtube":null,"Blog":null,"Address":"762 Pine Drive (use 1 Pine Dr. for GPS or Mapquest-farm at end of Pine Dr.), Woodbine (Exit 7, Georgia","State":"Georgia","City":"Woodbine (Exit 7","Street":"762 Pine Drive (use 1 Pine Dr. for GPS or Mapquest-farm at end of Pine Dr.)","Zip":null,"Longitude":"-81.637915","Latitude":"30.862189","Dates":null,"Products":""},{"Type":"on-farm market","ModifyDate":"Aug 15th, 2017","Image":"default-onfarmmarket-4-3.jpg","ListingID":"701423","Name":"Sweet Morning Acres","Description":null,"ContactName":"Beth Rowland","ContactEmail":"mber1066@aol.com","ContactPhone":"478-919-8233","Website":null,"Facebook":"facebook.com\/sweetest.life.ever","Twitter":null,"Instagram":null,"Pinterest":null,"Youtube":null,"Blog":null,"Address":"478 Blasingame Road, Fort Valley, Georgia 31030","State":"Georgia","City":"Fort Valley","Street":"478 Blasingame Road","Zip":"31030","Longitude":"-83.879188","Latitude":"32.6472124","Dates":null,"Products":""},{"Type":"on-farm market","ModifyDate":"Aug 23rd, 2014","Image":"default-onfarmmarket-4-3.jpg","ListingID":"700895","Name":"Whippoorwill Blueberries","Description":null,"ContactName":"Steve and Kay Smith","ContactEmail":"stephenandkay@bellsouth.net","ContactPhone":"706-769-1929","Website":null,"Facebook":"https:\/\/www.facebook.com\/whippoorwillblueberries","Twitter":null,"Instagram":null,"Pinterest":null,"Youtube":null,"Blog":null,"Address":"1571 Whippoorwill Road, Watkinsville , Georgia 30677","State":"Georgia","City":"Watkinsville","Street":"1571 Whippoorwill Road","Zip":"30677","Longitude":"-83.465681","Latitude":"33.8484539","Dates":null,"Products":""},{"Type":"on-farm market","ModifyDate":"Aug 25th, 2014","Image":"default-onfarmmarket-4-3.jpg","ListingID":"700924","Name":"Findley Farms","Description":null,"ContactName":"Clark","ContactEmail":"Clark@findleyfarm.com","ContactPhone":"706-326-2186","Website":"Findleyfarm.com","Facebook":null,"Twitter":null,"Instagram":null,"Pinterest":null,"Youtube":null,"Blog":null,"Address":"260 Patterson Rd, Box Springs, Georgia 31801","State":"Georgia","City":"Box Springs","Street":"260 Patterson Rd","Zip":"31801","Longitude":"-84.672588","Latitude":"32.590716","Dates":null,"Products":""},{"Type":"on-farm market","ModifyDate":"Aug 26th, 2014","Image":"default-onfarmmarket-4-3.jpg","ListingID":"700206","Name":"Jumping Frog Farm, LLC","Description":null,"ContactName":"Tracy Sargent","ContactEmail":"trace314@yahoo.com","ContactPhone":"770-722-4241","Website":"www.jumpingfrogfarm.com","Facebook":"Jumping Frog Farm LLC","Twitter":null,"Instagram":null,"Pinterest":null,"Youtube":null,"Blog":null,"Address":"368 Wiley Road, Cedartown, Georgia 30125","State":"Georgia","City":"Cedartown","Street":"368 Wiley Road","Zip":"30125","Longitude":"-85.301960","Latitude":"33.9223640","Dates":null,"Products":""},{"Type":"on-farm market","ModifyDate":"Aug 26th, 2014","Image":"default-onfarmmarket-4-3.jpg","ListingID":"700942","Name":"Cedar Hill Farm","Description":null,"ContactName":"CEDAR HILL FARM","ContactEmail":"benmar519@aol.com","ContactPhone":"7062639815","Website":null,"Facebook":null,"Twitter":null,"Instagram":null,"Pinterest":null,"Youtube":null,"Blog":null,"Address":"274 CEDAR HILL DR SW, CALHOUN, Georgia 30701","State":"Georgia","City":"CALHOUN","Street":"274 CEDAR HILL DR SW","Zip":"30701","Longitude":"-84.972123","Latitude":"34.5035160","Dates":null,"Products":""},{"Type":"on-farm market","ModifyDate":"Feb 20th, 2015","Image":"default-onfarmmarket-4-3.jpg","ListingID":"701215","Name":"Five Cedars Farm","Description":null,"ContactName":"Hank Connelly","ContactEmail":"hjconnelly@aol.com","ContactPhone":"678-246-1216","Website":null,"Facebook":"https:\/\/www.facebook.com\/FiveCedarsFarm","Twitter":null,"Instagram":null,"Pinterest":null,"Youtube":null,"Blog":null,"Address":"835 Cherokee Rd, Cedartown, Georgia 30125","State":"Georgia","City":"Cedartown","Street":"835 Cherokee Rd","Zip":"30125","Longitude":"-85.259578","Latitude":"34.0480305","Dates":null,"Products":""},{"Type":"on-farm market","ModifyDate":"Feb 4th, 2021","Image":"default-onfarmmarket-4-3.jpg","ListingID":"701580","Name":"Young Female Farmers","Description":null,"ContactName":"Margo Candelario","ContactEmail":"youngfemalefarmers@gmail.com","ContactPhone":"7066123012","Website":"https:\/\/www.youngfemalefarmers.com","Facebook":"https:\/\/www.facebook.com\/Young-Female-Farmers-141753575840502\/","Twitter":"https:\/\/twitter.com\/youngfemalefarm","Instagram":null,"Pinterest":null,"Youtube":null,"Blog":null,"Address":"365 Anthony Ln, Bishop, Georgia 30621","State":"Georgia","City":"Bishop","Street":"365 Anthony Ln","Zip":"30621","Longitude":"-83.506749","Latitude":"33.821887","Dates":null,"Products":""},{"Type":"on-farm market","ModifyDate":"Jan 11th, 2016","Image":"default-onfarmmarket-4-3.jpg","ListingID":"701310","Name":"Red Apple Barn","Description":null,"ContactName":"Marvin Pritchett","ContactEmail":"apples@redapplebarn.com","ContactPhone":"7066355898","Website":"www.redapplebarn.com","Facebook":"https:\/\/www.facebook.com\/Red-Apple-Barn-103093659747208\/?ref=hl","Twitter":"@RedAppleBarn","Instagram":null,"Pinterest":null,"Youtube":null,"Blog":null,"Address":"3379 Tails Creek Road, Ellijay, Georgia 30540","State":"Georgia","City":"Ellijay","Street":"3379 Tails Creek Road","Zip":"30540","Longitude":"-84.534786","Latitude":"34.6996795","Dates":null,"Products":""},{"Type":"on-farm market","ModifyDate":"Jan 24th, 2016","Image":"default-onfarmmarket-4-3.jpg","ListingID":"701312","Name":"Menagerie Acres","Description":null,"ContactName":"Christie Albertin","ContactEmail":"fivejeagle@bellsouth.net","ContactPhone":"7062456746","Website":null,"Facebook":"https:\/\/www.facebook.com\/menagerie.acres\/?ref=aymt_homepage_panel","Twitter":null,"Instagram":null,"Pinterest":null,"Youtube":null,"Blog":null,"Address":"400 Bold Springs Rd, Royston, Georgia 30662","State":"Georgia","City":"Royston","Street":"400 Bold Springs Rd","Zip":"30662","Longitude":"-83.278965","Latitude":"34.2706388","Dates":null,"Products":""},{"Type":"on-farm market","ModifyDate":"Jul 13th, 2016","Image":"default-onfarmmarket-4-3.jpg","ListingID":"701359","Name":"Jenny Jack Sun Farm","Description":null,"ContactName":"Jenny Jackson","ContactEmail":"jennyjackfarm@gmail.com","ContactPhone":"706-333-4479","Website":"www.jennyjackfarm.com","Facebook":null,"Twitter":null,"Instagram":null,"Pinterest":null,"Youtube":null,"Blog":null,"Address":"603 White Cemetery Road, Pine Mountain , Georgia 31822","State":"Georgia","City":"Pine Mountain","Street":"603 White Cemetery Road","Zip":"31822","Longitude":"-84.964898","Latitude":"32.852859","Dates":null,"Products":""},{"Type":"on-farm market","ModifyDate":"Jul 24th, 2018","Image":"default-onfarmmarket-4-3.jpg","ListingID":"701456","Name":"Sims Pond Farms","Description":null,"ContactName":"Danny Sims","ContactEmail":"simspondfarms@gmail.com","ContactPhone":"706-885-2996","Website":null,"Facebook":"https:\/\/www.facebook.com\/danny.ods\/","Twitter":null,"Instagram":null,"Pinterest":null,"Youtube":null,"Blog":null,"Address":"10 Bailey RD, LaGrange, Georgia 30240","State":"Georgia","City":"LaGrange","Street":"10 Bailey RD","Zip":"30240","Longitude":"-85.126182","Latitude":"33.034831","Dates":null,"Products":""},{"Type":"on-farm market","ModifyDate":"Jul 27th, 2014","Image":"default-onfarmmarket-4-3.jpg","ListingID":"700399","Name":"Berry Good Farms LLC","Description":null,"ContactName":"Bob Welker","ContactEmail":"bobwelker@gmail.com","ContactPhone":"229-821-0746","Website":"www.berrygoodfaems.com","Facebook":"www.facebook.com\/berrygoodfarms","Twitter":"https:\/\/www.twitter.com\/berrygoodfarms","Instagram":null,"Pinterest":null,"Youtube":null,"Blog":null,"Address":"930 William Gibbs Rd, Tifton, Georgia 31793","State":"Georgia","City":"Tifton","Street":"930 William Gibbs Rd","Zip":"31793","Longitude":"-83.636509","Latitude":"31.428846","Dates":null,"Products":""},{"Type":"on-farm market","ModifyDate":"Jul 30th, 2014","Image":"default-onfarmmarket-4-3.jpg","ListingID":"700009","Name":"Weeks Honey Farm","Description":null,"ContactName":"Ray Crosby","ContactEmail":"ray@weekshoneyfarm.com","ContactPhone":"1-800-898-8846","Website":"http:\/\/www.weekshoneyfarm.com\/","Facebook":"https:\/\/www.facebook.com\/WeeksHoneyFarm","Twitter":null,"Instagram":null,"Pinterest":null,"Youtube":null,"Blog":null,"Address":"900 Crosland-Scooterville Road, Omega, Georgia 31775","State":"Georgia","City":"Omega","Street":"900 Crosland-Scooterville Road","Zip":"31775","Longitude":"-83.651250","Latitude":"31.323395","Dates":null,"Products":""},{"Type":"on-farm market","ModifyDate":"Jul 30th, 2014","Image":"default-onfarmmarket-4-3.jpg","ListingID":"700290","Name":"Freedom Farms, Open by Appointment Only - Call 770-419-0067","Description":null,"ContactName":"Jim Free","ContactEmail":"jf@gctruck.com","ContactPhone":"7704190067","Website":"www.freedomfruit.net","Facebook":null,"Twitter":null,"Instagram":null,"Pinterest":null,"Youtube":null,"Blog":null,"Address":"Ballground Road, Chatsworth, Georgia 30705","State":"Georgia","City":"Chatsworth","Street":"Ballground Road","Zip":"30705","Longitude":"-84.752794","Latitude":"34.668558","Dates":null,"Products":""},{"Type":"on-farm market","ModifyDate":"Jul 30th, 2014","Image":"default-onfarmmarket-4-3.jpg","ListingID":"700371","Name":"Savannah River Farms, INC.","Description":null,"ContactName":"Ben and Kellie Deen","ContactEmail":"deen2959@hotmail.com","ContactPhone":"912-856-0107","Website":"www.savannahriverfarms.com","Facebook":"https:\/\/www.facebook.com\/SavannahRiverFarms","Twitter":null,"Instagram":null,"Pinterest":null,"Youtube":null,"Blog":null,"Address":"194 Boykin Rd., Sylvania, Georgia 30467","State":"Georgia","City":"Sylvania","Street":"194 Boykin Rd.","Zip":"30467","Longitude":"-81.554434","Latitude":"32.6004114","Dates":null,"Products":""},{"Type":"on-farm market","ModifyDate":"Jun 29th, 2016","Image":"default-onfarmmarket-4-3.jpg","ListingID":"701345","Name":"Oconee Fresh Farms","Description":null,"ContactName":"Tim Griffeth","ContactEmail":"info@oconeefreshfarms.com","ContactPhone":"770-364-5133","Website":null,"Facebook":"https:\/\/www.facebook.com\/Oconeefreshfarms","Twitter":null,"Instagram":null,"Pinterest":null,"Youtube":null,"Blog":null,"Address":"3753 Greensboro HWY, Watkinsville, Georgia 30677","State":"Georgia","City":"Watkinsville","Street":"3753 Greensboro HWY","Zip":"30677","Longitude":"-83.346284","Latitude":"33.8064063","Dates":null,"Products":""},{"Type":"on-farm market","ModifyDate":"Mar 19th, 2017","Image":"default-onfarmmarket-4-3.jpg","ListingID":"701398","Name":"7M Family Farms LLC","Description":null,"ContactName":"Dick Mills","ContactEmail":"Dmills706@yahoo.com","ContactPhone":"706-897-1164","Website":"www.7mfamilyfarms.com","Facebook":"7M Family Farms","Twitter":null,"Instagram":null,"Pinterest":null,"Youtube":null,"Blog":null,"Address":"596 Crump Creek Rd, Blairsville , Georgia 30512","State":"Georgia","City":"Blairsville","Street":"596 Crump Creek Rd","Zip":"30512","Longitude":"-83.913113","Latitude":"34.854805","Dates":null,"Products":""},{"Type":"on-farm market","ModifyDate":"Oct 14th, 2021","Image":"default-onfarmmarket-4-3.jpg","ListingID":"701618","Name":"Shallow Creek Farm LLC","Description":null,"ContactName":"Shallow Creek Farm","ContactEmail":"Shallowcreekfarm@yahoo.com","ContactPhone":"9406558545","Website":null,"Facebook":"Shallow Creek Farm","Twitter":null,"Instagram":null,"Pinterest":null,"Youtube":null,"Blog":null,"Address":"758 Hwy 411, Ranger, Georgia 30734","State":"Georgia","City":"Ranger","Street":"758 Hwy 411","Zip":"30734","Longitude":"-84.710058","Latitude":"34.517395","Dates":null,"Products":""},{"Type":"on-farm market","ModifyDate":"Oct 9th, 2018","Image":"default-onfarmmarket-4-3.jpg","ListingID":"701462","Name":"Atlanta Harvest","Description":null,"ContactName":"EliYahu Ysrael","ContactEmail":"AtlantaHarvestllc@gmail.com","ContactPhone":"678-653-6246","Website":"www.AtlantaHarvest.com","Facebook":"https:\/\/www.facebook.com\/atlantaharvest\/","Twitter":null,"Instagram":null,"Pinterest":null,"Youtube":null,"Blog":null,"Address":"2024 Walt Stephens Road, Jonesboro, Georgia 30236","State":"Georgia","City":"Jonesboro","Street":"2024 Walt Stephens Road","Zip":"30236","Longitude":"-84.325062","Latitude":"33.522852","Dates":null,"Products":""},{"Type":"on-farm market","ModifyDate":"Sep 24th, 2018","Image":"default-onfarmmarket-4-3.jpg","ListingID":"701461","Name":"Ellijay Mushrooms","Description":null,"ContactName":"Howard Berk","ContactEmail":"howard@ellijaymushrooms.com","ContactPhone":"6785706888","Website":"ellijaymushrooms.com","Facebook":"www.facebook.com\/EllijayMushrooms","Twitter":"https:\/\/twitter.com\/EllijayMushroom","Instagram":null,"Pinterest":null,"Youtube":null,"Blog":null,"Address":"1971 Old Flat Branch Rd, Ellijay, Georgia 30540","State":"Georgia","City":"Ellijay","Street":"1971 Old Flat Branch Rd","Zip":"30540","Longitude":"-84.475636","Latitude":"34.756881","Dates":null,"Products":""},{"Type":"on-farm market","ModifyDate":"Sep 2nd, 2014","Image":"default-onfarmmarket-4-3.jpg","ListingID":"701011","Name":"Homestead Basket","Description":null,"ContactName":"Sharon Robst","ContactEmail":"ssrobst@windstream.net","ContactPhone":"912-843-2698","Website":"Homesteadbasket.com","Facebook":"www.facebook.com\/homesteadbasket","Twitter":null,"Instagram":null,"Pinterest":null,"Youtube":null,"Blog":null,"Address":"497 Blackwater rd, saint george, Georgia 31562","State":"Georgia","City":"saint george","Street":"497 Blackwater rd","Zip":"31562","Longitude":"-82.057765","Latitude":"30.552726","Dates":null,"Products":""}]