[{"Type":"farmers market","ModifyDate":"Feb 17th, 2022","Image":"default-farmersmarket-4-3.jpg","ListingID":"301659","Name":"Newcastle Farmers Market","Description":null,"ContactName":"Andy McKay","ContactEmail":"newcastlewyfarmersmarket@gmail.com","ContactPhone":"3076306169","Website":"https:\/\/www.facebook.com\/newcastlewyfarmersmarket","Facebook":"https:\/\/www.facebook.com\/newcastlewyfarmersmarket","Twitter":null,"Instagram":null,"Pinterest":null,"Youtube":null,"Blog":null,"Address":"Newcastle, Wyoming 82701","State":"Wyoming","City":"Newcastle","Street":null,"Zip":"82701","Longitude":"-104.18498","Latitude":"43.849469","Dates":"July to September","Products":"Fresh fruits, Fresh vegetables, Baked goods, Canned or preserved fruits\/vegetables, Coffee\/tea, Crafts\/woodworking items, Dairy products., Eggs, Honey, Poultry\/fowl meat and products, Red\/other non-poultry meat and products"},{"Type":"farmers market","ModifyDate":"Jul 17th, 2020","Image":"default-farmersmarket-4-3.jpg","ListingID":"301156","Name":"Torrington WY Farmers Market","Description":null,"ContactName":"Sheila Muhlenkamp","ContactEmail":"torringtonwyfarmersmarket@yahoo.com","ContactPhone":"3075346799","Website":null,"Facebook":"https:\/\/www.facebook.com\/torringtonwyfarmersmarket\/","Twitter":null,"Instagram":null,"Pinterest":null,"Youtube":null,"Blog":null,"Address":"21st & Main Street, Torrington , Wyoming 82240","State":"Wyoming","City":"Torrington","Street":"21st & Main Street","Zip":"82240","Longitude":"-104.18407","Latitude":"42.064541","Dates":"July to October","Products":"Fresh fruits, Fresh vegetables, Baked goods, Crafts\/woodworking items, Cut flowers, Dairy products., Eggs, Fresh\/dried herbs, Honey, Soap\/body care products"},{"Type":"farmers market","ModifyDate":"Mar 27th, 2023","Image":"default-farmersmarket-4-3.jpg","ListingID":"313690","Name":"Basin Farmers Market","Description":null,"ContactName":null,"ContactEmail":null,"ContactPhone":"307-568-2015","Website":null,"Facebook":null,"Twitter":null,"Instagram":null,"Pinterest":null,"Youtube":null,"Blog":null,"Address":"4th Street & C Street Basin, WY 82410","State":"Wyoming","City":"Basin","Street":"4th Street & C Street","Zip":"82410","Longitude":"-108.038959991205","Latitude":"44.38111000432684","Dates":null,"Products":""},{"Type":"farmers market","ModifyDate":"Mar 27th, 2023","Image":"default-farmersmarket-4-3.jpg","ListingID":"313691","Name":"Big Horn Basin Farmers' Market","Description":null,"ContactName":null,"ContactEmail":"bighornfarmersmarket@hotmail.com","ContactPhone":"716-901-4019","Website":null,"Facebook":null,"Twitter":null,"Instagram":null,"Pinterest":null,"Youtube":null,"Blog":null,"Address":"1501 Stampede Ave., Cody, WY, 82414","State":"Wyoming","City":"Cody","Street":"1501 Stampede Ave.","Zip":"82414","Longitude":"-109.0570016028773","Latitude":"44.518824297272474","Dates":null,"Products":""},{"Type":"farmers market","ModifyDate":"Mar 27th, 2023","Image":"default-farmersmarket-4-3.jpg","ListingID":"313692","Name":"Buffalo Farmers' Market","Description":null,"ContactName":null,"ContactEmail":"downtown@bdawyo.com","ContactPhone":"307-621-0772","Website":null,"Facebook":"https:\/\/www.facebook.com\/pages\/Buffalo-Farmers-Market\/1430871827159877","Twitter":null,"Instagram":null,"Pinterest":null,"Youtube":null,"Blog":null,"Address":"55 N. Main St., Crazy Woman Square, Buffalo, WY, 82834","State":"Wyoming","City":"Buffalo","Street":"55 N. Main St.","Zip":"82834","Longitude":"-106.69901160782766","Latitude":"44.34788685754165","Dates":null,"Products":""},{"Type":"farmers market","ModifyDate":"Mar 27th, 2023","Image":"default-farmersmarket-4-3.jpg","ListingID":"313693","Name":"Buffalo Mainstreet Market","Description":null,"ContactName":null,"ContactEmail":null,"ContactPhone":"307-621-7002","Website":null,"Facebook":null,"Twitter":null,"Instagram":null,"Pinterest":null,"Youtube":null,"Blog":null,"Address":"Airport Road and Main St. Buffalo, WY 82834","State":"Wyoming","City":"Buffalo","Street":"Airport Road and Main St.","Zip":"82834","Longitude":"-106.69710002220101","Latitude":"44.362690017727516","Dates":null,"Products":""},{"Type":"farmers market","ModifyDate":"Mar 27th, 2023","Image":"default-farmersmarket-4-3.jpg","ListingID":"313694","Name":"Casper Downtown Farmers Market","Description":null,"ContactName":null,"ContactEmail":null,"ContactPhone":"307-337-1703","Website":"http:\/\/www.casperfarmersmarket.com","Facebook":"http:\/\/www.facebook.com\/caspermarket","Twitter":null,"Instagram":null,"Pinterest":null,"Youtube":null,"Blog":null,"Address":"400 E. Collins Drive Casper, WY 82601","State":"Wyoming","City":"CASPER","Street":"400 E COLLINS DR","Zip":"82601","Longitude":"-106.3201838410198","Latitude":"42.847563513213125","Dates":null,"Products":""},{"Type":"farmers market","ModifyDate":"Mar 27th, 2023","Image":"default-farmersmarket-4-3.jpg","ListingID":"313695","Name":"Casper Farmers Market","Description":null,"ContactName":null,"ContactEmail":null,"ContactPhone":"307-235-9400","Website":null,"Facebook":null,"Twitter":null,"Instagram":null,"Pinterest":null,"Youtube":null,"Blog":null,"Address":"2011 Fairgrounds Road 2011 Fairgrounds Road Casper, WY 82604","State":"Wyoming","City":"CASPER","Street":"2011 FAIRGROUNDS RD","Zip":"82604","Longitude":"-106.36306661487181","Latitude":"42.828765803877005","Dates":null,"Products":""},{"Type":"farmers market","ModifyDate":"Mar 27th, 2023","Image":"default-farmersmarket-4-3.jpg","ListingID":"313696","Name":"Casper Summer Farmers' Market","Description":null,"ContactName":null,"ContactEmail":"info@wyomingfoodforthoughtproject.org","ContactPhone":"307-337-1703","Website":"http:\/\/www.casperfarmersmarket.com\/","Facebook":"https:\/\/www.facebook.com\/caspermarket","Twitter":null,"Instagram":null,"Pinterest":null,"Youtube":null,"Blog":null,"Address":"400 E. Collins Dr., Casper, WY, 82604","State":"Wyoming","City":"Casper","Street":"400 E. Collins Dr.","Zip":"82604","Longitude":"-106.3201838410198","Latitude":"42.847563513213125","Dates":null,"Products":""},{"Type":"farmers market","ModifyDate":"Mar 27th, 2023","Image":"default-farmersmarket-4-3.jpg","ListingID":"313697","Name":"Centennial Arts and Farmers Market","Description":null,"ContactName":null,"ContactEmail":null,"ContactPhone":"307-742-5756","Website":null,"Facebook":null,"Twitter":null,"Instagram":null,"Pinterest":null,"Youtube":null,"Blog":null,"Address":"2747 Hwy 130 Centennial, WY 82055","State":"Wyoming","City":"Centennial","Street":"2747 Hwy 130","Zip":"82055","Longitude":"-106.13879982074712","Latitude":"41.29722200189794","Dates":null,"Products":""},{"Type":"farmers market","ModifyDate":"Mar 27th, 2023","Image":"default-farmersmarket-4-3.jpg","ListingID":"313698","Name":"Cheyenne Farmers Market","Description":null,"ContactName":null,"ContactEmail":"infoFM@calc.net","ContactPhone":"307-635-9291","Website":"https:\/\/www.calc.net\/","Facebook":null,"Twitter":null,"Instagram":null,"Pinterest":null,"Youtube":null,"Blog":null,"Address":"702 W Lincolnway Cheyenne, WY 82001","State":"Wyoming","City":"Cheyenne","Street":"702 W Lincolnway","Zip":"82001","Longitude":"-104.82097971161188","Latitude":"41.130645384574336","Dates":null,"Products":""},{"Type":"farmers market","ModifyDate":"Mar 27th, 2023","Image":"default-farmersmarket-4-3.jpg","ListingID":"313699","Name":"Cheyenne Winter Farmers Market","Description":null,"ContactName":null,"ContactEmail":null,"ContactPhone":"307-225-9542","Website":"http:\/\/cheyennewinterfarmersmarket.org","Facebook":"http:\/\/www.facebook.com\/Cheyennewintermarket","Twitter":null,"Instagram":null,"Pinterest":null,"Youtube":null,"Blog":null,"Address":"121 W 15th Street Cheyenne, WY 82001 Market is held in the warm and cozy Cheyenne Depot Museum Lobby, a beautiful National Historic Landmark.","State":"Wyoming","City":"CHEYENNE","Street":"121 W 15TH ST","Zip":"82001","Longitude":"-104.81478902296035","Latitude":"41.131830855340134","Dates":null,"Products":""},{"Type":"farmers market","ModifyDate":"Mar 27th, 2023","Image":"default-farmersmarket-4-3.jpg","ListingID":"313700","Name":"Cody - Big Horn County Farmers Market","Description":null,"ContactName":null,"ContactEmail":null,"ContactPhone":"307-250-6555","Website":null,"Facebook":null,"Twitter":null,"Instagram":null,"Pinterest":null,"Youtube":null,"Blog":null,"Address":"1501 Stampede Avenue Cody, WY 82435","State":"Wyoming","City":"Cody","Street":"1501 Stampede Avenue","Zip":"82435","Longitude":"-109.0570016028773","Latitude":"44.518824297272474","Dates":null,"Products":""},{"Type":"farmers market","ModifyDate":"Mar 27th, 2023","Image":"default-farmersmarket-4-3.jpg","ListingID":"313701","Name":"Cody Farmers' Market","Description":null,"ContactName":null,"ContactEmail":"bighornfarmersmarket@hotmail.com","ContactPhone":"716-901-4019","Website":null,"Facebook":"https:\/\/www.facebook.com\/bighornbasin.farmersmarket","Twitter":null,"Instagram":null,"Pinterest":null,"Youtube":null,"Blog":null,"Address":"1501 Stampede Ave., Park County Complex-Marathon Building, Cody, WY, 82414","State":"Wyoming","City":"Cody","Street":"1501 Stampede Ave.","Zip":"82414","Longitude":"-109.0570016028773","Latitude":"44.518824297272474","Dates":null,"Products":""},{"Type":"farmers market","ModifyDate":"Mar 27th, 2023","Image":"default-farmersmarket-4-3.jpg","ListingID":"313702","Name":"Downtown Farmers' Market","Description":null,"ContactName":null,"ContactEmail":"info@wyfftp.org","ContactPhone":"307-337-1703","Website":null,"Facebook":null,"Twitter":null,"Instagram":null,"Pinterest":null,"Youtube":null,"Blog":null,"Address":"400 E. Collins St., and Beech St., Casper, WY, 82601","State":"Wyoming","City":"Casper","Street":"400 E. Collins St.","Zip":"82601","Longitude":"-106.3201838410198","Latitude":"42.847563513213125","Dates":null,"Products":""},{"Type":"farmers market","ModifyDate":"Mar 27th, 2023","Image":"default-farmersmarket-4-3.jpg","ListingID":"313703","Name":"Downtown Gillette Farmers Market","Description":null,"ContactName":null,"ContactEmail":null,"ContactPhone":"307-689-7904","Website":"http:\/\/DowntownGilletteFarmersMarket.com","Facebook":"http:\/\/www.facebook.com\/gillettefarmersmarket","Twitter":null,"Instagram":null,"Pinterest":null,"Youtube":null,"Blog":null,"Address":"118 S Gillette Ave Gillette, WY 82716 On street parking","State":"Wyoming","City":"GILLETTE","Street":"118 S AVE","Zip":"82716","Longitude":"-105.50401595534356","Latitude":"44.29386651516344","Dates":null,"Products":""},{"Type":"farmers market","ModifyDate":"Mar 27th, 2023","Image":"default-farmersmarket-4-3.jpg","ListingID":"313704","Name":"Dubois Farmers Market","Description":null,"ContactName":null,"ContactEmail":null,"ContactPhone":"307-455-2182","Website":null,"Facebook":null,"Twitter":null,"Instagram":null,"Pinterest":null,"Youtube":null,"Blog":null,"Address":"9 S First St Dubois, WY 82513","State":"Wyoming","City":"Dubois","Street":"9 S First St","Zip":"82513","Longitude":"-109.63084120689511","Latitude":"43.533466778697054","Dates":null,"Products":""},{"Type":"farmers market","ModifyDate":"Mar 27th, 2023","Image":"default-farmersmarket-4-3.jpg","ListingID":"313705","Name":"Farmers Market on the Town Square","Description":null,"ContactName":null,"ContactEmail":null,"ContactPhone":null,"Website":"https:\/\/jacksonholefarmersmarket.org\/","Facebook":null,"Twitter":null,"Instagram":null,"Pinterest":null,"Youtube":null,"Blog":null,"Address":"N Cache St and E Deloney Ave Jackson, WY 83001","State":"Wyoming","City":"Jackson","Street":"N Cache St and E Deloney Ave","Zip":"83001","Longitude":"-110.76237000094837","Latitude":"43.48034002048911","Dates":null,"Products":""},{"Type":"farmers market","ModifyDate":"Mar 27th, 2023","Image":"default-farmersmarket-4-3.jpg","ListingID":"313706","Name":"Food for Thought Markets","Description":null,"ContactName":null,"ContactEmail":"info@wyfftp.org","ContactPhone":"307-337-1703","Website":"http:\/\/www.casperfarmersmarket.com\/","Facebook":"https:\/\/www.facebook.com\/caspermarket","Twitter":null,"Instagram":null,"Pinterest":null,"Youtube":null,"Blog":null,"Address":"(Summer) 400 E Collins Drive (Winter) 2011 Fairgrounds Rd. Casper, WY 82602","State":"Wyoming","City":"Casper","Street":"400 E Collins Drive","Zip":"82602","Longitude":"-106.32026189301175","Latitude":"42.848017040103684","Dates":null,"Products":""},{"Type":"farmers market","ModifyDate":"Mar 27th, 2023","Image":"default-farmersmarket-4-3.jpg","ListingID":"313707","Name":"Gillette Farmers' Market","Description":null,"ContactName":null,"ContactEmail":"hjh10@ccgov.net","ContactPhone":"307-682-7281","Website":null,"Facebook":"https:\/\/www.facebook.com\/Gillette-Farmers-Market-223046610637","Twitter":null,"Instagram":null,"Pinterest":null,"Youtube":null,"Blog":null,"Address":"3251 S 4-J Rd., Gillette, WY, 82718","State":"Wyoming","City":"Gillette","Street":"3251 S 4-J Rd.","Zip":"82718","Longitude":"-105.50961572999977","Latitude":"44.263024078716015","Dates":null,"Products":""},{"Type":"farmers market","ModifyDate":"Mar 27th, 2023","Image":"default-farmersmarket-4-3.jpg","ListingID":"313708","Name":"Gillette Tuesday Farmers' Market","Description":null,"ContactName":null,"ContactEmail":"hjh10@ccgov.net","ContactPhone":"307-682-7281","Website":null,"Facebook":"https:\/\/www.facebook.com\/Gillette-Farmers-Market-223046610637","Twitter":null,"Instagram":null,"Pinterest":null,"Youtube":null,"Blog":null,"Address":"111 E. 2nd St., Gillette, WY, 82716","State":"Wyoming","City":"Gillette","Street":"111 E. 2nd St.","Zip":"82716","Longitude":"-105.50373500836147","Latitude":"44.29319485545726","Dates":null,"Products":""},{"Type":"farmers market","ModifyDate":"Mar 27th, 2023","Image":"default-farmersmarket-4-3.jpg","ListingID":"313709","Name":"Goshen County Farmers Market","Description":null,"ContactName":null,"ContactEmail":null,"ContactPhone":"307-532-2436","Website":null,"Facebook":null,"Twitter":null,"Instagram":null,"Pinterest":null,"Youtube":null,"Blog":null,"Address":"2145 Main St Torrington, WY 82240","State":"Wyoming","City":"Torrington","Street":"2145 Main St","Zip":"82240","Longitude":"-104.18437412857749","Latitude":"42.065464653733194","Dates":null,"Products":""},{"Type":"farmers market","ModifyDate":"Mar 27th, 2023","Image":"default-farmersmarket-4-3.jpg","ListingID":"313710","Name":"GPS Year Round Farmers Market","Description":null,"ContactName":null,"ContactEmail":null,"ContactPhone":"307-921-0751","Website":null,"Facebook":null,"Twitter":null,"Instagram":null,"Pinterest":null,"Youtube":null,"Blog":null,"Address":"302 N 7th St Greybull, WY 82426","State":"Wyoming","City":"Greybull","Street":"302 N 7th St","Zip":"82426","Longitude":"-108.05734384620513","Latitude":"44.49513190810204","Dates":null,"Products":""},{"Type":"farmers market","ModifyDate":"Mar 27th, 2023","Image":"default-farmersmarket-4-3.jpg","ListingID":"313711","Name":"Green River Farmers Market","Description":null,"ContactName":null,"ContactEmail":null,"ContactPhone":"307-872-0562","Website":null,"Facebook":null,"Twitter":null,"Instagram":null,"Pinterest":null,"Youtube":null,"Blog":null,"Address":"Railroad Avenue Green River, WY 82935","State":"Wyoming","City":"Green River","Street":"Railroad Avenue","Zip":"82935","Longitude":"-109.95986119680569","Latitude":"41.60169043574388","Dates":null,"Products":""},{"Type":"farmers market","ModifyDate":"Mar 27th, 2023","Image":"default-farmersmarket-4-3.jpg","ListingID":"313712","Name":"Greybull Farmers' Market","Description":null,"ContactName":null,"ContactEmail":"oldtractorgal@yahoo.com","ContactPhone":"307-568-2015","Website":null,"Facebook":"https:\/\/www.facebook.com\/pages\/BasinGreybull-Farmers-Market\/243173659050239","Twitter":null,"Instagram":null,"Pinterest":null,"Youtube":null,"Blog":null,"Address":"345 S. 6th St., Greybull, WY, 82426","State":"Wyoming","City":"Greybull","Street":"345 S. 6th St.","Zip":"82426","Longitude":"-108.05526844839827","Latitude":"44.485114786196995","Dates":null,"Products":""},{"Type":"farmers market","ModifyDate":"Mar 27th, 2023","Image":"default-farmersmarket-4-3.jpg","ListingID":"313713","Name":"Harvest Farmers' Market","Description":null,"ContactName":null,"ContactEmail":"gardensharvest@gmail.com","ContactPhone":"307-281-6113","Website":null,"Facebook":"https:\/\/www.facebook.com\/SundanceHarvestFarmersMarket","Twitter":null,"Instagram":null,"Pinterest":null,"Youtube":null,"Blog":null,"Address":"369 Old Hwy.14, Sundance , WY, 82729","State":"Wyoming","City":"Sundance","Street":"369 Old Hwy.14","Zip":"82729","Longitude":"-104.22475643880651","Latitude":"44.50095528020868","Dates":null,"Products":""},{"Type":"farmers market","ModifyDate":"Mar 27th, 2023","Image":"default-farmersmarket-4-3.jpg","ListingID":"313714","Name":"Jackalope Square Farmers Market","Description":null,"ContactName":null,"ContactEmail":null,"ContactPhone":"307-358-3108","Website":"https:\/\/www.mainstreetdouglas.squarespace.com\/","Facebook":null,"Twitter":null,"Instagram":null,"Pinterest":null,"Youtube":null,"Blog":null,"Address":"130 S 3rd Douglas, WY 82633","State":"Wyoming","City":"Douglas","Street":"130 S 3rd","Zip":"82633","Longitude":"-105.38411458288198","Latitude":"42.758729789190006","Dates":null,"Products":""},{"Type":"farmers market","ModifyDate":"Mar 27th, 2023","Image":"default-farmersmarket-4-3.jpg","ListingID":"313715","Name":"Jackson Hole Farmers Market on the Town Square","Description":null,"ContactName":null,"ContactEmail":null,"ContactPhone":null,"Website":"http:\/\/www.jacksonholefarmersmarket.com","Facebook":"http:\/\/www.facebook.com\/JacksonHoleFarmersMarketOnTheTownSquare","Twitter":null,"Instagram":null,"Pinterest":null,"Youtube":null,"Blog":null,"Address":"1-65 E Broadway Jackson, WY 83001","State":"Wyoming","City":"JACKSON","Street":"1 E BROADWAY AVE","Zip":"83001","Longitude":"-110.76131609600824","Latitude":"43.47958911181204","Dates":null,"Products":""},{"Type":"farmers market","ModifyDate":"Mar 27th, 2023","Image":"default-farmersmarket-4-3.jpg","ListingID":"313716","Name":"Jackson Hole People's Market","Description":null,"ContactName":null,"ContactEmail":"jhpeoplesmarket@gmail.com","ContactPhone":"307-690-0705","Website":"http:\/\/jhpeoplesmarket.org\/","Facebook":"https:\/\/www.facebook.com\/jhpeoplesmarket","Twitter":null,"Instagram":null,"Pinterest":null,"Youtube":null,"Blog":null,"Address":"100 E. Snow King Ave., Jackson, WY, 83001","State":"Wyoming","City":"Jackson","Street":"100 E. Snow King Ave.","Zip":"83001","Longitude":"-110.76383873016792","Latitude":"43.47338862657427","Dates":null,"Products":""},{"Type":"farmers market","ModifyDate":"Mar 27th, 2023","Image":"default-farmersmarket-4-3.jpg","ListingID":"313717","Name":"Kemmerer Farmers' Market","Description":null,"ContactName":null,"ContactEmail":"dvaughn@kemmerer.org","ContactPhone":"307-727-7061","Website":"http:\/\/www.kemmerer.org\/farmers-market\/","Facebook":null,"Twitter":null,"Instagram":null,"Pinterest":null,"Youtube":null,"Blog":null,"Address":"826 S. Main St., Historic Triangle Park, Kemmerer, WY, 83101","State":"Wyoming","City":"Kemmerer","Street":"826 S. Main St.","Zip":"83101","Longitude":"-110.53737982357592","Latitude":"41.79465652208584","Dates":null,"Products":""},{"Type":"farmers market","ModifyDate":"Mar 27th, 2023","Image":"default-farmersmarket-4-3.jpg","ListingID":"313718","Name":"Lander Valley Farmers' Market","Description":null,"ContactName":null,"ContactEmail":"redbuttechevre@gmail.com","ContactPhone":null,"Website":null,"Facebook":"https:\/\/www.facebook.com\/pages\/Lander-Valley-Farmers-Market\/107156239338695","Twitter":null,"Instagram":null,"Pinterest":null,"Youtube":null,"Blog":null,"Address":"200 Main St., Centennial Park, Lander, WY, 82520","State":"Wyoming","City":"Lander","Street":"200 Main St.","Zip":"82520","Longitude":"-108.72925594314506","Latitude":"42.83273500227268","Dates":null,"Products":""},{"Type":"farmers market","ModifyDate":"Mar 27th, 2023","Image":"default-farmersmarket-4-3.jpg","ListingID":"313719","Name":"Lander Valley Farmers Market - Tuesday","Description":null,"ContactName":null,"ContactEmail":null,"ContactPhone":"307-349-4991","Website":null,"Facebook":null,"Twitter":null,"Instagram":null,"Pinterest":null,"Youtube":null,"Blog":null,"Address":"1445 Main Lander, WY 82520","State":"Wyoming","City":"Lander","Street":"1445 Main","Zip":"82520","Longitude":"-108.74771000293443","Latitude":"42.840628979187755","Dates":null,"Products":""},{"Type":"farmers market","ModifyDate":"Mar 27th, 2023","Image":"default-farmersmarket-4-3.jpg","ListingID":"313720","Name":"Laramie Farmers' Market","Description":null,"ContactName":null,"ContactEmail":"laramiefarmersmarket@gmail.com","ContactPhone":"219-575-2356","Website":"http:\/\/www.laramiefarmersmarket.com\/","Facebook":null,"Twitter":null,"Instagram":null,"Pinterest":null,"Youtube":null,"Blog":null,"Address":"Grand Ave. and 2nd St., Laramie, WY, 82520","State":"Wyoming","City":"Laramie","Street":"Grand Ave. and 2nd St.","Zip":"82520","Longitude":"-105.59494002051416","Latitude":"41.31113000740817","Dates":null,"Products":""},{"Type":"farmers market","ModifyDate":"Mar 27th, 2023","Image":"default-farmersmarket-4-3.jpg","ListingID":"313721","Name":"Laramie Local Community Market","Description":null,"ContactName":null,"ContactEmail":null,"ContactPhone":"307-760-6171","Website":null,"Facebook":null,"Twitter":null,"Instagram":null,"Pinterest":null,"Youtube":null,"Blog":null,"Address":"5th St and Ord St Laramie, WY 82070","State":"Wyoming","City":"Laramie","Street":"5th St and Ord St","Zip":"82070","Longitude":"-105.5916900213769","Latitude":"41.30427000639227","Dates":null,"Products":""},{"Type":"farmers market","ModifyDate":"Mar 27th, 2023","Image":"default-farmersmarket-4-3.jpg","ListingID":"313722","Name":"Laramie Thursday Local Market","Description":null,"ContactName":null,"ContactEmail":"thursdaylocalmarket@gmail.com","ContactPhone":"307-399-8238","Website":"http:\/\/www.thursdaylocalmarket.com\/","Facebook":"https:\/\/www.facebook.com\/thursdaylocalmarket\/","Twitter":null,"Instagram":null,"Pinterest":null,"Youtube":null,"Blog":null,"Address":"S. 7th St. and E. Ord St., Undine Park, Laramie, WY, 82070","State":"Wyoming","City":"Laramie","Street":"S. 7th St. and E. Ord St.","Zip":"82070","Longitude":"-105.5891000132957","Latitude":"41.304129986699735","Dates":null,"Products":""},{"Type":"farmers market","ModifyDate":"Mar 27th, 2023","Image":"default-farmersmarket-4-3.jpg","ListingID":"313723","Name":"Laramie Winter Farmers Market","Description":null,"ContactName":null,"ContactEmail":null,"ContactPhone":"307-742-9204","Website":null,"Facebook":null,"Twitter":null,"Instagram":null,"Pinterest":null,"Youtube":null,"Blog":null,"Address":"710 Garfield Laramie, WY 82010","State":"Wyoming","City":"Laramie","Street":"710 Garfield","Zip":"82010","Longitude":"-105.58783099315494","Latitude":"41.309248982607045","Dates":null,"Products":""},{"Type":"farmers market","ModifyDate":"Mar 27th, 2023","Image":"default-farmersmarket-4-3.jpg","ListingID":"313724","Name":"Lovell Farmers Market","Description":null,"ContactName":null,"ContactEmail":"director@lovellinc.org","ContactPhone":"307-548-6707","Website":"https:\/\/www.lovellinc.org\/farmersmarket.html","Facebook":null,"Twitter":null,"Instagram":null,"Pinterest":null,"Youtube":null,"Blog":null,"Address":"262 E Main Street Lovell, WY 82131","State":"Wyoming","City":"Lovell","Street":"262 E Main Street","Zip":"82131","Longitude":"-108.38798791047772","Latitude":"44.83752007138151","Dates":null,"Products":""},{"Type":"farmers market","ModifyDate":"Mar 27th, 2023","Image":"default-farmersmarket-4-3.jpg","ListingID":"313725","Name":"Main Street Market","Description":null,"ContactName":null,"ContactEmail":"info@downtownrs.com","ContactPhone":"307-352-1434","Website":"http:\/\/www.downtownrs.com","Facebook":null,"Twitter":null,"Instagram":null,"Pinterest":null,"Youtube":null,"Blog":null,"Address":"603 S. Main St., Rock Springs, WY, 82901","State":"Wyoming","City":"Rock Springs","Street":"603 S. Main St.","Zip":"82901","Longitude":"-109.21818202600001","Latitude":"41.58759783849223","Dates":null,"Products":""},{"Type":"farmers market","ModifyDate":"Mar 27th, 2023","Image":"default-farmersmarket-4-3.jpg","ListingID":"313726","Name":"Natrona County Master Gardeners Farmers Market","Description":null,"ContactName":null,"ContactEmail":null,"ContactPhone":"307-235-9400","Website":null,"Facebook":null,"Twitter":null,"Instagram":null,"Pinterest":null,"Youtube":null,"Blog":null,"Address":"2010 Fairgrounds Road Casper, WY 82604","State":"Wyoming","City":"Casper","Street":"2010 Fairgrounds Road","Zip":"82604","Longitude":"-106.3632465929395","Latitude":"42.82854947419356","Dates":null,"Products":""},{"Type":"farmers market","ModifyDate":"Mar 27th, 2023","Image":"default-farmersmarket-4-3.jpg","ListingID":"313727","Name":"Old Town Farmers Market","Description":null,"ContactName":null,"ContactEmail":null,"ContactPhone":"307-746-8700","Website":null,"Facebook":null,"Twitter":null,"Instagram":null,"Pinterest":null,"Youtube":null,"Blog":null,"Address":"2nd St Upton, WY 82730","State":"Wyoming","City":"Upton","Street":"2nd St","Zip":"82730","Longitude":"-104.61373306613598","Latitude":"44.091343198510465","Dates":null,"Products":""},{"Type":"farmers market","ModifyDate":"Mar 27th, 2023","Image":"default-farmersmarket-4-3.jpg","ListingID":"313728","Name":"Pine Bluffs Farmers Market","Description":null,"ContactName":null,"ContactEmail":null,"ContactPhone":"307-245-3905","Website":null,"Facebook":null,"Twitter":null,"Instagram":null,"Pinterest":null,"Youtube":null,"Blog":null,"Address":"6th St and Main St Pine Bluffs, WY 82082","State":"Wyoming","City":"Pine Bluffs","Street":"6th St and Main St","Zip":"82082","Longitude":"-104.06826000850101","Latitude":"41.178760016885946","Dates":null,"Products":""},{"Type":"farmers market","ModifyDate":"Mar 27th, 2023","Image":"default-farmersmarket-4-3.jpg","ListingID":"313729","Name":"Pinedale Farmers Market","Description":null,"ContactName":null,"ContactEmail":null,"ContactPhone":"307-859-8349","Website":"https:\/\/www.pinedalefarmersmarket.org\/","Facebook":null,"Twitter":null,"Instagram":null,"Pinterest":null,"Youtube":null,"Blog":null,"Address":"S Tyler Ave and E Pine St. Pinedale, WY 82925","State":"Wyoming","City":"Pinedale","Street":"S Tyler Ave and E Pine St.","Zip":"82925","Longitude":"-109.86129001242169","Latitude":"42.86660998727504","Dates":null,"Products":""},{"Type":"farmers market","ModifyDate":"Mar 27th, 2023","Image":"default-farmersmarket-4-3.jpg","ListingID":"313730","Name":"Pinedale Winter Farmers Market","Description":null,"ContactName":null,"ContactEmail":null,"ContactPhone":"307-859-8349","Website":null,"Facebook":null,"Twitter":null,"Instagram":null,"Pinterest":null,"Youtube":null,"Blog":null,"Address":"535 N Tyler Ave Pinedale, WY 82925","State":"Wyoming","City":"Pinedale","Street":"535 N Tyler Ave","Zip":"82925","Longitude":"-109.8597479936945","Latitude":"42.87088199186647","Dates":null,"Products":""},{"Type":"farmers market","ModifyDate":"Mar 27th, 2023","Image":"default-farmersmarket-4-3.jpg","ListingID":"313731","Name":"Platte County Farmers Market","Description":null,"ContactName":null,"ContactEmail":null,"ContactPhone":"307-322-4232","Website":null,"Facebook":null,"Twitter":null,"Instagram":null,"Pinterest":null,"Youtube":null,"Blog":null,"Address":"711 9th Street Wheatland, WY 82201","State":"Wyoming","City":"Wheatland","Street":"711 9th Street","Zip":"82201","Longitude":"-104.95325023885026","Latitude":"42.0545272371574","Dates":null,"Products":""},{"Type":"farmers market","ModifyDate":"Mar 27th, 2023","Image":"default-farmersmarket-4-3.jpg","ListingID":"313732","Name":"Riverton Farmers Market","Description":null,"ContactName":null,"ContactEmail":null,"ContactPhone":"307-857-5914","Website":null,"Facebook":null,"Twitter":null,"Instagram":null,"Pinterest":null,"Youtube":null,"Blog":null,"Address":"1010 Fairground Road Riverton, WY 82501","State":"Wyoming","City":"Riverton","Street":"1010 Fairground Road","Zip":"82501","Longitude":"-108.38123198988905","Latitude":"43.01467299601745","Dates":null,"Products":""},{"Type":"farmers market","ModifyDate":"Mar 27th, 2023","Image":"default-farmersmarket-4-3.jpg","ListingID":"313733","Name":"Riverton Wednesday Farmers' Market","Description":null,"ContactName":null,"ContactEmail":"sherryshelley119@gmail.com","ContactPhone":"307-851-7162","Website":"http:\/\/www.fremontlocalfoods.org\/riverton-farmers-market.html","Facebook":"https:\/\/www.facebook.com\/rivertonwednesdayfarmersmarket","Twitter":null,"Instagram":null,"Pinterest":null,"Youtube":null,"Blog":null,"Address":"422 E. Main St., Riverton, WY, 82501","State":"Wyoming","City":"Riverton","Street":"422 E. Main St.","Zip":"82501","Longitude":"-108.38593542330246","Latitude":"43.02465332792889","Dates":null,"Products":""},{"Type":"farmers market","ModifyDate":"Mar 27th, 2023","Image":"default-farmersmarket-4-3.jpg","ListingID":"313734","Name":"Riverton\/Lander Winter Farmers Market","Description":null,"ContactName":null,"ContactEmail":null,"ContactPhone":null,"Website":null,"Facebook":null,"Twitter":null,"Instagram":null,"Pinterest":null,"Youtube":null,"Blog":null,"Address":"Main and Broadway Riverton, WY 82501","State":"Wyoming","City":"Riverton","Street":"Main and Broadway","Zip":"82501","Longitude":"-108.3863199727546","Latitude":"43.02465001727671","Dates":null,"Products":""},{"Type":"farmers market","ModifyDate":"Mar 27th, 2023","Image":"default-farmersmarket-4-3.jpg","ListingID":"313735","Name":"Rock Springs Farmers Market","Description":null,"ContactName":null,"ContactEmail":"info@downtownrs.com","ContactPhone":"307-352-1434","Website":"https:\/\/www.downtownrs.com\/","Facebook":null,"Twitter":null,"Instagram":null,"Pinterest":null,"Youtube":null,"Blog":null,"Address":"501 S Main Depot Rock Springs, WY 82902","State":"Wyoming","City":"Rock Springs","Street":"501 S Main Depot","Zip":"82902","Longitude":"-109.21950998214051","Latitude":"41.58717399071304","Dates":null,"Products":""},{"Type":"farmers market","ModifyDate":"Mar 27th, 2023","Image":"default-farmersmarket-4-3.jpg","ListingID":"313736","Name":"Sheridan Farmers Market","Description":null,"ContactName":null,"ContactEmail":"dsaexecdir@downtownsheridan.org","ContactPhone":"307-672-8881","Website":"https:\/\/downtownsheridan.org\/?page_id=223","Facebook":null,"Twitter":null,"Instagram":null,"Pinterest":null,"Youtube":null,"Blog":null,"Address":"145 N Connor St Sheridan, WY 82801","State":"Wyoming","City":"Sheridan","Street":"145 N Connor St","Zip":"82801","Longitude":"-106.9517509394847","Latitude":"44.79878618225209","Dates":null,"Products":""},{"Type":"farmers market","ModifyDate":"Mar 27th, 2023","Image":"default-farmersmarket-4-3.jpg","ListingID":"313737","Name":"Star Valley Farmers Market","Description":null,"ContactName":null,"ContactEmail":null,"ContactPhone":null,"Website":"http:\/\/www.starvalleyfarmersmarket.org","Facebook":null,"Twitter":null,"Instagram":null,"Pinterest":null,"Youtube":null,"Blog":null,"Address":"111 US Highway 89 Alpine, WY 83125","State":"Wyoming","City":"ALPINE","Street":"111 US H 89","Zip":"83128","Longitude":"-111.02028587265792","Latitude":"43.16245249468756","Dates":null,"Products":""},{"Type":"farmers market","ModifyDate":"Mar 27th, 2023","Image":"default-farmersmarket-4-3.jpg","ListingID":"313738","Name":"State Fair Farmers Market","Description":null,"ContactName":null,"ContactEmail":null,"ContactPhone":"307-777-6319","Website":null,"Facebook":null,"Twitter":null,"Instagram":null,"Pinterest":null,"Youtube":null,"Blog":null,"Address":"400 W Center Douglas, WY 82002","State":"Wyoming","City":"Douglas","Street":"400 W Center","Zip":"82002","Longitude":"-105.3827580106801","Latitude":"42.75957728006659","Dates":null,"Products":""},{"Type":"farmers market","ModifyDate":"Mar 27th, 2023","Image":"default-farmersmarket-4-3.jpg","ListingID":"313739","Name":"Thermopolis Farmers Market","Description":null,"ContactName":null,"ContactEmail":null,"ContactPhone":"307-867-2233","Website":null,"Facebook":null,"Twitter":null,"Instagram":null,"Pinterest":null,"Youtube":null,"Blog":null,"Address":"Broadway and 6th St Thermopolis, WY 82443","State":"Wyoming","City":"Thermopolis","Street":"Broadway and 6th St","Zip":"82443","Longitude":"-108.21197001645899","Latitude":"43.646160007289694","Dates":null,"Products":""},{"Type":"farmers market","ModifyDate":"Mar 27th, 2023","Image":"default-farmersmarket-4-3.jpg","ListingID":"313740","Name":"Thursday Afternoon Farmers Market","Description":null,"ContactName":null,"ContactEmail":null,"ContactPhone":"307-532-2436","Website":null,"Facebook":null,"Twitter":null,"Instagram":null,"Pinterest":null,"Youtube":null,"Blog":null,"Address":"4516 US Hwy 26\/85 Torrington, WY 82240","State":"Wyoming","City":"Torrington","Street":"4516 US Hwy 26\/85","Zip":"82240","Longitude":"-104.22478951150734","Latitude":"42.079843650279884","Dates":null,"Products":""},{"Type":"farmers market","ModifyDate":"Mar 27th, 2023","Image":"default-farmersmarket-4-3.jpg","ListingID":"313741","Name":"Torrington Farmers' Market","Description":null,"ContactName":null,"ContactEmail":"geologyisit@yahoo.com","ContactPhone":"307-534-5530","Website":null,"Facebook":null,"Twitter":null,"Instagram":null,"Pinterest":null,"Youtube":null,"Blog":null,"Address":"4516 US-26, Torrington, WY, 82240","State":"Wyoming","City":"Torrington","Street":"4516 US-26","Zip":"82240","Longitude":"-104.22478951150734","Latitude":"42.079843650279884","Dates":null,"Products":""},{"Type":"farmers market","ModifyDate":"Mar 27th, 2023","Image":"default-farmersmarket-4-3.jpg","ListingID":"313742","Name":"Tuesday Farmers Market","Description":null,"ContactName":null,"ContactEmail":null,"ContactPhone":"307-637-8048","Website":"https:\/\/www.wyomingfreshmarket.org\/","Facebook":null,"Twitter":null,"Instagram":null,"Pinterest":null,"Youtube":null,"Blog":null,"Address":"702 W Lincolnway Cheyenne, WY 82009","State":"Wyoming","City":"Cheyenne","Street":"702 W Lincolnway","Zip":"82009","Longitude":"-104.82097971161188","Latitude":"41.130645384574336","Dates":null,"Products":""},{"Type":"farmers market","ModifyDate":"Mar 27th, 2023","Image":"default-farmersmarket-4-3.jpg","ListingID":"313743","Name":"Washakie Farmers Market","Description":null,"ContactName":null,"ContactEmail":null,"ContactPhone":"307-347-3226","Website":null,"Facebook":null,"Twitter":null,"Instagram":null,"Pinterest":null,"Youtube":null,"Blog":null,"Address":"829 Big Horn Ave Worland, WY 82401","State":"Wyoming","City":"Worland","Street":"829 Big Horn Ave","Zip":"82401","Longitude":"-107.95802973060486","Latitude":"44.01682760014476","Dates":null,"Products":""},{"Type":"farmers market","ModifyDate":"Mar 27th, 2023","Image":"default-farmersmarket-4-3.jpg","ListingID":"313744","Name":"Wheatland Farmers' Market","Description":null,"ContactName":null,"ContactEmail":"dbrecht1951@gmail.com","ContactPhone":"307-322-6232","Website":null,"Facebook":null,"Twitter":null,"Instagram":null,"Pinterest":null,"Youtube":null,"Blog":null,"Address":"711 9th St., Pocket Park, Wheatland, WY, 82201","State":"Wyoming","City":"Wheatland","Street":"711 9th St.","Zip":"82201","Longitude":"-104.95325023885026","Latitude":"42.0545272371574","Dates":null,"Products":""},{"Type":"farmers market","ModifyDate":"Mar 27th, 2023","Image":"default-farmersmarket-4-3.jpg","ListingID":"313745","Name":"White Mountain Mall Farmers' Market","Description":null,"ContactName":null,"ContactEmail":"getbread@comcast.net","ContactPhone":"303-587-9658","Website":"http:\/\/www.whitemountainmallfarmersmarket.com\/","Facebook":null,"Twitter":null,"Instagram":null,"Pinterest":null,"Youtube":null,"Blog":null,"Address":"2441 Foothill Blvd., Rock Springs, WY, 82901","State":"Wyoming","City":"Rock Springs","Street":"2441 Foothill Blvd.","Zip":"82901","Longitude":"-109.2627048128135","Latitude":"41.57982956767448","Dates":null,"Products":""},{"Type":"farmers market","ModifyDate":"Mar 27th, 2023","Image":"default-farmersmarket-4-3.jpg","ListingID":"313746","Name":"Wyoming Women's Expo Farmers Market","Description":null,"ContactName":null,"ContactEmail":null,"ContactPhone":"307-235-8441","Website":"https:\/\/www.wyomingwomensexpo.com\/","Facebook":null,"Twitter":null,"Instagram":null,"Pinterest":null,"Youtube":null,"Blog":null,"Address":"#1 Events Drive Casper, WY 82602","State":"Wyoming","City":"Casper","Street":"1 Events Drive","Zip":"82602","Longitude":"-106.33276375305502","Latitude":"42.8682375014146","Dates":null,"Products":""},{"Type":"farmers market","ModifyDate":"Mar 8th, 2021","Image":"default-farmersmarket-4-3.jpg","ListingID":"300824","Name":"Landon's Greenhouse Farmers Market","Description":null,"ContactName":"Jessica Bohnsack","ContactEmail":"jessicab@landonsgreenhouse.com","ContactPhone":"307-672-8340","Website":"https:\/\/landonsgreenhouse.com\/local-foods\/","Facebook":"Landon's Saturday Farmers Market","Twitter":null,"Instagram":null,"Pinterest":null,"Youtube":null,"Blog":null,"Address":"505 College Meadows Drive, Sheridan, Wyoming 82801","State":"Wyoming","City":"Sheridan","Street":"505 College Meadows Drive","Zip":"82801","Longitude":"-106.94832","Latitude":"44.760524","Dates":"February to May","Products":"Fresh fruits, Fresh vegetables, Baked goods, Canned or preserved fruits\/vegetables, Coffee\/tea, Cut flowers, Dairy products., Dry beans, Eggs, Fresh\/dried herbs, Grains\/flour, Honey, Juices\/non-alcoholic ciders, Nuts, Red\/other non-poultry meat and products"},{"Type":"farmers market","ModifyDate":"Oct 23rd, 2022","Image":"default-farmersmarket-4-3.jpg","ListingID":"301774","Name":"Happy Farmers Market","Description":"Farmers Market, Online Market","ContactName":"Happy Ranch Farm LLC","ContactEmail":"happyranchfarm@gmail.com","ContactPhone":"304-813-1576","Website":"www.happyfarmersmarket.com","Facebook":"","Twitter":"","Instagram":"","Pinterest":"","Youtube":"","Blog":"","Address":"Keyser, WV","State":"Wyoming","City":"Keyser","Street":"","Zip":"26726","Longitude":"-78.9947996","Latitude":"39.4402422","Dates":"10\/01\/2022 to 05\/16\/2023","Products":"Fresh fruits, Fresh vegetables, Baked goods, Bedding plants, Coffee\/tea, Crafts\/woodworking items, Dry beans, Eggs, Fresh\/dried herbs, Grains\/flour, Honey, Mushrooms, Soap\/body care products"},{"Type":"on-farm market","ModifyDate":"Apr 28th, 2020","Image":"default-onfarmmarket-4-3.jpg","ListingID":"701521","Name":"Our Wyoming Life Farm Store","Description":null,"ContactName":"Erin Galloway","ContactEmail":"erin@ourwyominglife.com","ContactPhone":"3076892223","Website":"ourwyominglife.com","Facebook":"https:\/\/www.facebook.com\/ourwyominglifefarmstore\/","Twitter":null,"Instagram":null,"Pinterest":null,"Youtube":null,"Blog":null,"Address":"1141 State Hwy 50, Gillette, Wyoming 82718","State":"Wyoming","City":"Gillette","Street":"1141 State Hwy 50","Zip":"82718","Longitude":"-105.63268","Latitude":"44.174991","Dates":null,"Products":""},{"Type":"on-farm market","ModifyDate":"Feb 5th, 2022","Image":"default-onfarmmarket-4-3.jpg","ListingID":"701631","Name":"Taste of the Wind LLC","Description":null,"ContactName":"BJ Edwards","ContactEmail":"BJ@tasteofthewind.com","ContactPhone":"3073994893","Website":"www.tasteofthewind.com","Facebook":"www.facebook.com\/tasteofthewind307","Twitter":null,"Instagram":null,"Pinterest":null,"Youtube":null,"Blog":"www.tasteofthewind.com\/blog","Address":"124 Fox Creek Rd, Laramie, Wyoming 82070","State":"Wyoming","City":"Laramie","Street":"124 Fox Creek Rd","Zip":"82070","Longitude":"-106.07469","Latitude":"41.186631","Dates":null,"Products":""},{"Type":"on-farm market","ModifyDate":"Jan 14th, 2022","Image":"default-onfarmmarket-4-3.jpg","ListingID":"701628","Name":"Reed Livestock LLC","Description":null,"ContactName":"THOMAS L REED","ContactEmail":"Trfire2000@gmail.com","ContactPhone":"3073517694","Website":"sagebrushbeef.com","Facebook":"Reed Livestock","Twitter":null,"Instagram":null,"Pinterest":null,"Youtube":null,"Blog":null,"Address":"1003 Dull Center Rd., Douglas, Wyoming 82633","State":"Wyoming","City":"Douglas","Street":"1003 Dull Center Rd.","Zip":"82633","Longitude":"-105.13780","Latitude":"43.290296","Dates":null,"Products":""},{"Type":"on-farm market","ModifyDate":"Oct 6th, 2017","Image":"default-onfarmmarket-4-3.jpg","ListingID":"701431","Name":"Case Custom Meats","Description":null,"ContactName":"Paul Case","ContactEmail":"Caseheritagepork@gmail.com","ContactPhone":"307-286-1626","Website":"www.casecustommeats.com","Facebook":"Www.facebook.com\/casecustommeats","Twitter":null,"Instagram":null,"Pinterest":null,"Youtube":null,"Blog":null,"Address":", Yoder, Wyoming 82244","State":"Wyoming","City":"Yoder","Street":null,"Zip":"82244","Longitude":"-104.28372","Latitude":"41.915028","Dates":null,"Products":""}]