Type,ModifyDate,Image,ListingID,Name,Description,ContactName,ContactEmail,ContactPhone,Website,Facebook,Twitter,Instagram,Pinterest,Youtube,Blog,Address,State,City,Street,Zip,Longitude,Latitude,Dates,Products
farmers market,"Apr 18th, 2022",farmersmarket_301567_11030_20220418214543.png,301567,Decorah Farmers Market,,Kristin Eggen,decorahmarket@gmail.com,608-306-1246,decorahfarmersmarket.com,https://www.facebook.com/decorahfarmersmarket/,,,,,,"Heivly Street, Decorah, Iowa 52101",Iowa,Decorah,Heivly Street,52101,-91.78475,43.301618,May to October,"Fresh fruits, Fresh vegetables, Baked goods, Bedding plants, Canned or preserved fruits/vegetables, Crafts/woodworking items, Cut flowers, Dry beans, Eggs, Fresh/dried herbs, Honey, Juices/non-alcoholic ciders, Maple products, Mushrooms, Nursery stock, Prepared foods, Soap/body care products, Wild harvested forest products, Wine, spirits, beer, hard cider"
farmers market,"Aug 12th, 2022",farmersmarket_301674_45_20220328131932.png,301674,Charles City Farmers Market,,Mark Wicks,info@charlescitychamber.com,(641) 228-4234,www.charlescitychamber.com,https://www.facebook.com/charlescityFM,,,,,,"300 N Main St, Charles City, IA, USA",Iowa,Charles City,300 North Main Street,50616,-92.6776165,43.068022,05/07/2022 to 10/15/2022,
farmers market,"Aug 12th, 2022",farmersmarket_301676_45_20220328134325.png,301676,Clear Lake Farmers Market,,Erin McCord,clfarmersmarket@gmail.com,(641) 590-6506,www.clearlakefarmersmarket.com,https://www.facebook.com/clearlakefarmersmarket/,,https://www.instagram.com/clfarmersmarket/,,,,"460 North Shore Drive, Clear Lake, IA, USA",Iowa,Clear Lake,460 North Shore Drive,50428,-93.3896833,43.1398644,05/21/2022 to 10/15/2022,
farmers market,"Aug 12th, 2022",farmersmarket_301678_45_20220328140329.png,301678,Hampton Community Farmers Market,,Karen Koenig,,(641) 456-4811,,https://www.facebook.com/HamptonFarmersMarket,,,,,,"225 Central Avenue West, Hampton, IA, USA",Iowa,Hampton,225 Central Avenue West,50441,-93.210793,42.7419894,05/16/2022 to 10/16/2022,
farmers market,"Aug 12th, 2022",farmersmarket_301681_45_20220328143934.png,301681,Mason City Farmers Market,,Erin McCord,masoncityiafarmersmarket@gmail.com,(641) 590-6506,www.masoncityfarmersmarket.com,https://www.facebook.com/masoncityfarmersmarket/,,https://www.instagram.com/masoncityfarmersmarket/,,,,"1st St NW & North Federal Avenue, Mason City, IA, USA",Iowa,Mason City,1st Street Northwest & North Federal Avenue,50401,-93.20107589999999,43.1527006,06/04/2022 to 10/15/2022,
farmers market,"Aug 9th, 2020",default-farmersmarket-4-3.jpg,300439,iowa falls farmers' market,,Danny Blair,dannyblair@windstream.net,5158515356,,,,,,,,"Corner of Rocksylvania Ave. anb Stevens St., Iowa Falls, Iowa 50126",Iowa,Iowa Falls,Corner of Rocksylvania Ave. anb Stevens St.,50126,-93.264356,42.521222,May to October,"Fresh fruits, Fresh vegetables, Baked goods, Bedding plants, Canned or preserved fruits/vegetables, Crafts/woodworking items, Cut flowers, Eggs, Fresh/dried herbs, Soap/body care products"
farmers market,"Aug 9th, 2020",default-farmersmarket-4-3.jpg,300441,Eldora Farmers Market,,Danny Blair,dannyblair@windstream.net,5158515356,,,,,,,,"Corner of Edgington Ave. and 14th Street, Eldora, Iowa 50627",Iowa,Eldora,Corner of Edgington Ave. and 14th Street,50627,-93.100656,42.360510,May to October,"Fresh fruits, Fresh vegetables, Baked goods, Bedding plants, Canned or preserved fruits/vegetables, Crafts/woodworking items, Cut flowers, Fresh/dried herbs"
farmers market,"Feb 12th, 2021",default-farmersmarket-4-3.jpg,301435,Freight House Farmers' Market,,Lorrie Beaman,director@freighthousefarmersmarket.com,5633226009,www.freighthousefarmersmarket.com,www.fb.com/freighthousefarmersmarket,,,,https://www.youtube.com/channel/UCAhsofrLDEQDLA6xY7l9Ujw,,"421 West River Drive #32, Davenport, Iowa 52801",Iowa,Davenport,421 West River Drive #32,52801,-90.582083,41.519748,Year-round,"Fresh fruits, Fresh vegetables, Baked goods, Bedding plants, Canned or preserved fruits/vegetables, Coffee/tea, Crafts/woodworking items, Cut flowers, Dairy products., Dry beans, Eggs, Fish/seafood, Fresh/dried herbs, Grains/flour, Honey, Juices/non-alcoholic ciders, Maple products, Mushrooms, Nuts, Pet food, Poultry/fowl meat and products, Prepared foods, Red/other non-poultry meat and products, Soap/body care products, Tofu/non-animal protein, Wild harvested forest products, Wine, spirits, beer, hard cider"
farmers market,"Feb 16th, 2021",default-farmersmarket-4-3.jpg,300561,Guttenberg Farmers Market,,Brandie Tomkins,guttenberg@alpinecom.net,5632522323,http://www.guttenbergiowa.net/farmers-market.html,https://www.facebook.com/GuttenbergFarmersMarket/,,,,,,"400 Block of South River Park Drive, Guttenberg, Iowa 52052",Iowa,Guttenberg,400 South River Park Drive,52052,-91.095446,42.782433,May to October,"Fresh fruits, Fresh vegetables, Baked goods, Bedding plants, Canned or preserved fruits/vegetables, Crafts/woodworking items, Cut flowers, Eggs, Fish/seafood, Fresh/dried herbs, Honey, Maple products, Mushrooms, Red/other non-poultry meat and products, Soap/body care products"
farmers market,"Feb 21st, 2022",default-farmersmarket-4-3.jpg,301663,Marion Farmers Market,,Tracey Teel,tteel@cityofmarion.org,319-447-3590,https://www.cityofmarion.org/recreation/parks-recreation/parks/farmers-market,,,,,,,"2200 31st St, Marion, Iowa 52302",Iowa,Marion,2200 31st St,52302,-91.580645,42.044309,,"Fresh fruits, Fresh vegetables, Baked goods, Bedding plants, Canned or preserved fruits/vegetables, Crafts/woodworking items, Cut flowers, Fresh/dried herbs, Honey, Pet food, Poultry/fowl meat and products, Prepared foods, Red/other non-poultry meat and products, Soap/body care products, Wild harvested forest products"
farmers market,"Jan 25th, 2021",default-farmersmarket-4-3.jpg,300031,Shelby County Farmers Market,,Elaine Baughman,rbaughman@fmctc.com,712-766-3219,,https://www.facebook.com/pages/Shelby-County-Farmers-Market/,,,,,,"Hwys 44 and 59, Harlan, Iowa 51537",Iowa,Harlan,Hwys 44 and 59,51537,-95.338882,41.645926,June to October,"Fresh fruits, Fresh vegetables, Baked goods, Canned or preserved fruits/vegetables, Eggs, Fresh/dried herbs, Honey, Nursery stock"
farmers market,"Jan 28th, 2021",default-farmersmarket-4-3.jpg,300043,Red Oak Farmers Market,,Steven Turman,sturman@visibleedge.com,712-623-8919,redoakfarmersmarket.com,facebook.com@redoakfarmersmarket,,,,,,"307 East Reed Street, Red Oak, Iowa 51566",Iowa,Red Oak,307 East Reed Street,51566,-95.228044,41.009641,May to October,"Fresh fruits, Fresh vegetables, Baked goods, Canned or preserved fruits/vegetables, Crafts/woodworking items, Eggs, Fresh/dried herbs, Honey"
farmers market,"Jan 28th, 2021",default-farmersmarket-4-3.jpg,300510,Manson Farmers Market,,Mark Lynch,mjlynch@wccta.net,5155710384,,https://www.facebook.com/mansoniafarmersmarket,,,,,,"Manson , Iowa 50563",Iowa,Manson,,50563,-94.539507,42.527104,July to August,"Fresh fruits, Fresh vegetables, Baked goods, Canned or preserved fruits/vegetables, Eggs, Honey, Wine, spirits, beer, hard cider"
farmers market,"Jan 4th, 2021",default-farmersmarket-4-3.jpg,300154,Dubuque Farmers Market,,Jo Lynn Pike,jolynn@dubuquemainstreet.org,563-588-4400,www.DubuqueFarmersMarket.org,https://www.facebook.com/dbqfarmersmarket,,,,,,"Iowa Street between 10th & 13th Streets, Dubuque, Iowa 52001",Iowa,Dubuque,Iowa Street between 10th & 13th Streets,52001,-90.667851,42.504521,May,"Fresh fruits, Fresh vegetables, Baked goods, Bedding plants, Canned or preserved fruits/vegetables, Coffee/tea, Crafts/woodworking items, Cut flowers, Dairy products., Eggs, Fish/seafood, Fresh/dried herbs, Grains/flour, Honey, Juices/non-alcoholic ciders, Maple products, Mushrooms, Nursery stock, Nuts, Pet food, Poultry/fowl meat and products, Prepared foods, Red/other non-poultry meat and products, Soap/body care products, Wild harvested forest products, Wine, spirits, beer, hard cider"
farmers market,"Jan 4th, 2021",default-farmersmarket-4-3.jpg,300438,Ida Area Farmers' Market,,Becky Ricklefs,bricklefs47@gmail.com,712-364-2102,www.idafarmersmarket.com,Ida Area Farmers Market,,,,,,"2nd Street, Ida Grove, Iowa 51445",Iowa,Ida Grove,2nd Street,51445,-95.470874,42.345173,June to September,"Fresh fruits, Fresh vegetables, Baked goods, Canned or preserved fruits/vegetables, Crafts/woodworking items, Eggs, Honey, Nuts, Soap/body care products, Wine, spirits, beer, hard cider"
farmers market,"Jan 5th, 2021",default-farmersmarket-4-3.jpg,300349,Ames Main Street Farmers' Market,,Lojean Petersen,amesmarket@gmail.com,515-232-2310,www.amesmainsteetfarmersmarket.com,Ames Main Street Farmers' Market,,,,,,"300 & 400 Blocks of  Main Street, Ames, IA, Iowa 50010",Iowa,"Ames, IA",300 & 400 Blocks of  Main Street,50010,-93.614943,42.025222,May to October,"Fresh fruits, Fresh vegetables, Baked goods, Bedding plants, Canned or preserved fruits/vegetables, Coffee/tea, Crafts/woodworking items, Cut flowers, Dairy products., Eggs, Fresh/dried herbs, Honey, Juices/non-alcoholic ciders, Mushrooms, Nuts, Pet food, Poultry/fowl meat and products, Prepared foods, Red/other non-poultry meat and products, Soap/body care products, Wild harvested forest products, Wine, spirits, beer, hard cider"
farmers market,"Jan 6th, 2021",default-farmersmarket-4-3.jpg,300485,Davenport Farmers' Market,,Gary Weber,farmer71@aol.com,563-332-5529,mvgrowers.com,Mississippi Valley Growers farmers Market,,,,,,"North Park Mall east entrance, Davenport, Iowa 52804",Iowa,Davenport,North Park Mall east entrance,52804,-90.571154,41.562863,May,"Fresh fruits, Fresh vegetables, Baked goods, Bedding plants, Canned or preserved fruits/vegetables, Cut flowers, Eggs, Honey, Pet food, Prepared foods"
farmers market,"Mar 10th, 2021",default-farmersmarket-4-3.jpg,301453,Grinnell Farmers Market,,Kendra Vincent,marketing@getintogrinnell.com,641-236-6555,www.grinnellfarmersmarket.com,facebook.com/grinnellfarmersmarket,,,,,,"833 4th Ave, Grinnell, Iowa 50112",Iowa,Grinnell,833 4th Ave,50112,-92.724057,41.743189,May to October,"Fresh fruits, Fresh vegetables, Baked goods, Bedding plants, Canned or preserved fruits/vegetables, Crafts/woodworking items, Cut flowers, Eggs, Honey, Mushrooms, Poultry/fowl meat and products, Prepared foods, Red/other non-poultry meat and products, Soap/body care products, Wild harvested forest products"
farmers market,"Mar 21st, 2023",default-farmersmarket-4-3.jpg,310148,Adel Farmers Market,,,nschenck@adeliowa.org,515-993-3916,https://discoveradel.com/2010/04/12/summer-farmers-market-comes-to-adel/,,,,,,,"611 Nile Kinnick Dr. S. Adel, IA 50003",Iowa,Adel,611 Nile Kinnick Dr. S.,50003,-94.0174216485397,41.6119285615727,,
farmers market,"Mar 21st, 2023",default-farmersmarket-4-3.jpg,310149,Akron Farmers Market,,,,712-389-0153,,,,,,,,"Hwy. 12 and Big Sioux River Rd Akron, IA 51001",Iowa,Akron,Hwy. 12 and Big Sioux River Rd,51001,-96.56371997509325,42.82370998189958,,
farmers market,"Mar 21st, 2023",default-farmersmarket-4-3.jpg,310150,Albion Farmers Market,,,,641-352-0727,,,,,,,,"201 S. Main St. Albion, IA 50005",Iowa,Albion,201 S. Main St.,50005,-92.99006214666498,42.11026848918053,,
farmers market,"Mar 21st, 2023",default-farmersmarket-4-3.jpg,310151,Allamakee Farmers Market,,,xallamakee@iastate.edu,563-568-6345,http://www.extension.iastate.edu/allamakee,,,,,,,"705 Allamakee Street Allamakee County Fairgrounds Waukon, IA 52172",Iowa,Waukon,705 Allamakee Street,52172,-91.47548258707803,43.27584139752018,,
farmers market,"Mar 21st, 2023",default-farmersmarket-4-3.jpg,310152,Amana Colonies Farmer's Market,,,,319-622-3931,http://www.henrysvillagemarket.com,,,,,,,"4125 V Street homestead, IA 52236",Iowa,HOMESTEAD,4125 V ST,52236,-91.87733737549361,41.761249155264096,,
farmers market,"Mar 21st, 2023",default-farmersmarket-4-3.jpg,310153,Amana Farmers Market,,,,800-579-2294,,,,,,,,"4536 220th Trail - behind Lehm Books Amana, IA 52203",Iowa,Amana,4536 220th Trail - behind Lehm Books,52203,-91.86983227106506,41.799843622319614,,
farmers market,"Mar 21st, 2023",default-farmersmarket-4-3.jpg,310154,Anamosa Farmers Market,,,,319-462-2971,,,,,,,,"Scott & Main Street Anamosa, IA 52205",Iowa,Anamosa,Scott & Main Street,52205,-91.27949999239273,42.10826999606019,,
farmers market,"Mar 21st, 2023",default-farmersmarket-4-3.jpg,310155,Anita Farmers Market,,,,712-774-5312,,,,,,,,"E. Main Street, SE corner of City Park Anita, IA 50020",Iowa,Anita,"E. Main Street, SE corner of City Park",50020,-94.76061079756556,41.44736980916876,,
farmers market,"Mar 21st, 2023",default-farmersmarket-4-3.jpg,310156,Ankeny Uptown Farmers' Market,,,,,http://www.uptownankeny.org,http://www.facebook.com/uptownankeny,,,,,,"715 W 1st Street Ankeny, IA 50023 Parking in the Pavilion Park and the Ankeny Park & Ride",Iowa,ANKENY,715 W 1ST ST,50023,-93.6089566209245,41.731899935984615,,
farmers market,"Mar 21st, 2023",default-farmersmarket-4-3.jpg,310157,Atlantic Farmers Market,,,,712-249-2758,,,,,,,,"1200 7th Street E. Atlantic, IA 50022",Iowa,Atlantic,1200 7th Street E.,50022,-95.03640098175283,41.393387808764636,,
farmers market,"Mar 21st, 2023",default-farmersmarket-4-3.jpg,310158,Avoca Main Street Market,,,,,,https://www.facebook.com/avocamainstreet/,,,,,,"N. Walnut & W. High St., Avoca, IA, 51521",Iowa,Avoca,N. Walnut & W. High St.,51521,-95.33796001008616,41.476600007841654,,
farmers market,"Mar 21st, 2023",default-farmersmarket-4-3.jpg,310159,Belmond Area Farmers Market,,,,641-853-2483,,,,,,,,"200 Main Belmond, IA 50421",Iowa,Belmond,200 Main,50421,-93.6154101880439,42.84584391135495,,
farmers market,"Mar 21st, 2023",default-farmersmarket-4-3.jpg,310160,Bondurant Farmers' Market,,,bondufarmersmarket@gmail.com,,,https://www.facebook.com/TheBondurantFarmersMarket,,,,,,"Main St. SE and Grain St. NE, Bondurant, IA, 50035",Iowa,Bondurant,Main St. SE and Grain St. NE,50035,-93.46201737556459,41.699030258482615,,
farmers market,"Mar 21st, 2023",default-farmersmarket-4-3.jpg,310161,Britt Farmers' Market,,,,641-860-1516,,https://www.facebook.com/BrittCorwithKanawhaFarmersMarkets?ref=hl,,,,,,"170 Main Avenue S Britt, IA 50423",Iowa,Britt,170 Main Avenue S,50423,-93.80180133145569,43.09540352701528,,
farmers market,"Mar 21st, 2023",default-farmersmarket-4-3.jpg,310162,Carlisle Farmers' Market,,,mmgoodhue06@yahoo.com,515-989-3140,,https://www.facebook.com/CarlisleFarmersMarket,,,,,,"95 Hwy. 5, Carlisle, IA, 50047",Iowa,Carlisle,95 Hwy. 5,50047,-93.48607103968322,41.494974019702056,,
farmers market,"Mar 21st, 2023",default-farmersmarket-4-3.jpg,310163,Carroll Farmers Market,,,,712-792-4415,,,,,,,,"515 N. Adams, Westgate Mall Parking lot Carroll, IA 51401",Iowa,Carroll,"515 N. Adams, Westgate Mall Parking lot",51401,-94.86960801057033,42.0656700209089,,
farmers market,"Mar 21st, 2023",default-farmersmarket-4-3.jpg,310164,Cartwright Downtown Farmer's Market,,,,641-351-9181,,http://www.facebook.com/CartwrightPavilionFarmersMarket,,,,,,"108 North Second Avenue Marshalltown, IA 50158 On corner of 2nd Avenue and State Street, East of Big 8 Tyre Center. Off-street parking available as well as street parking.",Iowa,MARSHALLTOWN,108 N 2ND AVE,50158,-92.90966137713454,42.05057670870549,,
farmers market,"Mar 21st, 2023",default-farmersmarket-4-3.jpg,310165,Cascade Farmers Market,,,clerk@citycascade.com,563-879-3234,https://www.cascadeiowa.org/,,,,,,,"1st Avenue W - Riverview Park Cascade, IA 52033",Iowa,Cascade,1st Avenue W - Riverview Park,52033,-91.01873079487694,42.29705534611378,,
farmers market,"Mar 21st, 2023",default-farmersmarket-4-3.jpg,310166,Cedar Valley Farmers Market - Kimball Ridge,,,,319-296-1840,,,,,,,,"200 E Ridgeway Ave, behind Covenant Cancer Treatment Ctr. Waterloo, IA 50703",Iowa,Waterloo,"200 E Ridgeway Ave, behind Covenant Cancer Treatment Ctr.",50703,-92.35492700354891,42.46889400410879,,
farmers market,"Mar 21st, 2023",default-farmersmarket-4-3.jpg,310167,Centerville Farmers Market,,,,608-386-5547,,,,,,,,"751 East Maple St Centerville, IA 52544",Iowa,Centerville,751 East Maple St,52544,-92.867461342129,40.73251129710981,,
farmers market,"Mar 21st, 2023",default-farmersmarket-4-3.jpg,310168,Central City Farmers' Market,,,weighton@iowatelecom.net,319-438-9901,http://www.ccmainstreet.org/news-events.html,,,,,,,"Courtyard Park, S. 5th St., Central City, IA, 52214",Iowa,Central City,"Courtyard Park, S. 5th St.",52214,-91.5233819603425,42.20225606883426,,
farmers market,"Mar 21st, 2023",default-farmersmarket-4-3.jpg,310169,Charles City Area Farmers' Market,,,mark@charlescitychamber.com,641-228-2335,http://www.charlescitychamber.com/do/,,,,,,,"300 N. Main St., Central Park, Charles City, IA, 50616",Iowa,Charles City,"300 N. Main St., Central Park",50616,-92.67805653693532,43.06817228897652,,
farmers market,"Mar 21st, 2023",default-farmersmarket-4-3.jpg,310170,Cherokee Area Farmers' Market,,,,712-229-9502,,,,,,,,"119 S. 4th St. Cherokee, IA 51012",Iowa,Cherokee,119 S. 4th St.,51012,-95.55354779214375,42.74877659687284,,
farmers market,"Mar 21st, 2023",default-farmersmarket-4-3.jpg,310171,Clarke County Farmers Market,,,,641-342-2909,,,,,,,,"100 S. Main Osceola, IA 50213",Iowa,Osceola,100 S. Main,50213,-93.76567655781888,41.03484968563928,,
farmers market,"Mar 21st, 2023",default-farmersmarket-4-3.jpg,310172,College Hill Farmers Market,,,,319-273-7194,,https://www.facebook.com/collegehillfarmersmarket/,,,,,,"2205 College Street Cedar Falls, IA 50613",Iowa,Cedar Falls,2205 College Street,50613,-92.45575794855756,42.5176543684812,,
farmers market,"Mar 21st, 2023",default-farmersmarket-4-3.jpg,310173,Columbus Junction Community Farmers Market,,,,319-728-7971,http://www.columbusjunctioniowa.org/,https://www.facebook.com/columbus%20farmers-market,,,,,,"101 Fairgrounds Rd Off Highway 92 Columbus Junction, IA 52738",Iowa,Columbus Junction,101 Fairgrounds Rd,52738,-91.35372206996465,41.27572295291854,,
farmers market,"Mar 21st, 2023",default-farmersmarket-4-3.jpg,310174,Coon Rapids Farmers' Market,,,CRDG@crm.net,641-343-7176,,,,,,,,"Corner of Hwy. 141 & 5th Ave., Coon Rapids, IA, 50058",Iowa,Coon Rapids,Corner of Hwy. 141 & 5th Ave.,50058,-94.67750996103395,41.86570999765104,,
farmers market,"Mar 21st, 2023",default-farmersmarket-4-3.jpg,310175,Coralville Farmers Market,,,abuhmeyer@coralville.org,319-248-1750,https://www.coralville.org/,https://facebook.com/coralvillefarmersmarket,,,,,,"1513 7th St. Coralville, IA 52241",Iowa,Coralville,1513 7th St.,52241,-91.58375739737545,41.67846667558245,,
farmers market,"Mar 21st, 2023",default-farmersmarket-4-3.jpg,310176,Corydon Farmers Market,,,kmartley@iastate.edu,,,,,,,,,"100 N. Lafayette, Courthouse Lawn, Corydon, IA, 50060",Iowa,Corydon,"100 N. Lafayette, Courthouse Lawn",50060,-93.31723738379084,40.757879306284075,,
farmers market,"Mar 21st, 2023",default-farmersmarket-4-3.jpg,310177,Cresco Farmers Market,,,,563-547-2231,,,,,,,,"112 2nd Street SW, Grube%27s north lot Cresco, IA 52136",Iowa,Cresco,"112 2nd Street SW, Grube's north lot",52136,-92.1189739984083,43.371922994671365,,
farmers market,"Mar 21st, 2023",default-farmersmarket-4-3.jpg,310178,Creston Farmers' Market,,,,641-247-1663,,https://www.facebook.com/crestonmarket,,,,,,"1696 Highway 25 (mail only) Creston, IA 50801",Iowa,Creston,1696 Highway 25 (mail only),50801,-94.39499104134505,41.07341001325912,,
farmers market,"Mar 21st, 2023",default-farmersmarket-4-3.jpg,310179,Davis County Farmers Market,,,,641-459-3387,,,,,,,,"100 E. Jefferson St. Bloomfield, IA 52537",Iowa,Bloomfield,100 E. Jefferson St.,52537,-92.4151535761145,40.75170095226981,,
farmers market,"Mar 21st, 2023",default-farmersmarket-4-3.jpg,310180,Denison Farmers Market,,,,712-263-5621,,,,,,,,"18 S Main Street Denison, IA 51442",Iowa,Denison,18 S Main Street,51442,-95.35528477626296,42.01660856871189,,
farmers market,"Mar 21st, 2023",default-farmersmarket-4-3.jpg,310181,Downtown Farmers Market,,,,515-286-4928,https://www.desmoinesfarmersmarket.com/,https://www.facebook.com/DowntownFarmersMarket,,,,,,"4th Street & Court Ave Des Moines, IA 50309",Iowa,Des Moines,4th Street & Court Ave,50309,-93.62165997439142,41.58504000007409,,
farmers market,"Mar 21st, 2023",default-farmersmarket-4-3.jpg,310182,Downtown Farmers Market,,,,319-398-5317,https://www.cedar-rapids.org/resident-resources/parks-recreation/farmers-markets/pages/default.aspx,,,,,,,"3rd Avenue & 3rd Street Cedar Rapids, IA 52403",Iowa,Cedar Rapids,3rd Avenue & 3rd Street,52403,-91.67444001495579,41.97370998187628,,
farmers market,"Mar 21st, 2023",default-farmersmarket-4-3.jpg,310183,Downtown Sioux City Farmers' Market,,,siouxcityfarmersmarket@gmail.com,712-252-0014,http://www.farmersmarketsiouxcity.com/,,,,,,,"Corner of Pearl St. and Tri View Ave., Tyson Events Center Suite Parking Lot, Sioux City, IA, 51101",Iowa,Sioux City,"Corner of Pearl St. and Tri View Ave., Tyson Events Center Suite Parking Lot",51101,-96.40828998592137,42.49130997922799,,
farmers market,"Mar 21st, 2023",default-farmersmarket-4-3.jpg,310184,Downtown Waterloo Farmers' Market,,,,319-404-0901,,https://www.facebook.com/downtownwaterloo.farmersmarket,,,,,,"327 W. 3rd St., Riverloop Expo Plaza, Waterloo, IA, 50703",Iowa,Waterloo,"327 W. 3rd St., Riverloop Expo Plaza",50703,-92.33682727323665,42.50069570338061,,
farmers market,"Mar 21st, 2023",default-farmersmarket-4-3.jpg,310185,Dubuque County Fairgrounds Farmers' Market,,,,563-879-3234,,,,,,,,"14583 Old Highway Rd., Dubuque, IA, 52002",Iowa,Dubuque,14583 Old Highway Rd.,52002,-90.77417101870408,42.48175977338356,,
farmers market,"Mar 21st, 2023",default-farmersmarket-4-3.jpg,310186,Dubuque Main Street Farmers' Market,,,Laura@dubuquemainstreet.org,563-588-4400,http://www.dubuquemainstreet.org/fm.html,https://www.facebook.com/dbqfarmersmarket,,,,,,"13th St. and Central St., Central St. & Iowa St., Dubuque, IA, 52001",Iowa,Dubuque,"13th St. and Central St., Central St. & Iowa St.",52001,-90.66727002648044,42.505510012854586,,
farmers market,"Mar 21st, 2023",default-farmersmarket-4-3.jpg,310187,Dubuque Winter Farmers' Market,,,office@fourmounds.org,,http://wintermarketdbq.com/,https://www.facebook.com/DubuqueWinterFarmersMarket,,,,,,"1101 Central Ave., Colts' Building, Dubuque, IA, 52001",Iowa,Dubuque,"1101 Central Ave., Colts' Building",52001,-90.66647347938024,42.50396114483055,,
farmers market,"Mar 21st, 2023",default-farmersmarket-4-3.jpg,310188,Durant Farmers' Market,,,durantFM@yahoo.com,563-785-4764,,https://www.facebook.com/Durant-Farmers-Market-284276258415526,,,,,,"712 5th St., Pythias Park next to Fire Station, Durant, IA, 52747",Iowa,Durant,712 5th St.,52747,-90.9099362113902,41.60055840675737,,
farmers market,"Mar 21st, 2023",default-farmersmarket-4-3.jpg,310189,Dyersville Area Farmers Market,,,lead@fusedyersville.com,563-875-2311,https://www.dyersville.org/,,,,,,,"Commerical Club Park (Hwy 136) Dyersville, IA 52040",Iowa,Dyersville,Commerical Club Park,52040,-91.11427162730674,42.471192554590885,,
farmers market,"Mar 21st, 2023",default-farmersmarket-4-3.jpg,310190,Eastside Farmers Market,,,,515-265-3694,,,,,,,,"3200 Delaware Avenue Des Moines, IA 50313",Iowa,Des Moines,3200 Delaware Avenue,50313,-93.5813315078735,41.627190351036646,,
farmers market,"Mar 21st, 2023",default-farmersmarket-4-3.jpg,310191,Elgin Area Growers' Market,,,,563-426-5591,http://www.elginiowa.org/TCMARKET.html,,,,,,,"241 Center St., City Park next to Elgin State Bank, Elgin, IA, 52141",Iowa,Elgin,241 Center St,52141,-91.62855134606527,42.9573230659604,,
farmers market,"Mar 21st, 2023",default-farmersmarket-4-3.jpg,310192,Everly Farmers Market,,,,712-834-2691,,,,,,,,"County Rd. B-24 Everly, IA 51338",Iowa,Everly,County Rd. B-24,51338,-95.28973320794101,43.14126773433057,,
farmers market,"Mar 21st, 2023",default-farmersmarket-4-3.jpg,310193,Farm Fresh Farmers Market,,,,319-752-7608,,,,,,,,"3302 Agency St. Burlington, IA 52601",Iowa,Burlington,3302 Agency St.,52601,-91.14427527142725,40.814898888275145,,
farmers market,"Mar 21st, 2023",default-farmersmarket-4-3.jpg,310194,Farm King Farmers Market,,,,319-752-7111,,,,,,,,"609 S Gear West Burlington, IA 52655",Iowa,West Burlington,609 S Gear,52655,-91.17239301613178,40.819482980677606,,
farmers market,"Mar 21st, 2023",default-farmersmarket-4-3.jpg,310195,Farmington Farmers Market,,,,319-878-4255,,,,,,,,"607 S Front St Farmington, IA 52626",Iowa,Farmington,607 S Front St,52626,-91.7416429642646,40.63530296232687,,
farmers market,"Mar 21st, 2023",default-farmersmarket-4-3.jpg,310196,Franklin County Farmers Market,,,,641-456-4811,,,,,,,,"1st St. NW & 1st Ave. NW Hampton, IA 50441",Iowa,Hampton,1st St. NW & 1st Ave. NW,50441,-93.208680000719,42.74270001926584,,
farmers market,"Mar 21st, 2023",default-farmersmarket-4-3.jpg,310197,Ft Madison Farmers Market,,,chamber@fortmadison.com,319-372-5471,https://fortmadison.com/visit-us/thingstodo/farmersmarket/,,,,,,,"9th & Avenue E Fort Madison, IA 52627",Iowa,Fort Madison,9th & Avenue E,52627,-91.3134499691955,40.63300998445274,,
farmers market,"Mar 21st, 2023",default-farmersmarket-4-3.jpg,310198,Garner Farmers' Market,,,amyj.griffey@icloud.com,641-843-8811,https://www.garneriachamber.com/event/garner-farmers-market/,,,,,,,"corner of Hwy. 69 & Hwy. 18, east of Tammy's Pharmacy, Garner, IA, 50438",Iowa,Garner,corner of Hwy. 69 & Hwy. 18,50438,-93.63261000888077,43.10491000912381,,
farmers market,"Mar 21st, 2023",default-farmersmarket-4-3.jpg,310199,Green Hills Produce & Crafts Farmers Market,,,deogburn@frontiernet.net,515-322-3382,,,,,,,,"8th St. and Davis Ave., Corning, IA, 50841",Iowa,Corning,8th St. and Davis Ave.,50841,-94.73440003336147,40.9899500203272,,
farmers market,"Mar 21st, 2023",default-farmersmarket-4-3.jpg,310200,Greene County Farmers Market,,,,515-386-2155,,https://www.facebook.com/GreeneCountyFarmersMarket/,,,,,,"220 N Chestnut #FM Jefferson, IA 50129",Iowa,Jefferson,220 N Chestnut #FM,50129,-94.37378298229248,42.017004020520034,,
farmers market,"Mar 21st, 2023",default-farmersmarket-4-3.jpg,310201,Grundy Center Farmers' Market,,,Meow2Acres@yahoo.com,319-824-6075,,https://www.facebook.com/GrundyCenterFarmersMarket,,,,,,"700 7th St., Courthouse Square, Grundy Center, IA, 50638",Iowa,Grundy Center,"700 7th St., Courthouse Square",50638,-92.77262706713114,42.361413726997625,,
farmers market,"Mar 21st, 2023",default-farmersmarket-4-3.jpg,310202,Guthrie Center Farmers Market,,,,515-822-4744,,,,,,,,"S. 4th Street Guthrie Center, IA 50115",Iowa,Guthrie Center,S. 4th Street,50115,-94.50346786921048,41.675964994891906,,
farmers market,"Mar 21st, 2023",default-farmersmarket-4-3.jpg,310203,Harrison County Welcome Center Farmers Market,,,,712-642-2114,,http://www.facebook.com/profile.php?id=1382820262#!/pages/Harrison-County-Iowa-Welcome-Center/198265796855610,,,,,,"2931 Monroe Avenue Missouri Valley, IA 51555",Iowa,MISSOURI VALLEY,2931 MONROE AVE,51555,-95.84691549608678,41.58510005317672,,
farmers market,"Mar 21st, 2023",default-farmersmarket-4-3.jpg,310204,Hawarden Farmers Market,,,,712-550-1949,,,,,,,,"13th St. & Avenue E Hawarden, IA 51023",Iowa,Hawarden,13th St. & Avenue E,51023,-96.48795000113917,43.00076000066508,,
farmers market,"Mar 21st, 2023",default-farmersmarket-4-3.jpg,310205,Highland Park Farmers' Market,,,hsanders0519@aol.com,,,,,,,,,"147 E. Euclid, Highland Park Lutheran Church, Des Moines, IA, 50313",Iowa,Des Moines,147 E. Euclid,50313,-93.61958168079137,41.62770001108131,,
farmers market,"Mar 21st, 2023",default-farmersmarket-4-3.jpg,310206,Highway 34 Farmers' Market,,,,712-624-8750,,,,,,,,"26771 Hwy. 34, Glenwood, IA, 51534",Iowa,Glenwood,26771 Hwy. 34,51534,-95.67791506133044,41.03068019952802,,
farmers market,"Mar 21st, 2023",default-farmersmarket-4-3.jpg,310207,Historic Valley Junction Farmers Market,,,metromarketdsm@gmail.com,515-222-3642,http://www.valleyjunction.com/,https://www.facebook.com/valleyjunctionfarmersmarket,,,,,,"137 5th St. West Des Moines, IA 50265",Iowa,West Des Moines,137 5th St.,50265,-93.70860302527836,41.57083799670025,,
farmers market,"Mar 21st, 2023",default-farmersmarket-4-3.jpg,310208,Hudson Farmers' Market,,,,,,,,,,,,"Hwy. 63 & Hwy. 58 , Hudson, IA, 50643",Iowa,Hudson,Hwy. 63 & Hwy. 58,50643,-92.45607997870822,42.39172001946332,,
farmers market,"Mar 21st, 2023",default-farmersmarket-4-3.jpg,310209,Humboldt Farmers Market,,,,515-368-1549,,,,,,,,"617 Sumner Ave. Humboldt, IA 50548",Iowa,Humboldt,617 Sumner Ave.,50548,-94.21639933280711,42.72110959605785,,
farmers market,"Mar 21st, 2023",default-farmersmarket-4-3.jpg,310210,Huxley Farmers Market,,,tbakken@huxleyiowa.org,,https://huxleyiowa.org/index.php?option=com_content&view=article&id=288&Itemid=1273,,,,,,,"100 W. Railway St., Huxley, IA, 50124",Iowa,Huxley,100 W. Railway St.,50124,-93.60624919003206,41.89148989361316,,
farmers market,"Mar 21st, 2023",default-farmersmarket-4-3.jpg,310211,Independence Farmers Market,,,xbuchanan@iastate.edu,319-334-7161,https://www.extension.iastate.edu/buchanan/farmersmarket,https://www.facebook.com/indeefarmersmarket/,,,,,,"C/O Buchanan County Extension 2600 Swan Lake Blvd Independence, IA 50644",Iowa,Independence,C/O Buchanan County Extension,50644,-91.92346602302206,42.448728989087385,,
farmers market,"Mar 21st, 2023",default-farmersmarket-4-3.jpg,310212,Indianola Farmers Market,,,,515-961-4727,,https://www.facebook.com/Indianolafarmersmarket/,,,,,,"1408 W. 2nd Avenue - Fairground Entrance Indianola, IA 50125",Iowa,Indianola,1408 W. 2nd Avenue,50125,-93.57944764860007,41.35666683897421,,
farmers market,"Mar 21st, 2023",default-farmersmarket-4-3.jpg,310213,Indoor Farmers' Market at the Isle,,,,563-332-5529,http://mvgrowers.com,,,,,,,"1850 Lady Luck Parkway Bettendorf, IA 52722",Iowa,BETTENDORF,1850 LADY LUCK PKWY,52722,-90.51032922852663,41.52281846445655,,
farmers market,"Mar 21st, 2023",default-farmersmarket-4-3.jpg,310214,Iowa City Farmers Market,,,communicationsteam@iowa-city.org,319-356-5210,https://www.icgov.org/?id=1108,,,,,,,"460 E. Washington St. Iowa City, IA 52240",Iowa,Iowa City,460 E. Washington St.,52240,-91.52924973149509,41.66004318038775,,
farmers market,"Mar 21st, 2023",default-farmersmarket-4-3.jpg,310215,Iowa Falls Farmers' Market - Saturday,,,,515-859-7153,,,,,,,,"500 Washington Avenue Iowa Falls, IA 50126",Iowa,Iowa Falls,500 Washington Avenue,50126,-93.26306476295531,42.51964065607401,,
farmers market,"Mar 21st, 2023",default-farmersmarket-4-3.jpg,310216,Iowa Food Cooperative Farmers' Market,,,,515-978-1034,http://www.iowafood.coop,http://www.facebook.com/IowaFoodCoop,,,,,,"4944 Franklin Avenue Des Moines, IA 50310 The weekly market is held every Thursday at the Iowa Food Cooperative location at 4944 Franklin Avenue in Des Moines, just East of the Des Moines Franklin Lib",Iowa,DES MOINES,4944 FRANKLIN AVE,50310,-93.6843409759317,41.6112477072635,,
farmers market,"Mar 21st, 2023",default-farmersmarket-4-3.jpg,310217,Janesville Farmers' Market,,,,319-987-2831,,,,,,,,"100 Main St., Janesville, IA, 50647",Iowa,Janesville,100 Main St.,50647,-92.46298856394702,42.64940116948913,,
farmers market,"Mar 21st, 2023",default-farmersmarket-4-3.jpg,310218,Jefferson St. Farmers Market,,,info@greaterburlington.com,319-208-0056,https://www.greaterburlington.com/downtown/downtown-events/jefferson-st-farmers-market/,https://www.facebook.com/greaterburlingtonpartnership,,,,,,"423 Jefferson 300-500 blocks Jefferson St. Burlington, IA 52601",Iowa,Burlington,423 Jefferson,52601,-91.105250032202,40.81074099094175,,
farmers market,"Mar 21st, 2023",default-farmersmarket-4-3.jpg,310219,Johnston Farmers Market,,,aostert@cityofjohnston.com,515-278-0939,https://www.cityofjohnston.com/,,,,,,,"6221 Merle Hay Road Johnston, IA 50131",Iowa,Johnston,6221 Merle Hay Road,50131,-93.69766315671544,41.67357496650165,,
farmers market,"Mar 21st, 2023",default-farmersmarket-4-3.jpg,310220,Keota Farmers Market,,,,,,https://www.facebook.com/Keota-Farmers-Market-1389753247907173,,,,,,"Corner of Broadway and Fulton, Keota, IA, 52248",Iowa,Keota,Corner of Broadway and Fulton,52248,-91.95218996701398,41.363869989925945,,
farmers market,"Mar 21st, 2023",default-farmersmarket-4-3.jpg,310221,Kimball Ridge Farmers' Market,,,,319-478-8624,,https://www.facebook.com/Kimball-Ridge-Family-Market-308977345914093,,,,,,"2101 Kimball Ave., Kimball Ave. and Ridgeway Rd., Waterloo, IA, 50701",Iowa,Waterloo,2101 Kimball Ave.,50701,-92.35694997588031,42.469409994068286,,
farmers market,"Mar 21st, 2023",default-farmersmarket-4-3.jpg,310222,Knoxville Farmers Market,,,,641-862-3220,,https://www.facebook.com/knoxvillefarmersmarket,,,,,,"214 E. Main Knoxville, IA 50138",Iowa,Knoxville,214 E. Main,50138,-93.09742546205557,41.3189375787209,,
farmers market,"Mar 21st, 2023",default-farmersmarket-4-3.jpg,310223,Lake Mills Farmers' Market,,,,641-926-5011,,,,,,,,"US 69 & 1st Ave., North side of Corner Stop, Lake Mills, IA, 50450",Iowa,Lake Mills,US 69 & 1st Ave.,50450,-93.53246998672023,43.42019999093387,,
farmers market,"Mar 21st, 2023",default-farmersmarket-4-3.jpg,310224,Lakes Area Farmers Market,,,,712-336-4430,,,,,,,,"15th St. & Peoria Avenue Spirit Lake, IA 51360",Iowa,Spirit Lake,15th St. & Peoria Avenue,51360,-95.11218003701055,43.42551001041454,,
farmers market,"Mar 21st, 2023",default-farmersmarket-4-3.jpg,310225,Lamoni Farmers' Market,,,http://www.lamoni-iowa.com/farmersmarket.html,641-446-3123,http://www.lamoni-iowa.com,https://www.facebook.com/Lamoni-Farmers-Market-112874992135806,,,,,,"S. Linden St., Lamoni, IA, 50140",Iowa,Lamoni,S. Linden St.,50140,-93.9333070234334,40.619959009205424,,
farmers market,"Mar 21st, 2023",default-farmersmarket-4-3.jpg,310226,Le Mars Area Farmers' Market,,,cityhall@lemarsiowa.com,712-546-8821,http://www.lemarsiowa.com/,,,,,,,"1st Ave. and 1st St. NE, Le Mars, IA, 51031",Iowa,Le Mars,1st Ave. and 1st St. NE,51031,-96.16633447762887,42.794283379713356,,
farmers market,"Mar 21st, 2023",default-farmersmarket-4-3.jpg,310227,LeClaire River Front Farmers Market,,,ldaws1965@yahoo.com,,http://www.visitleclaire.com/leclaire_riverfront_farmers_market.html,https://www.facebook.com/leclaireriverfrontfarmersmarket,,,,,,"126 S. Cody Rd., MindFire parking lot, Le Claire, IA, 52753",Iowa,Le Claire,126 S. Cody Rd,52753,-90.34361841351063,41.59727197459761,,
farmers market,"Mar 21st, 2023",default-farmersmarket-4-3.jpg,310228,Linn Street Farmers Market,,,,641-493-2442,,,,,,,,"103 E. Linn Street Marshalltown, IA 50158",Iowa,Marshalltown,103 E. Linn Street,50158,-92.91110897853292,42.046685924902846,,
farmers market,"Mar 21st, 2023",default-farmersmarket-4-3.jpg,310229,LSI Global Green Farmers' Market,,,globalgreens@lsiowa.org,515-271-7351,https://www.eatgreaterdesmoines.org/content/lsi-global-greens-farmers-market,,,,,,,"3200 University Ave., LSIs Refugee Connection Center parking lot, Des Moines, IA, 50311",Iowa,Des Moines,3200 University Ave,50311,-93.66101479813157,41.6003457727703,,
farmers market,"Mar 21st, 2023",default-farmersmarket-4-3.jpg,310230,Lucas Farmers' Market,,,,641-766-6821,,,,,,,,"Jct. Hwy. 65 & 34, Lucas Memorial Park, Lucas, IA, 50151",Iowa,Lucas,Jct. Hwy. 65 & 34,50151,-93.47058002532953,41.09888790461283,,
farmers market,"Mar 21st, 2023",default-farmersmarket-4-3.jpg,310231,Lyons Farmers Market,,,,563-577-2216,,,,,,,,"Main Ave. & Roosevelt St. Clinton, IA 52732",Iowa,Clinton,Main Ave. & Roosevelt St.,52732,-90.17858000946165,41.87242000450959,,
farmers market,"Mar 21st, 2023",default-farmersmarket-4-3.jpg,310232,Main Street Farmers Market,,,,402-679-6366,https://www.mainstreetfarmersmarketcb.org/,https://www.facebook.com/MainStreetMarketCB,,,,,,"100 Block W. Broadway Council Bluffs, IA 51503",Iowa,Council Bluffs,100 Block W. Broadway,51503,-95.84380673778418,41.26332662300899,,
farmers market,"Mar 21st, 2023",default-farmersmarket-4-3.jpg,310233,Main Street Greenfield's Farmers Market,,,info@greenfieldiowa.com,641-743-8444,https://www.greenfieldiowa.com/,,,,,,,"400 Public Square Greenfield, IA 50849",Iowa,Greenfield,400 Public Square,50849,-94.46102400983732,41.305115991879774,,
farmers market,"Mar 21st, 2023",default-farmersmarket-4-3.jpg,310234,Manchester Farmers' Market,,,jrconrad@rockwellcollins.com,563-920-4120,,,,,,,,"100 S. Tama St., Manchester, IA, 52057",Iowa,Manchester,100 S. Tama St.,52057,-91.45544149907339,42.483909535756254,,
farmers market,"Mar 21st, 2023",default-farmersmarket-4-3.jpg,310235,Maquoketa Farmers Market,,,,563-652-6978,,https://www.facebook.com/groups/334691856589105/,,,,,,"1215 E Platt St Maquoketa, IA 52060",Iowa,Maquoketa,1215 E Platt St,52060,-90.65070256937489,42.06914016564558,,
farmers market,"Mar 21st, 2023",default-farmersmarket-4-3.jpg,310236,Market In the Park,,,,515-532-2756,https://business.clarioniowa.com/list/member/market-in-the-park-415,https://www.facebook.com/ClarionMarketInThePark,,,,,,"200 Block Central Avenue West Clarion, IA 50525",Iowa,Clarion,200 Block Central Avenue West,50525,-93.73419185614807,42.7316490176049,,
farmers market,"Mar 21st, 2023",default-farmersmarket-4-3.jpg,310237,Market on Central,,,wordpress@example.com,515-302-8026,https://www.fdmarketoncentral.com/,https://www.facebook.com/marketoncentral,,,,,,"726 1st Avenue North Fort Dodge, IA 50501",Iowa,Fort Dodge,726 1st Avenue North,50501,-94.18856674122834,42.505983880560045,,
farmers market,"Mar 21st, 2023",default-farmersmarket-4-3.jpg,310238,Marshall County Market,,,,641-691-8937,http://www.marshallcountymarket.com,,,,,,,"3700 South Center Street Marshalltown, IA 50158",Iowa,MARSHALLTOWN,3700 S CENTER ST,50158,-92.91244088532065,42.001499433614306,,
farmers market,"Mar 21st, 2023",default-farmersmarket-4-3.jpg,310239,Mercer Park Farmers Market,,,,319-321-1959,,,,,,,,"2701 Bradford Drive Iowa City, IA 52240",Iowa,Iowa City,2701 Bradford Drive,52240,-91.50085394544612,41.64629372856975,,
farmers market,"Mar 21st, 2023",default-farmersmarket-4-3.jpg,310240,Monroe County Farmers Market,,,,641-932-5612,,,,,,,,"10 Benton Ave E Albia, IA 52531",Iowa,Albia,10 Benton Ave E,52531,-92.80818258857947,41.02710581677295,,
farmers market,"Mar 21st, 2023",default-farmersmarket-4-3.jpg,310241,Monticello Farmers Market,,,,319-480-6739,,https://www.facebook.com/MontiFarmersMarket/,,,,,,"Willo Shelter E. Oak St. Monticello, IA 52310",Iowa,Monticello,Willo Shelter E. Oak St.,52310,-91.17963223619871,42.232552811327906,,
farmers market,"Mar 21st, 2023",default-farmersmarket-4-3.jpg,310242,Montrose Farmers Market,,,,319-470-9434,,,,,,,,"201 N. First Street Montrose, IA 52639",Iowa,Montrose,201 N. First Street,52639,-91.41303559358532,40.5307482705415,,
farmers market,"Mar 21st, 2023",default-farmersmarket-4-3.jpg,310243,Mount Vernon Farmers' Market,,,,319-310-6299,,,,,,,,"311 1st Street W Mount Vernon, IA 52314",Iowa,Mount Vernon,311 1st Street W,52314,-91.41921659169161,41.92347218367181,,
farmers market,"Mar 21st, 2023",default-farmersmarket-4-3.jpg,310244,Moville Farmers Market,,,,712-870-1460,,,,,,,,"Main Street and Pearl Street Moville, IA 51039",Iowa,Moville,Main Street and Pearl Street,51039,-96.07373998317576,42.4888599908393,,
farmers market,"Mar 21st, 2023",default-farmersmarket-4-3.jpg,310245,Mt. Pleasant Farmers Market,,,,319-931-7842,,https://www.facebook.com/mtpfarmersmarket/info/?tab=page_info,,,,,,"1200 W. Washington St. Mount Pleasant, IA 52641",Iowa,Mount Pleasant,1200 W. Washington St.,52641,-91.56729345501148,40.96660298680671,,
farmers market,"Mar 21st, 2023",default-farmersmarket-4-3.jpg,310246,Muscatine Area Farmers Market,,,,563-571-4092,,https://www.facebook.com/pages/Muscatine-Area-Farmers-Market/222171567808527?ref=hl,,,,,,"Saturday- 3rd and Cedar Streets, downtown Muscatine Tuesdays- Muscatine Mall Parking Lot Muscatine, IA 52761",Iowa,Muscatine,3rd and Cedar Street,52761,-91.04437998078967,41.423299988463185,,
farmers market,"Mar 21st, 2023",default-farmersmarket-4-3.jpg,310247,Muscatine Farmers' Market,,,julie.brannen@gmail.com,563-260-0950,,https://www.facebook.com/pages/Muscatine-Area-Farmers-Market/222171567808527,,,,,,"501 US-61, Calvary Church Parking Lot, Muscatine, IA, 52761",Iowa,Muscatine,501 US-61,52761,-91.03126404990832,41.453549984889875,,
farmers market,"Mar 21st, 2023",default-farmersmarket-4-3.jpg,310248,Nevada's Midtown Market,,,chamber@midiowa.net,515-382-6538,http://www.nevadaiowa.org/index.cfm/29172/76263/nevadas_midtown_market,https://www.facebook.com/NevadaMidtownMarket,,,,,,"1209 6th St., Nevada City Hall, Nevada, IA, 50201",Iowa,Nevada,1209 6th St.,50201,-93.45223691393979,42.0228108292057,,
farmers market,"Mar 21st, 2023",default-farmersmarket-4-3.jpg,310249,NewBo City Farmers Market,,,,319-200-4050,https://newbocitymarket.com/,https://www.facebook.com/NewBoCityMarket?ref=hl,,,,,,"1100 3rd St. SE Cedar Rapids, IA 52401",Iowa,Cedar Rapids,1100 3rd St. SE,52401,-91.65863562382738,41.970694432616995,,
farmers market,"Mar 21st, 2023",default-farmersmarket-4-3.jpg,310250,Newton Farmers' Market,,,newtonmainstreet@gmail.com,641-792-5545,http://newtoniamainstreet.com/,https://www.facebook.com/newtonmainstreet,,,,,,"113 1st Avenue West Newton, IA 50208",Iowa,Newton,113 1st Avenue West,50208,-93.05388880091783,41.69953904311776,,
farmers market,"Mar 21st, 2023",default-farmersmarket-4-3.jpg,310251,Noelridge Farmers Market,,,,319-286-5699,,,,,,,,"Collins Rd. & Council St. NE Cedar Rapids, IA 52403",Iowa,Cedar Rapids,Collins Rd. & Council St. NE,52403,-91.65829998983922,42.028439995845986,,
farmers market,"Mar 21st, 2023",default-farmersmarket-4-3.jpg,310252,North Grand Farmers Market,,,,515-432-5147,,,,,,,,"2801 Grand Ave. Ames, IA 50010",Iowa,Ames,2801 Grand Ave.,50010,-93.62066113717485,42.05056843419597,,
farmers market,"Mar 21st, 2023",default-farmersmarket-4-3.jpg,310253,North Iowa Winter Farmers' Market,,,,641-512-5147,http://www.northiowafarmersmarket.com/,https://www.facebook.com/northiowafarmersmarket,,,,,,"1631 4th St. SW, Mason City, IA, 50401",Iowa,Mason City,1631 4th St. SW,50401,-93.22555241047881,43.14834511758024,,
farmers market,"Mar 21st, 2023",default-farmersmarket-4-3.jpg,310254,"North Skunk Sawmill & Market, Inc",,,,641-593-6615,http://northskunk.com,,,,,,,"396 515th Ave Searsboro, IA 50242",Iowa,SEARSBORO,396 515TH AVE,50242,-92.71117448715914,41.54933546988232,,
farmers market,"Mar 21st, 2023",default-farmersmarket-4-3.jpg,310255,Oelwein Farmers' Market,,,,319-636-9122,,,,,,,,"1st Street SW Oelwein, IA 50662",Iowa,Oelwein,1st Street SW,50662,-91.92570972255437,42.67718766098675,,
farmers market,"Mar 21st, 2023",default-farmersmarket-4-3.jpg,310256,Orange City Farmers Market,,,,712-737-8313,,,,,,,,"207 Arizona Avenue NW (Windmill Park) Orange City, IA 51041",Iowa,ORANGE CITY,207 ARIZONA AVE NW,51041,-96.05968549873924,43.00735386408474,,
farmers market,"Mar 21st, 2023",default-farmersmarket-4-3.jpg,310257,Original Spencer Farmer's Market,,,,712-346-8526,,http://www.facebook.com/spencerfarmersmarket,,,,,,"1019 S Grand Spencer, IA 51301",Iowa,SPENCER,1019 GRAND AVE,51301,-95.14517014786398,43.14800945543837,,
farmers market,"Mar 21st, 2023",default-farmersmarket-4-3.jpg,310258,Oskaloosa Farmers Market,,,,641-777-2857,,https://www.facebook.com/OskaloosaFarmersMarket,,,,,,"110 S. D Street Oskaloosa, IA 52577",Iowa,Oskaloosa,110 S. D Street,52577,-92.64976763054587,41.29514691806009,,
farmers market,"Mar 21st, 2023",default-farmersmarket-4-3.jpg,310259,Ottumwa Farmers Market,,,,641-954-1739,,,,,,,,"331 E. Main St. Ottumwa, IA 52501",Iowa,Ottumwa,331 E. Main St.,52501,-92.4099761661666,41.01593175412367,,
farmers market,"Mar 21st, 2023",default-farmersmarket-4-3.jpg,310260,Paradise Farmers' Market,,,,641-442-5417,,,,,,,,"200 West 1st St. Leon Public Library Leon, IA 50144",Iowa,Leon,200 West 1st St.,50144,-93.74828979412852,40.73950992003922,,
farmers market,"Mar 21st, 2023",default-farmersmarket-4-3.jpg,310261,Parks Neighborhood Farmers Market,,,,515-250-9560,,,,,,,,"147 E. Euclid Ave. Des Moines, IA 50313",Iowa,DES MOINES,147 EUCLID AVE,50313,-93.61958168079137,41.62770001108131,,
farmers market,"Mar 21st, 2023",default-farmersmarket-4-3.jpg,310262,Paullina Farmers' Market,,,,712-448-3870,,,,,,,,"E. Commerce St., City Park, Paullina, IA, 50146",Iowa,Paullina,"E. Commerce St., City Park",50146,-95.68559143260443,42.981057099764286,,
farmers market,"Mar 21st, 2023",default-farmersmarket-4-3.jpg,310263,Pearl City Farmers Market,,,,563-288-4276,,,,,,,,"216 West Second Street Muscatine, IA 52761",Iowa,MUSCATINE,216 W 2ND ST,52761,-91.04704105635876,41.42055653369886,,
farmers market,"Mar 21st, 2023",default-farmersmarket-4-3.jpg,310264,Pella Farmers' Market,,,,641-628-4581,,,,,,,,"603 Broadway Street Pella, IA 50219",Iowa,Pella,603 Broadway Street,50219,-92.91833326299313,41.404201255295185,,
farmers market,"Mar 21st, 2023",default-farmersmarket-4-3.jpg,310265,Perry Farmers Market,,,,515-465-3366,,,,,,,,"1st Avenue & Willis Avenue Perry, IA 50220",Iowa,Perry,1st Avenue & Willis Avenue,50220,-94.10657997899995,41.838469985797275,,
farmers market,"Mar 21st, 2023",default-farmersmarket-4-3.jpg,310266,Pleasant Hill Farmers Market,,,,515-661-0261,,,,,,,,"5299 E University Pleasant Hill, Pleasant Hill, IA 50327",Iowa,Pleasant Hill,"5299 E University Pleasant Hill,",50327,-93.50832197512888,41.59785601384837,,
farmers market,"Mar 21st, 2023",default-farmersmarket-4-3.jpg,310267,Pleasantville Farmers' Market,,,sharonrandythill@gmail.com,515-210-6477,,,,,,,,"801 Pleasant St., Across from Caseys, Pleasantville, IA, 50225",Iowa,Pleasantville,801 Pleasant St.,50225,-93.27721594731351,41.39272454242518,,
farmers market,"Mar 21st, 2023",default-farmersmarket-4-3.jpg,310268,Pocahontas Farmers Market,,,,712-776-2259,,https://facebook.com/pokyfarmersmarket,,,,,,"South Main Street (south of the Pocahontas Inn) Pocahontas, IA 50574",Iowa,Pocahontas,South Main Street,50574,-94.6686486751615,42.727406168225976,,
farmers market,"Mar 21st, 2023",default-farmersmarket-4-3.jpg,310269,Quimby Farmers' Market,,,ldyerinlee@gmail.com,712-229-8643,,https://www.facebook.com/QuimbyFarmersMarketIowa,,,,,,"102 S. Main St., Quimby, IA, 51049",Iowa,Quimby,102 S. Main St.,51049,-95.6420152288668,42.62950041225668,,
farmers market,"Mar 21st, 2023",default-farmersmarket-4-3.jpg,310270,Richland Farmers' Market,,,,319-456-6010,,,,,,,,"Central Park, Richland, IA, 52585",Iowa,Richland,Central Park,52585,-91.93418496844089,41.22058001403724,,
farmers market,"Mar 21st, 2023",default-farmersmarket-4-3.jpg,310271,River City Farmers Market,,,,,,,,,,,,"300 West Broadway Council Bluffs, IA 51501",Iowa,COUNCIL BLUFFS,300 W BROADWAY,51503,-95.84723194101,41.261557766191125,,
farmers market,"Mar 21st, 2023",default-farmersmarket-4-3.jpg,310272,Riverfront Farmers' Market,,,info@growburlington.com,319-752-0015,http://www.greaterburlington.com/downtown/downtown-events/riverfront-farmers-market/,https://www.facebook.com/downtownburlingtoniamarket,,,,,,"400 N. Front St., Port of Burlington, Burlington, IA, 52601",Iowa,Burlington,400 N. Front St,52601,-91.10004593849669,40.81036416846838,,
farmers market,"Mar 21st, 2023",default-farmersmarket-4-3.jpg,310273,Riverside Farmers Market,,,,712-481-6240,,,,,,,,"603 Pioneer Ave. Oakland, IA 51560",Iowa,Oakland,603 Pioneer Ave.,51560,-95.4019208447325,41.30129748823487,,
farmers market,"Mar 21st, 2023",default-farmersmarket-4-3.jpg,310274,Rolfe Farmers' Market,,,,712-848-3862,,,,,,,,"408 Garfield St (downtown) Herita.ge Park Rolfe,, IA 50581",Iowa,ROLFE,408 GARFIELD ST,50581,-94.52788278734931,42.81476126716742,,
farmers market,"Mar 21st, 2023",default-farmersmarket-4-3.jpg,310275,Sheldon Farmers Market,,,hamill4sheldon@gmail.com,712-324-2813,https://www.sheldoniowa.com/,,,,,,,"416 9th St. Sheldon, IA 51201",Iowa,Sheldon,416 9th St.,51201,-95.85326145051265,43.180494261875985,,
farmers market,"Mar 21st, 2023",default-farmersmarket-4-3.jpg,310276,Shellsburg Farmers Market,,,,319-436-3566,,,,,,,,"City Park Shellsburg, IA 52332",Iowa,Shellsburg,City Park,52332,-91.87721806869884,42.094065059417524,,
farmers market,"Mar 21st, 2023",default-farmersmarket-4-3.jpg,310277,Shenandoah Garden City Market,,,parksandrec@shenandoahiowa.net,712-542-5289,https://www.shenandoahiowa.net/events_farmers.asp?menu=rec,,,,,,,"500 W. Clarinda Ave. Shenandoah, IA 51601",Iowa,Shenandoah,500 W. Clarinda Ave.,51601,-95.37080380954065,40.76466249444524,,
farmers market,"Mar 21st, 2023",default-farmersmarket-4-3.jpg,310278,Sibley Farmers' Market,,,,712-754-3212,,,,,,,,"400 block of 9th St., Sibley, IA, 51249",Iowa,Sibley,400 block of 9th St.,51249,-95.74896268567366,43.39917590255245,,
farmers market,"Mar 21st, 2023",default-farmersmarket-4-3.jpg,310279,Silver Creek Farmers' Market,,,,712-525-9080,,,,,,,,"Main St. and Railroad Ave., East side of Main St., along Railroad Ave., Silver City, IA, 51571",Iowa,Silver City,Main St. and Railroad Ave.,51571,-95.63742998784288,41.11216998710864,,
farmers market,"Mar 21st, 2023",default-farmersmarket-4-3.jpg,310280,Sioux Center Farmers Market,,,,,,,,,,,,"251 North Main Avenue (Centre Mall Parking Lot, Hwy 75) Sioux Center, IA 51250",Iowa,SIOUX CENTER,251 N MAIN AVE,51250,-96.17553987357441,43.07919520288817,,
farmers market,"Mar 21st, 2023",default-farmersmarket-4-3.jpg,310281,Southridge Mall Farmers Market,,,,515-287-3881,,,,,,,,"1111 East Army Post Road Des Moines, IA 50315",Iowa,Des Moines,1111 East Army Post Road,50315,-93.59973067881373,41.52632811149204,,
farmers market,"Mar 21st, 2023",default-farmersmarket-4-3.jpg,310282,Spencer Riverfront Farmers' Market,,,hello@riverfrontfarmersmarket.com,712-363-4308,http://www.riverfrontfarmersmarket.com/,https://www.facebook.com/SpencerRiverfrontDistrictFarmersMarket,,,,,,"Grand St. and 1st St., Riverfront District, Spencer, IA, 51301",Iowa,Spencer,Grand St. and 1st St.,51301,-95.14448003617323,43.13859997929009,,
farmers market,"Mar 21st, 2023",default-farmersmarket-4-3.jpg,310283,Springville Farmers' Market,,,justlena@netins.net,319-854-7097,,,,,,,,"304 Broadway, Cox Lake Pavillion behind City Hall, Springville, IA, 52336",Iowa,Springville,304 Broadway,52336,-91.44348105242457,42.06069691258794,,
farmers market,"Mar 21st, 2023",default-farmersmarket-4-3.jpg,310284,State Center Farmers' Market,,,,641-483-3002,,https://www.facebook.com/StateCenterFarmersMarket,,,,,,"100 West Main Street State Center, IA 50247",Iowa,State Center,100 West Main Street,50247,-93.16373600458577,42.01664820383105,,
farmers market,"Mar 21st, 2023",default-farmersmarket-4-3.jpg,310285,Storm Lake Farmers Market,,,,712-732-2185,,,,,,,,"600 block of Erie on Courthouse Square Storm Lake, IA 50588",Iowa,STORM LAKE,600 ERIE ST,50588,-95.19968172935499,42.64450815547774,,
farmers market,"Mar 21st, 2023",default-farmersmarket-4-3.jpg,310286,Stuart Farmers Market,,,,515-523-1712,,,,,,,,"200 S. Division Street - City Park Stuart, IA 50250",Iowa,Stuart,200 S. Division Street,50250,-94.31835377590725,41.50498681048517,,
farmers market,"Mar 21st, 2023",default-farmersmarket-4-3.jpg,310287,Sycamore Mall Farmers Market,,,,319-338-6111,,,,,,,,"1660 Sycamore Street - Sycamore Mall parking lot Iowa City, IA 52240",Iowa,Iowa City,1660 Sycamore Street,52240,-91.51162863823751,41.64188937016857,,
farmers market,"Mar 21st, 2023",default-farmersmarket-4-3.jpg,310288,The Market Place,,,,641-750-9452,http://www.marketplaceiowa.com,http://www.facebook.com/TheFarmersMarket,,,,,,"709 S. Center St Fisher Community Center Marshalltown, IA 50158 At the Fisher Community Center parking lot (East end) - at the corner of Anson Street and Center Street.",Iowa,MARSHALLTOWN,709 S CENTER ST,50158,-92.91282942175782,42.0406575838499,,
farmers market,"Mar 21st, 2023",default-farmersmarket-4-3.jpg,310289,The Mason City Market,,,,641-494-0003,http://www.mainstreetmasoncity.org,http://www.facebook.com/MasonCityMarket,,,,,,"9 N. Federal Avenue Mason City, IA 50401",Iowa,MASON CITY,9 N FEDERAL AVE,50401,-93.2010672085951,43.1519389658913,,
farmers market,"Mar 21st, 2023",default-farmersmarket-4-3.jpg,310290,Toledo Farmers' Market,,,,641-691-9710,,,,,,,,"Broadway Street Toledo, IA 52342",Iowa,Toledo,Broadway Street,52342,-92.5782701837052,41.99740455518872,,
farmers market,"Mar 21st, 2023",default-farmersmarket-4-3.jpg,310291,Trinity Farmers' Market,,,chanson125@sbcglobal.net,563-332-5529,http://www.mvgrowers.com/trinity_farmers.html,,,,,,,"4500 Utica Ridge Rd., Bettendorf, IA, 52722",Iowa,Bettendorf,4500 Utica Ridge Rd.,52722,-90.51732519670587,41.56566497639418,,
farmers market,"Mar 21st, 2023",default-farmersmarket-4-3.jpg,310292,Union Farmers' Market,,,,641-485-5529,,,,,,,,"406 Center St., City Park, Union, IA, 50258",Iowa,Union,"406 Center St., City Park",50258,-93.06387719462252,42.24526701690031,,
farmers market,"Mar 21st, 2023",default-farmersmarket-4-3.jpg,310293,University Avenue Farmers' Market,,,,319-236-0580,,,,,,,,"4000 University Avenue Waterloo, IA 50701",Iowa,WATERLOO,4000 UNIVERSITY AVE,50701,-92.40481581294226,42.505357273702685,,
farmers market,"Mar 21st, 2023",default-farmersmarket-4-3.jpg,310294,Uptown Ankeny Farmers Market,,,alexa.m@uptownankeny.org,515-963-1897,https://www.uptownankeny.org/,,,,,,,"SW 3rd St. & SW Maple St. Ankeny, IA 50023",Iowa,Ankeny,SW 3rd St. & SW Maple St.,50023,-93.60858001448614,41.729619992771006,,
farmers market,"Mar 21st, 2023",default-farmersmarket-4-3.jpg,310295,Waterloo Urban Farmers' Market,,,,319-291-2038,https://www.mainstreetwaterloo.org/urban-farmer-s-market?fbclid=IwAR3ULul1QMa9k_OkDsphSWj8biSIXWDNn8,https://www.facebook.com/WaterlooUrbanFarmersMarket/,,,,,,"460 Jefferson street Waterloo, IA 50701",Iowa,Waterloo,460 Jefferson street,50701,-92.3421428708795,42.495339787292835,,
farmers market,"Mar 21st, 2023",default-farmersmarket-4-3.jpg,310296,Waukee Farmers Market,,,,515-987-1552,,,,,,,,"6th Street & Ashworth Drive - Triangle Park Waukee, IA 50263",Iowa,Waukee,6th Street & Ashworth Drive - Triangle Park,50263,-93.88560996106156,41.61195999086459,,
farmers market,"Mar 21st, 2023",default-farmersmarket-4-3.jpg,310297,West Branch Farmers Market,,,,,,https://www.facebook.com/WestBranchIowaFarmersMarket/,,,,,,"Corner of Main and Downey Streets West Branch, IA 52358",Iowa,West Branch,Corner of Main and Downey Streets,52358,-91.34665001712118,41.67141999661524,,
farmers market,"Mar 21st, 2023",default-farmersmarket-4-3.jpg,310298,West Liberty Downtown Farmers' Market,,,defosse44@msn.com,563-571-4092,,https://www.facebook.com/westlibertydowntownfm,,,,,,"100 Spencer St., West Liberty, IA, 52776",Iowa,West Liberty,100 Spencer St.,52776,-91.26198018585858,41.56745160014249,,
farmers market,"Mar 21st, 2023",default-farmersmarket-4-3.jpg,310299,Williamsburg Farmers' Market,,,,319-668-1743,,https://www.facebook.com/williamsburgfarmersmarket,,,,,,"210 W. State St., Williamsburg, IA, 52361",Iowa,Williamsburg,210 W. State St.,52361,-92.00904600970507,41.661762771564625,,
farmers market,"Mar 21st, 2023",default-farmersmarket-4-3.jpg,310300,Winneshiek Farmers Market,,,,563-382-2451,https://www.winneshiekfarmersmarket.com/,https://www.facebook.com/WinneshiekFarmersMarket,,,,,,"312 W Day Spring Ln Decorah, IA 52101",Iowa,Decorah,312 W Day Spring Ln,52101,-91.78980187310101,43.30466805307057,,
farmers market,"Mar 28th, 2022",default-farmersmarket-4-3.jpg,301675,Clarion Farmers Market,,Milissa Katschke,bzeiger82@gmail.com,(515) 851-0567,,https://www.facebook.com/ClarionFarmersMarketonMain/,,,,,,"115 N Main St, Clarion, IA, USA",Iowa,Clarion,115 North Main Street,50525,-93.7321638,42.7320629,06/04/2022 to 10/08/2022,
farmers market,"Mar 28th, 2022",default-farmersmarket-4-3.jpg,301679,Kanawha Farmers Market,,Sharon Clark,,(319) 269-6219,,,,,,,,"N Main St, Kanawha, IA, USA",Iowa,Kanawha,N Main St,50447,-93.79321039999999,42.9386978,06/06/2022 to 09/24/2022,
farmers market,"Mar 28th, 2022",default-farmersmarket-4-3.jpg,301682,Osage Farmers Market,,Shelby Blake,osageiachamber@gmail.com,(641) 732-3163,https://www.osagechamber.com/,https://www.facebook.com/Osage-City-Chamber-of-Commerce-136005343076480/,,https://www.instagram.com/osagechamber/,,,,"114 S 7th St, Osage, IA, USA",Iowa,Osage,114 South 7th Street,50461,-92.81096749999999,43.28327069999999,05/05/2022 to 10/13/2022,
farmers market,"Mar 28th, 2022",default-farmersmarket-4-3.jpg,301683,Riceville Farmers Market,,Elaine Govern,govern@govern-farms-homes.com,(641) 220-2685,,,,,,,,"203 Iowa 9, Riceville, IA, USA",Iowa,Riceville,203 Iowa 9,50466,-92.5563761,43.3636485,05/23/2022 to 08/27/2022,
farmers market,"Mar 28th, 2022",default-farmersmarket-4-3.jpg,301684,St. Ansgar Farmers Market,,Nic Schulmeister,cameoviewacres@gmail.com,(563) 5541757,,,,,,,,"N Washington St, St Ansgar, IA, USA",Iowa,Saint Ansgar,N Washington St,50472,-92.9228267,43.3795309,06/02/2022 to 09/29/2022,
farmers market,"Mar 28th, 2022",farmersmarket_301677_45_20220328135421.png,301677,Forest City Farmers Market,,Norma Hertzer,norma@forestcityia.com,(641) 251-1667,,https://www.facebook.com/ForestCityFarmersMarket,,,,,,"106 South 4th Street, Forest City, IA, USA",Iowa,Forest City,106 South 4th Street,50436,-93.6375741,43.2630045,06/16/2022 to 09/29/2022,
farmers market,"Mar 28th, 2022",farmersmarket_301680_45_20220328143009.png,301680,Kossuth County Farmers Market,,Joanne Roepke Bode,jroepkebode@yahoo.com,(515) 2956060,,https://www.facebook.com/KossuthMarket/,,,,,,"20 East Nebraska Street, Algona, IA, USA",Iowa,Algona,20 East Nebraska Street,50511,-94.23689999999999,43.06768479999999,05/17/2022 to 10/17/2022,
farmers market,"May 29th, 2020",default-farmersmarket-4-3.jpg,301118,Rock Valley Farmers Market,,Josie Faber,josie.faber@hegghc.org,7124768192,,Rock Valley Farmers Market (group),,,,,,"1013 13th Ave, Rock Valley, Iowa 51247",Iowa,Rock Valley,1013 13th Ave,51247,-96.300832,43.200223,June to August,"Fresh fruits, Fresh vegetables, Baked goods, Canned or preserved fruits/vegetables, Crafts/woodworking items, Eggs"
farmers market,"Nov 11th, 2021",default-farmersmarket-4-3.jpg,301607,Beaverdale Farmers Market,,Jane Gasperi,INFO@BEAVERDALEFARMERSMARKET.ORG,5156501652,http://beaverdalefarmersmarket.org/,https://www.facebook.com/BeaverdaleFarmFest/,www.twitter.com/BeaverdaleFarm,,,,,"4801 Franklin Avenue, Des Moines, Iowa 50310",Iowa,Des Moines,4801 Franklin Avenue,50310,-93.684710,41.612479,June to September,"Fresh fruits, Fresh vegetables, Baked goods, Canned or preserved fruits/vegetables, Coffee/tea, Crafts/woodworking items, Cut flowers, Fresh/dried herbs, Honey, Pet food, Prepared foods, Soap/body care products"
farmers market,"Oct 21st, 2022",default-farmersmarket-4-3.jpg,301773,Bettendorf Farmers Market,,Gary Weber,farmer71@aol.com,,mvgrowers.com,,,,,,,"2850 18th St. Bettendorf, Iowa 52722",Iowa,Bettendorf,2850 18th St,52722,-90.5007298,41.5519516,05/02/2022 to 10/28/2022,"Fresh fruits, Fresh vegetables"
farmers market,"Sep 10th, 2020",default-farmersmarket-4-3.jpg,300498,Wapello County Farmers Market,,Donald Harness,dharness@iowatelecom.net,6416806216,,Wapello County  Farmers Market,,,,,,"Ottumwa, Iowa 52501",Iowa,Ottumwa,,52501,-92.425855,41.017422,June to October,"Fresh fruits, Baked goods, Canned or preserved fruits/vegetables, Crafts/woodworking items, Eggs, Fresh/dried herbs, Honey, Prepared foods, Soap/body care products"
farmers market,"Sep 13th, 2020",default-farmersmarket-4-3.jpg,300595,Urbana Farmers' Market,,Eileen Schmidt,louiesmom4@gmail.com,319-443-5620,,urbanafarmersmarket,urbanaiafm,,,,,"102 Capitol Ave, Urbana, Iowa 52345",Iowa,Urbana,102 Capitol Ave,52345,-91.873662,42.223981,May to September,"Fresh vegetables, Baked goods, Canned or preserved fruits/vegetables, Crafts/woodworking items, Eggs, Soap/body care products"
farmers market,"Sep 15th, 2020",default-farmersmarket-4-3.jpg,300049,Waukon Farmers Market,,Lana Dahlstrom,dahlstro@iastate.edu,563-568-6345,,https://www.facebook.com/WaukonFM,,,,,,"850 Rossville Road, Waukon, Iowa 52172",Iowa,Waukon,850 Rossville Road,52172,-91.472878,43.260191,June,"Fresh fruits, Fresh vegetables, Baked goods, Canned or preserved fruits/vegetables, Cut flowers, Eggs, Fresh/dried herbs, Wine, spirits, beer, hard cider"
farmers market,"Sep 15th, 2020",default-farmersmarket-4-3.jpg,300313,Sioux City Farmers Market,,Becky Kempers,becky.scfm@gmail.com,7122512616,www.farmersmarketsiouxcity.com,Sioux City Farmers Market,@SiouxCityFarmersMarket,,,,,"100 Pearl Street, Sioux City, Iowa 51101",Iowa,Sioux City,100 Pearl Street,51101,-96.408445,42.490552,May to October,"Fresh fruits, Fresh vegetables, Baked goods, Bedding plants, Canned or preserved fruits/vegetables, Coffee/tea, Crafts/woodworking items, Cut flowers, Dairy products., Eggs, Fresh/dried herbs, Honey, Juices/non-alcoholic ciders, Mushrooms, Pet food, Poultry/fowl meat and products, Prepared foods, Red/other non-poultry meat and products, Soap/body care products, Wine, spirits, beer, hard cider"
on-farm market,"Apr 5th, 2021",default-onfarmmarket-4-3.jpg,701594,Eden Ridge Acres,,Eden Ridge Acres,Hello@edenridgeacres.com,,Www.EdenRidgeAcres.com,Www.facebook.com/edenridgeacresfarm,,,,,,"10126 30th Ave., Prole, Iowa 50229",Iowa,Prole,10126 30th Ave.,50229,-93.750998,41.378166,,
on-farm market,"Aug 13th, 2014",default-onfarmmarket-4-3.jpg,700834,JoKir's Wild Black Angus Beef,,Jolene Pisel,jokirwild@gmail.com,515-332-2608,www.jokirswild.com,,,,,,,"1452 220th Street, Gilmore City, Iowa 50541",Iowa,Gilmore City,1452 220th Street,50541,-94.353924,42.7321788,,
on-farm market,"Aug 27th, 2014",default-onfarmmarket-4-3.jpg,700957,Heritage Breed Meats,,Kevin Powell,heritagebreedmeats@gmail.com,563-880-1773,,https://www.facebook.com/pages/Heritage-Breeds-Meats/136842603056527,https://twitter.com/heritagebreedmt,,,,,"12942 338th Street, Strawberry Point , Iowa 52076",Iowa,Strawberry Point,12942 338th Street,52076,-91.548779,42.7373776,,
on-farm market,"Aug 27th, 2014",default-onfarmmarket-4-3.jpg,700962,Oldhaus Fibers,,Joel L Huebner,joel@oldhausfibers.com,3193306441,www.oldhausfibers.com,https://www.facebook.com/OldhausFibers,https://www.twitter.com/oldhaus,,,,http://oldhausfibers.blogspot.com/,"619 44th Ave, Amana, Iowa 52203",Iowa,Amana,619 44th Ave,52203,-91.872289,41.800429,,
on-farm market,"Jan 30th, 2017",default-onfarmmarket-4-3.jpg,701386,Anderson Farm,,Kari Anderson,karipearls@gmail.com,563-554-1397,http://www.grassfedrecipes.com/,https://www.facebook.com/Grassfed-Recipes-186658131371711/,,,,,,"1575 Underwood Ave, Muscatine, Iowa 52761",Iowa,Muscatine,1575 Underwood Ave,52761,-90.927414,41.509551,,
on-farm market,"Jul 26th, 2014",default-onfarmmarket-4-3.jpg,700368,Dunham Bee Farm,,Zach Dunham,DunhamBeeFarm12@gmail.com,712-643-5320,www.dunhambeefarm.com,facebook.com/dunhambeefarm,,,,,,"3385 130th St., Dunlap, Iowa 51529",Iowa,Dunlap,3385 130th St.,51529,-95.619054,41.866123,,
on-farm market,"Jul 26th, 2014",default-onfarmmarket-4-3.jpg,700437,Burr Oak Farm LLC,,William C. Eggers,wce1482@yahoo.com,515-462-1482,www.burroakfarm.com,,,,,,,"1121 220th Street, Winterset, Iowa 50273",Iowa,Winterset,1121 220th Street,50273,-94.218255,41.331685,,
on-farm market,"Jul 27th, 2014",default-onfarmmarket-4-3.jpg,700474,North River Adventure Farm,,max steigleder,steiglederm@aol.com,515-689-8349,www.nnorthrivercornmaze.com,https://www.facebook.com/Northrivercornmaze/timeline,,,,,,"2768 U.s. highway 65 / 69, Carlisle, Iowa 50047",Iowa,Carlisle,2768 U.s. highway 65 / 69,50047,-93.567492,41.486184,,
on-farm market,"Jul 28th, 2014",default-onfarmmarket-4-3.jpg,700124,Honey Creek Farms,,Roger Matson,neverendingharvest2010@gmail.com,712-741-5490,neverendingharvest.com,https://www.facebook.com/neverendingharvestvideos,,,,,,"Box 532, Oakland, Iowa 51560",Iowa,Oakland,Box 532,51560,-95.395799,41.3094375,,
on-farm market,"Jul 28th, 2014",default-onfarmmarket-4-3.jpg,700515,Timberlea Farm,,Charles & Clare Kostelnick,ckostelnick@yahoo.com,515-432-9251,,https://www.facebook.com/timberlea.aronia,,,,,,"705 SW Ringgold Street, Boone, Iowa 50036",Iowa,Boone,705 SW Ringgold Street,50036,-93.918501,42.050524,,
on-farm market,"Jul 28th, 2014",default-onfarmmarket-4-3.jpg,700748,Appleberry Orchard,,Jessica Welch,info@appleberryorchard.com,319-372-1307,www.appleberryorchard.com,www.facebook.com/appleberryorchard?ref=hl,,,,,,"2469 Highway 2, Donnellson, Iowa 52625",Iowa,Donnellson,2469 Highway 2,52625,-91.436569,40.633892,,
on-farm market,"Jul 30th, 2014",default-onfarmmarket-4-3.jpg,700074,Randol Honey Farm,,Pat Randol,pdrandol@gmail.com,515-210-7445,www.randolhoney.com,https://www.facebook.com/pages/Randol-Honey-Farm/101353756576663,,,,,,"2505 Carriage Trail, Winterset, Iowa 50273",Iowa,Winterset,2505 Carriage Trail,50273,-94.160644,41.2837312,,
on-farm market,"Jul 30th, 2014",default-onfarmmarket-4-3.jpg,700545,Baumhoefeners Red Barn Market,,Leslie Baumhoefener,bninc4@qwestoffice.net,319 396-5522,www.redbarnmarket.net,http:/www.facebook.com/BaumhoefenersRedBarnMarket,,,,,,"4241 Johnson Avenue N.W., Cedar Rapids, Iowa 52405",Iowa,Cedar Rapids,4241 Johnson Avenue N.W.,52405,-91.726645,41.970148,,
on-farm market,"Jul 30th, 2014",default-onfarmmarket-4-3.jpg,700571,Van Dyke Sweet Corn,,Robin Van Dyke,robinsvandyke@live.com,515-257-0298,,,,,,,,"12270 Ne 22nd, Ankeny, Iowa 50021",Iowa,Ankeny,12270 Ne 22nd,50021,-93.581511,41.7854780,,
on-farm market,"Jun 12th, 2015",default-onfarmmarket-4-3.jpg,701269,Produce farm,,Deb Blackledge,5blackcatacres@gmail.com,515-979-6588,www.blackcatacres.com,Black Cat Acres,,,,,,"66435 270th Lane, Nevada, Iowa 50201",Iowa,Nevada,66435 270th Lane,50201,-93.378450,41.965503,,
on-farm market,"Jun 26th, 2015",default-onfarmmarket-4-3.jpg,701277,Black Cat Acres,,Deb Blackledge,kablackledge@gmail.com,515-979-6588,www.blackcatacres.com,Black Cat Acres,,,,,,"66435 270th Lane, Nevada, Iowa 50201",Iowa,Nevada,66435 270th Lane,50201,-93.377935,41.9650666,,
on-farm market,"Mar 8th, 2020",default-onfarmmarket-4-3.jpg,701508,Twisted Oaks Meats,,Jamie Bierman,jamie@twistedoaksmeats.com,5638890175,twistedoaksmeats.com,Twisted Oaks Meats,,,,,,"1063 205th St., Tipton, Iowa 52772",Iowa,Tipton,1063 205th St.,52772,-91.128372,41.76979,,
on-farm market,"Mar 9th, 2022",default-onfarmmarket-4-3.jpg,701644,Junge Produce,,Adam and Erin Junge,hello@jungeproduce.com,4029814196,https://www.jungeproduce.com/,https://www.facebook.com/jungeproduce/,,,,,,"21000 RD L34, UNDERWOOD, Iowa 51576",Iowa,UNDERWOOD,21000 RD L34,51576,-95.765419,41.318044,,
on-farm market,"May 14th, 2015",default-onfarmmarket-4-3.jpg,701256,Charging Skunk Farms,,Genni Heffron,genniheffron@gmail.com,641-947-2900,,www.facebook.com/ChargingSkunkFarms,,,,,,"724 Hwy G76, Dallas, Iowa 50062",Iowa,Dallas,724 Hwy G76,50062,-93.208783,41.2114248,,
on-farm market,"Sep 2nd, 2014",default-onfarmmarket-4-3.jpg,701006,"Doe's and Diva's Dairy, Inc.",,Janna Feldman,doesanddivas@gmail.com,7125453049,www.doesanddivas.com,https://www.facebook.com/pages/Does-and-Divas-Dairy,https://twitter.com/Does_and_Divas,,,,,"31140 185th Street, Honey Creek, Iowa 51542",Iowa,Honey Creek,31140 185th Street,51542,-95.829059,41.4641740,,
on-farm market,"Sep 2nd, 2014",default-onfarmmarket-4-3.jpg,701007,The Golden Egg,,Susan Young,susankasalyoung@gmail.com,3196834042,,https://www.facebook.com/pages/The-Golden-Egg/212499635466241?ref=hl,,,,,http://thegoldeneggic.blogspot.com/,"2625 HWY 1 SW, Iowa City, Iowa 52240",Iowa,Iowa City,2625 HWY 1 SW,52240,-91.673626,41.600381,,
on-farm market,"Sep 30th, 2014",default-onfarmmarket-4-3.jpg,700293,"Picket Fence Creamery, LLC",,Jill Burkhart,jbmilk@minburncomm.net,515-438-2697,www.picketfencecreamery.com,,,,,,,"14583 S Avenue, Woodward, Iowa 50276",Iowa,Woodward,14583 S Avenue,50276,-93.934071,41.829577,,
csa enterprise,"Apr 14th, 2022",csa_200806_10141_20220414132010.png,200806,Cedar Shake Farm,"We at Cedar Shake Farm are committed to providing locally-grown produce and flowers using sustainable and organic practices. We are not certified organic however, we strive to provide quality products while following those same practices. We use crop rotation as well as succession planting to provide a bountiful plethora of produce and flowers for your needs.",Clinton & Kelli Eshelman,cedarshakefarm@gmail.com,6417450919,http://www.cedarshakefarm.com,http://www.facebook.com/cedarshakefarm,,https://www.instagram.com/cedarshakefarm/?hl=en,,,http://www.cedarshakefarm.com/blog,"1823 225th St, Winterset, Iowa 50273",Iowa,Winterset,1823 225th St,50273,-94.084308488461,41.323033157672,April to October,"Apples, Blackberries, raspberries, Blueberries, Gooseberries, Honeydew melons, Peaches (yellow, white, etc.), Pears, Strawberries, Watermelons, Artichoke, Arugula, Asparagus, Beans, other (lima, etc.), Beets, Bok Choy, Broccoli, Broccoli rabe, Broccolini/baby broccoli, Brussels sprouts, Cabbage, Carrots, Cauliflower, Celery, Collard Greens, Corn (sweet), Cucumbers, Eggplant (Italian, Japanese, etc.), Garlic, Green beans, Green onions/scallions, Kale, Kohlrabi, Leeks, Lettuce (head, leaf, etc.), Mache/lamb’s lettuce, Mixed leafy greens, Mizuna, Mustard Greens, Okra, Onions (pearl, red, white, etc.), Peanuts, Peas, Peppers, hot, Peppers, sweet, Potatoes (new, red, russet, etc.), Pumpkin, Radicchio, Radishes, Rhubarb, Shallots, Spinach: baby, regular, Squash, summer: zucchini, etc., Squash, winter: butternut, etc., Sweet potatoes, Swiss chard, Tomatillo, Tomatoes (cherry, grape, etc.), Tomatoes (plum, round, etc.), Turnip greens, Turnips, microgreens, Apples, Blackberries, raspberries, Blueberries, Gooseberries, Honeydew melons, Peaches (yellow, white, etc.), Pears, Strawberries, Watermelons, microgreensArtichoke, Arugula, Asparagus, Beans, other (lima, etc.), Beets, Bok Choy, Broccoli, Broccoli rabe, Broccolini/baby broccoli, Brussels sprouts, Cabbage, Carrots, Cauliflower, Celery, Collard Greens, Corn (sweet), Cucumbers, Eggplant (Italian, Japanese, etc.), Garlic, Green beans, Green onions/scallions, Kale, Kohlrabi, Leeks, Lettuce (head, leaf, etc.), Mache/lamb’s lettuce, Mixed leafy greens, Mizuna, Mustard Greens, Okra, Onions (pearl, red, white, etc.), Peanuts, Peas, Peppers, hot, Peppers, sweet, Potatoes (new, red, russet, etc.), Pumpkin, Radicchio, Radishes, Rhubarb, Shallots, Spinach: baby, regular, Squash, summer: zucchini, etc., Squash, winter: butternut, etc., Sweet potatoes, Swiss chard, Tomatillo, Tomatoes (cherry, grape, etc.), Tomatoes (plum, round, etc.), Turnip greens, Turnips, microgreens, Coffee and/or tea, Cut flowers, Fresh and/or dried herbs"
csa enterprise,"Apr 14th, 2022",default-csa-4-3.jpg,200080,GoodEetens Produce Farm,,Michael and Darla Eeten,darlaeeten@gmail.com,712-348-1877,www.goodeetens.weebly.com,,,,,,,"2773 Jefferson Ave., Boyden, Iowa 51234/1655 280th St., Everly, Iowa 51338",Iowa,Everly,1655 280th St,51338,-95.258313,43.239793,June to September,"Apples, Cherries (sweet, tart, etc.), Figs, Pears, Plums (black, green, red, etc.), Artichoke, Arugula, Beans, other (lima, etc.), Beets, Broccoli, Broccoli rabe, Broccolini/baby broccoli, Cabbage, Cauliflower, Collard Greens, Corn (sweet), Cucumbers, Eggplant (Italian, Japanese, etc.), Green onions/scallions, Kale, Kohlrabi, Mixed leafy greens, Mustard Greens, Okra, Onions (pearl, red, white, etc.), Peanuts, Peas, Peppers, sweet, Potatoes (new, red, russet, etc.), Pumpkin, Radicchio, Rhubarb, Shallots, Soybeans, Spinach: baby, regular, Squash, winter: butternut, etc., Sweet potatoes, Swiss chard, Tomatoes (plum, round, etc.), Turnip greens, Apples, Cherries (sweet, tart, etc.), Figs, Pears, Plums (black, green, red, etc.), Artichoke, Arugula, Beans, other (lima, etc.), Beets, Broccoli, Broccoli rabe, Broccolini/baby broccoli, Cabbage, Cauliflower, Collard Greens, Corn (sweet), Cucumbers, Eggplant (Italian, Japanese, etc.), Green onions/scallions, Kale, Kohlrabi, Mixed leafy greens, Mustard Greens, Okra, Onions (pearl, red, white, etc.), Peanuts, Peas, Peppers, sweet, Potatoes (new, red, russet, etc.), Pumpkin, Radicchio, Rhubarb, Shallots, Soybeans, Spinach: baby, regular, Squash, winter: butternut, etc., Sweet potatoes, Swiss chard, Tomatoes (plum, round, etc.), Turnip greens, Fresh and/or dried herbs, Maple syrup and/or maple products"
csa enterprise,"Apr 24th, 2020",default-csa-4-3.jpg,200871,Wild Woods Farm CSA,,Kate Edwards,Kate.wildwoodsfarm@gmail.com,319-333-2980,www.wildwoodscsa.com,www.facebook.com/veggiefarm,,,,,,"4065 245th St NE, Solon, Iowa 52333",Iowa,Solon,4065 245th St NE,52333,-91.5345776,41.7548329,April to December,"Artichoke, Arugula, Beans, other (lima, etc.), Bok Choy, Broccoli, Broccolini/baby broccoli, Cabbage, Carrots, Cauliflower, Collard Greens, Cucumbers, Eggplant (Italian, Japanese, etc.), Garlic, Green beans, Kale, Kohlrabi, Lettuce (head, leaf, etc.), Mixed leafy greens, Mustard Greens, Okra, Onions (pearl, red, white, etc.), Peanuts, Peas, Peppers, hot, Peppers, sweet, Potatoes (new, red, russet, etc.), Radicchio, Radishes, Rhubarb, Shallots, Spinach: baby, regular, Squash, summer: zucchini, etc., Squash, winter: butternut, etc., Sweet potatoes, Tomatoes (cherry, grape, etc.), Tomatoes (plum, round, etc.), Turnip greens, Artichoke, Arugula, Beans, other (lima, etc.), Bok Choy, Broccoli, Broccolini/baby broccoli, Cabbage, Carrots, Cauliflower, Collard Greens, Cucumbers, Eggplant (Italian, Japanese, etc.), Garlic, Green beans, Kale, Kohlrabi, Lettuce (head, leaf, etc.), Mixed leafy greens, Mustard Greens, Okra, Onions (pearl, red, white, etc.), Peanuts, Peas, Peppers, hot, Peppers, sweet, Potatoes (new, red, russet, etc.), Radicchio, Radishes, Rhubarb, Shallots, Spinach: baby, regular, Squash, summer: zucchini, etc., Squash, winter: butternut, etc., Sweet potatoes, Tomatoes (cherry, grape, etc.), Tomatoes (plum, round, etc.), Turnip greens"
csa enterprise,"Aug 20th, 2014",default-csa-4-3.jpg,200091,TableTop Farm,,Sally and Luke Gran,thetable@tabletopfarm.com,515-291-8727,http://www.tabletopfarm.com/,https://www.facebook.com/tabletopfarm,,,,,,"65584 260th St, Nevada, Iowa 50201",Iowa,Nevada,65584 260th St,50201,-93.3942926,41.9763812,May to December,"Artichoke, Arugula, Beans, other (lima, etc.), Beets, Broccoli, Broccoli rabe, Broccolini/baby broccoli, Carrots, Cauliflower, Collard Greens, Cucumbers, Eggplant (Italian, Japanese, etc.), Endives, Garlic, Green beans, Kale, Kohlrabi, Leeks, Lettuce (head, leaf, etc.), Mixed leafy greens, Mustard Greens, Okra, Onions (pearl, red, white, etc.), Parsnips, Peanuts, Peas, Peppers, hot, Peppers, sweet, Potatoes (new, red, russet, etc.), Radicchio, Radishes, Rhubarb, Soybeans, Spinach: baby, regular, Squash, winter: butternut, etc., Sweet potatoes, Tomatoes (cherry, grape, etc.), Tomatoes (plum, round, etc.), Turnip greens, Turnips, Artichoke, Arugula, Beans, other (lima, etc.), Beets, Broccoli, Broccoli rabe, Broccolini/baby broccoli, Carrots, Cauliflower, Collard Greens, Cucumbers, Eggplant (Italian, Japanese, etc.), Endives, Garlic, Green beans, Kale, Kohlrabi, Leeks, Lettuce (head, leaf, etc.), Mixed leafy greens, Mustard Greens, Okra, Onions (pearl, red, white, etc.), Parsnips, Peanuts, Peas, Peppers, hot, Peppers, sweet, Potatoes (new, red, russet, etc.), Radicchio, Radishes, Rhubarb, Soybeans, Spinach: baby, regular, Squash, winter: butternut, etc., Sweet potatoes, Tomatoes (cherry, grape, etc.), Tomatoes (plum, round, etc.), Turnip greens, Turnips"
csa enterprise,"Aug 21st, 2014",default-csa-4-3.jpg,200458,W.H.Brookhiser & SonsLLC,,,,,,,,,,,,"3463 169th St., Wever, Iowa 52658",Iowa,Wever,3463 169th St,52658,-91.2429527,40.7138442,September to December,Nuts
csa enterprise,"Aug 28th, 2014",default-csa-4-3.jpg,200089,Small Potatoes Farm,,Rick Hartmann,info@smallpotatoesfarm.com,515-677-2438,www.smallpotatoesfarm.com,,,,,,,"24629 180th St, Minburn, Iowa 50167",Iowa,Minburn,24629 180th St,50167,-93.9972312,41.777676,June to October,"Artichoke, Arugula, Beans, other (lima, etc.), Beets, Bok Choy, Broccoli, Broccoli rabe, Broccolini/baby broccoli, Cabbage, Carrots, Cauliflower, Collard Greens, Corn (sweet), Cucumbers, Eggplant (Italian, Japanese, etc.), Garlic, Green beans, Kale, Kohlrabi, Mixed leafy greens, Okra, Peanuts, Peas, Peppers, sweet, Potatoes (new, red, russet, etc.), Pumpkin, Radicchio, Radishes, Rhubarb, Soybeans, Squash, summer: zucchini, etc., Squash, winter: butternut, etc., Sweet potatoes, Tomatoes (plum, round, etc.), Turnip greens, Artichoke, Arugula, Beans, other (lima, etc.), Beets, Bok Choy, Broccoli, Broccoli rabe, Broccolini/baby broccoli, Cabbage, Carrots, Cauliflower, Collard Greens, Corn (sweet), Cucumbers, Eggplant (Italian, Japanese, etc.), Garlic, Green beans, Kale, Kohlrabi, Mixed leafy greens, Okra, Peanuts, Peas, Peppers, sweet, Potatoes (new, red, russet, etc.), Pumpkin, Radicchio, Radishes, Rhubarb, Soybeans, Squash, summer: zucchini, etc., Squash, winter: butternut, etc., Sweet potatoes, Tomatoes (plum, round, etc.), Turnip greens, Eggs"
csa enterprise,"Dec 5th, 2015",default-csa-4-3.jpg,200670,Blue Gate Farm,,Jill Beebout,mail@bluegatefarmfresh.com,641/203-0758,www.bluegatefarmfresh.com,https://www.facebook.com/Blue-Gate-Farm-73120835758/,,,,,,"749 Wyoming St, Chariton, Iowa 50049",Iowa,Chariton,749 Wyoming St,50049,-93.2061662,41.1617283,June to December,"Artichoke, Arugula, Beans, other (lima, etc.), Bok Choy, Broccoli rabe, Broccolini/baby broccoli, Cabbage, Carrots, Cauliflower, Celery, Collard Greens, Corn (sweet), Cucumbers, Eggplant (Italian, Japanese, etc.), Garlic, Green beans, Green onions/scallions, Kohlrabi, Leeks, Lettuce (head, leaf, etc.), Mache/lamb’s lettuce, Mixed leafy greens, Mizuna, Mustard Greens, Okra, Onions (pearl, red, white, etc.), Parsnips, Peanuts, Peas, Peppers, hot, Peppers, sweet, Potatoes (new, red, russet, etc.), Pumpkin, Radicchio, Rhubarb, Spinach: baby, regular, Squash, summer: zucchini, etc., Squash, winter: butternut, etc., Sweet potatoes, Tomatoes (cherry, grape, etc.), Tomatoes (plum, round, etc.), Turnip greens, Turnips, Artichoke, Arugula, Beans, other (lima, etc.), Bok Choy, Broccoli rabe, Broccolini/baby broccoli, Cabbage, Carrots, Cauliflower, Celery, Collard Greens, Corn (sweet), Cucumbers, Eggplant (Italian, Japanese, etc.), Garlic, Green beans, Green onions/scallions, Kohlrabi, Leeks, Lettuce (head, leaf, etc.), Mache/lamb’s lettuce, Mixed leafy greens, Mizuna, Mustard Greens, Okra, Onions (pearl, red, white, etc.), Parsnips, Peanuts, Peas, Peppers, hot, Peppers, sweet, Potatoes (new, red, russet, etc.), Pumpkin, Radicchio, Rhubarb, Spinach: baby, regular, Squash, summer: zucchini, etc., Squash, winter: butternut, etc., Sweet potatoes, Tomatoes (cherry, grape, etc.), Tomatoes (plum, round, etc.), Turnip greens, Turnips, Canned or preserved fruits/vegetables: jams, jellies, preserves, salsas, pickles, dried fruit, etc., Eggs, Fresh and/or dried herbs, Honey"
csa enterprise,"Feb 17th, 2016",default-csa-4-3.jpg,200686,7 Pines Farm,,Dan Beougher,dsb626@live.com,515-710-4430,www.7pinesfarm.com,,,,,,,"15201 NE 80th St, Maxwell, Iowa 50161",Iowa,Maxwell,15201 NE 80th St,50161,-93.4423018,41.838562,April to November,"Apples, Cherries (sweet, tart, etc.), Currants, Figs, Pears, Plums (black, green, red, etc.), Artichoke, Arugula, Beans, other (lima, etc.), Beets, Bok Choy, Broccoli, Broccoli rabe, Broccolini/baby broccoli, Cabbage, Carrots, Cauliflower, Celery, Collard Greens, Corn (sweet), Cucumbers, Eggplant (Italian, Japanese, etc.), Garlic, Green beans, Kale, Kohlrabi, Mixed leafy greens, Mustard Greens, Okra, Onions (pearl, red, white, etc.), Parsnips, Peanuts, Peas, Peppers, hot, Peppers, sweet, Potatoes (new, red, russet, etc.), Pumpkin, Radicchio, Radishes, Rhubarb, Rutabaga, Shallots, Soybeans, Spinach: baby, regular, Squash, summer: zucchini, etc., Squash, winter: butternut, etc., Sweet potatoes, Swiss chard, Tomatoes (cherry, grape, etc.), Tomatoes (plum, round, etc.), Turnip greens, Chicken, Turkey, Beef/veal (sausage), Goat, Lamb (chops, roasts), Lamb (sausage), Pork (bacon), Pork (cold cuts), Rabbit, Apples, Cherries (sweet, tart, etc.), Currants, Figs, Pears, Plums (black, green, red, etc.), Artichoke, Arugula, Beans, other (lima, etc.), Beets, Bok Choy, Broccoli, Broccoli rabe, Broccolini/baby broccoli, Cabbage, Carrots, Cauliflower, Celery, Collard Greens, Corn (sweet), Cucumbers, Eggplant (Italian, Japanese, etc.), Garlic, Green beans, Kale, Kohlrabi, Mixed leafy greens, Mustard Greens, Okra, Onions (pearl, red, white, etc.), Parsnips, Peanuts, Peas, Peppers, hot, Peppers, sweet, Potatoes (new, red, russet, etc.), Pumpkin, Radicchio, Radishes, Rhubarb, Rutabaga, Shallots, Soybeans, Spinach: baby, regular, Squash, summer: zucchini, etc., Squash, winter: butternut, etc., Sweet potatoes, Swiss chard, Tomatoes (cherry, grape, etc.), Tomatoes (plum, round, etc.), Turnip greens, Canned or preserved fruits/vegetables: jams, jellies, preserves, salsas, pickles, dried fruit, etc., Fresh and/or dried herbs, Chicken, Turkey, Beef/veal (sausage), Goat, Lamb (chops, roasts), Lamb (sausage), Pork (bacon), Pork (cold cuts), Rabbit"
csa enterprise,"Jan 26th, 2022",default-csa-4-3.jpg,200939,Bountiful Harvest Farm,,Angie Scharnhorst,Ascharny@me.com,5126441623,https://www.bountifulharvestcsa.com/,@bountifulharvestiowa,,,,,,", Solon , Iowa",Iowa,Solon,,,-91.4940604,41.8072344,June to October,"Apples, Cherries (sweet, tart, etc.), Currants, Figs, Grapefruit (red, white, etc.), Grapes (black, green, red, etc.), Pears, Plums (black, green, red, etc.), Artichoke, Arugula, Beans (string), Beans, other (lima, etc.), Beets, Bok Choy, Broccoli, Broccoli rabe, Broccolini/baby broccoli, Cabbage, Carrots, Cauliflower, Collard Greens, Cucumbers, Eggplant (Italian, Japanese, etc.), Garlic, Green beans, Kale, Kohlrabi, Leeks, Mixed leafy greens, Mustard Greens, Okra, Parsnips, Peanuts, Peas, Peppers, hot, Potatoes (new, red, russet, etc.), Pumpkin, Radicchio, Radishes, Rhubarb, Rutabaga, Shallots, Spinach: baby, regular, Squash, summer: zucchini, etc., Squash, winter: butternut, etc., Sweet potatoes, Tomatoes (cherry, grape, etc.), Tomatoes (plum, round, etc.), Turnip greens, Turnips, Fresh fruits, Apples, Cherries (sweet, tart, etc.), Currants, Figs, Grapefruit (red, white, etc.), Grapes (black, green, red, etc.), Pears, Plums (black, green, red, etc.), Fresh vegetables, Artichoke, Arugula, Beans (string), Beans, other (lima, etc.), Beets, Bok Choy, Broccoli, Broccoli rabe, Broccolini/baby broccoli, Cabbage, Carrots, Cauliflower, Collard Greens, Cucumbers, Eggplant (Italian, Japanese, etc.), Garlic, Green beans, Kale, Kohlrabi, Leeks, Mixed leafy greens, Mustard Greens, Okra, Parsnips, Peanuts, Peas, Peppers, hot, Potatoes (new, red, russet, etc.), Pumpkin, Radicchio, Radishes, Rhubarb, Rutabaga, Shallots, Spinach: baby, regular, Squash, summer: zucchini, etc., Squash, winter: butternut, etc., Sweet potatoes, Tomatoes (cherry, grape, etc.), Tomatoes (plum, round, etc.), Turnip greens, Turnips, Canned or preserved fruits/vegetables: jams, jellies, preserves, salsas, pickles, dried fruit, etc., Cut flowers, Dairy products: milk, cheese, etc., Dry beans, Eggs, Fresh and/or dried herbs, Honey"
csa enterprise,"Jul 26th, 2014",default-csa-4-3.jpg,200084,Loess Hills CSA,,Mike Von,info@loesshillsccsa.com,,www.loesshillccsa.com,https://www.facebook.com/pages/Loess-Hills-CSA-Carson-Hancock-Iowa/130478413683733?fref=t,,,,,,"P.O. Box 83, Hancock, Iowa 51536",Iowa,Hancock,,51536,-95.3633591,41.3901703,May to September,"Apples, Apricots, Figs, Kiwi, Plums (black, green, red, etc.), Watermelons, Artichoke, Arugula, Beans, other (lima, etc.), Beets, Bok Choy, Broccoli, Broccoli rabe, Broccolini/baby broccoli, Cabbage, Carrots, Cauliflower, Celery, Collard Greens, Corn (sweet), Cucumbers, Eggplant (Italian, Japanese, etc.), Garlic, Green beans, Kale, Kohlrabi, Lettuce (head, leaf, etc.), Mixed leafy greens, Mustard Greens, Okra, Onions (pearl, red, white, etc.), Parsnips, Peanuts, Peas, Peppers, hot, Peppers, sweet, Potatoes (new, red, russet, etc.), Pumpkin, Radicchio, Rhubarb, Spinach: baby, regular, Squash, summer: zucchini, etc., Squash, winter: butternut, etc., Sweet potatoes, Swiss chard, Tomatoes (cherry, grape, etc.), Tomatoes (plum, round, etc.), Turnip greens, Turnips, Apples, Apricots, Figs, Kiwi, Plums (black, green, red, etc.), Watermelons, Artichoke, Arugula, Beans, other (lima, etc.), Beets, Bok Choy, Broccoli, Broccoli rabe, Broccolini/baby broccoli, Cabbage, Carrots, Cauliflower, Celery, Collard Greens, Corn (sweet), Cucumbers, Eggplant (Italian, Japanese, etc.), Garlic, Green beans, Kale, Kohlrabi, Lettuce (head, leaf, etc.), Mixed leafy greens, Mustard Greens, Okra, Onions (pearl, red, white, etc.), Parsnips, Peanuts, Peas, Peppers, hot, Peppers, sweet, Potatoes (new, red, russet, etc.), Pumpkin, Radicchio, Rhubarb, Spinach: baby, regular, Squash, summer: zucchini, etc., Squash, winter: butternut, etc., Sweet potatoes, Swiss chard, Tomatoes (cherry, grape, etc.), Tomatoes (plum, round, etc.), Turnip greens, Turnips, Fresh and/or dried herbs"
csa enterprise,"Jul 26th, 2014",default-csa-4-3.jpg,200088,Shivvers Nature Sanctuary,,Rebecca Shivvers,shivversnaturesanctuary@hotmail.com,515-450-8098,,https://www.facebook.com/groups/441207012575704/,,,,,,"2380 220th St, Ames, Iowa 50014",Iowa,Ames,2380 220th St,50014,-93.7034279,42.0345159,May to October,"Artichoke, Arugula, Beans, other (lima, etc.), Beets, Bok Choy, Broccoli, Broccolini/baby broccoli, Cabbage, Carrots, Cauliflower, Collard Greens, Corn (sweet), Cucumbers, Eggplant (Italian, Japanese, etc.), Endives, Garlic, Green beans, Kale, Kohlrabi, Leeks, Lettuce (head, leaf, etc.), Mixed leafy greens, Mustard Greens, Okra, Onions (pearl, red, white, etc.), Peanuts, Peas, Peppers, hot, Peppers, sweet, Potatoes (new, red, russet, etc.), Pumpkin, Radicchio, Rhubarb, Rutabaga, Soybeans, Squash, summer: zucchini, etc., Squash, winter: butternut, etc., Sweet potatoes, Tomatoes (cherry, grape, etc.), Tomatoes (plum, round, etc.), Turnip greens, Artichoke, Arugula, Beans, other (lima, etc.), Beets, Bok Choy, Broccoli, Broccolini/baby broccoli, Cabbage, Carrots, Cauliflower, Collard Greens, Corn (sweet), Cucumbers, Eggplant (Italian, Japanese, etc.), Endives, Garlic, Green beans, Kale, Kohlrabi, Leeks, Lettuce (head, leaf, etc.), Mixed leafy greens, Mustard Greens, Okra, Onions (pearl, red, white, etc.), Peanuts, Peas, Peppers, hot, Peppers, sweet, Potatoes (new, red, russet, etc.), Pumpkin, Radicchio, Rhubarb, Rutabaga, Soybeans, Squash, summer: zucchini, etc., Squash, winter: butternut, etc., Sweet potatoes, Tomatoes (cherry, grape, etc.), Tomatoes (plum, round, etc.), Turnip greens, Fresh and/or dried herbs, Honey"
csa enterprise,"Jul 28th, 2014",default-csa-4-3.jpg,200082,ISU Student Organic Farm,,Farm Managers,isustudentorganicfarm@gmail.com,7125413149,http://isustudentorganicfarm.weebly.com/,https://www.facebook.com/IsuStudentOrganicFarm,,,,,,"1009 Agronomy Hall, Ames, Iowa 50011",Iowa,Ames,716 Farm House Ln,50011,-93.6423456,42.0283477,June to October,"Artichoke, Beans, other (lima, etc.), Beets, Bok Choy, Broccoli rabe, Broccolini/baby broccoli, Cabbage, Carrots, Cauliflower, Collard Greens, Cucumbers, Eggplant (Italian, Japanese, etc.), Garlic, Kale, Kohlrabi, Mixed leafy greens, Mustard Greens, Okra, Onions (pearl, red, white, etc.), Parsnips, Peanuts, Peas, Peppers, hot, Peppers, sweet, Potatoes (new, red, russet, etc.), Pumpkin, Radicchio, Radishes, Rhubarb, Soybeans, Spinach: baby, regular, Squash, winter: butternut, etc., Sweet potatoes, Swiss chard, Tomatoes (cherry, grape, etc.), Tomatoes (plum, round, etc.), Turnip greens, Turnips, Artichoke, Beans, other (lima, etc.), Beets, Bok Choy, Broccoli rabe, Broccolini/baby broccoli, Cabbage, Carrots, Cauliflower, Collard Greens, Cucumbers, Eggplant (Italian, Japanese, etc.), Garlic, Kale, Kohlrabi, Mixed leafy greens, Mustard Greens, Okra, Onions (pearl, red, white, etc.), Parsnips, Peanuts, Peas, Peppers, hot, Peppers, sweet, Potatoes (new, red, russet, etc.), Pumpkin, Radicchio, Radishes, Rhubarb, Soybeans, Spinach: baby, regular, Squash, winter: butternut, etc., Sweet potatoes, Swiss chard, Tomatoes (cherry, grape, etc.), Tomatoes (plum, round, etc.), Turnip greens, Turnips, Fresh and/or dried herbs"
csa enterprise,"Jul 28th, 2014",default-csa-4-3.jpg,200090,Sweet Earth Farm,,Anne Bohl & Meghan Spees,SweetEarthDecorah@gmail.com,563-277-0079,http://www.sweetearthfarmdecorah.com/,https://www.facebook.com/SweetEarthFarm?ref=hl,,,,,,", Decorah, Iowa",Iowa,Decorah,,,-91.7857092,43.3033056,June to October,"Artichoke, Arugula, Beans, other (lima, etc.), Beets, Bok Choy, Broccolini/baby broccoli, Carrots, Cauliflower, Collard Greens, Cucumbers, Eggplant (Italian, Japanese, etc.), Endives, Garlic, Green beans, Kale, Kohlrabi, Mixed leafy greens, Mustard Greens, Okra, Onions (pearl, red, white, etc.), Parsnips, Peanuts, Peas, Peppers, hot, Potatoes (new, red, russet, etc.), Radicchio, Radishes, Rhubarb, Soybeans, Squash, summer: zucchini, etc., Squash, winter: butternut, etc., Sweet potatoes, Tomatoes (cherry, grape, etc.), Tomatoes (plum, round, etc.), Turnip greens, Turnips, Artichoke, Arugula, Beans, other (lima, etc.), Beets, Bok Choy, Broccolini/baby broccoli, Carrots, Cauliflower, Collard Greens, Cucumbers, Eggplant (Italian, Japanese, etc.), Endives, Garlic, Green beans, Kale, Kohlrabi, Mixed leafy greens, Mustard Greens, Okra, Onions (pearl, red, white, etc.), Parsnips, Peanuts, Peas, Peppers, hot, Potatoes (new, red, russet, etc.), Radicchio, Radishes, Rhubarb, Soybeans, Squash, summer: zucchini, etc., Squash, winter: butternut, etc., Sweet potatoes, Tomatoes (cherry, grape, etc.), Tomatoes (plum, round, etc.), Turnip greens, Turnips"
csa enterprise,"Jul 28th, 2014",default-csa-4-3.jpg,200092,Wabi Sabi Farm,,Ben Saunders,WabiSabiIowa@gmail.com,515-745-9951,http://wabisabi-farm.com/,https://www.facebook.com/WabiSabiFarmIowa/info,,,,,,"10743 NW 142nd Street, Granger, Iowa 50009",Iowa,Granger,10743 NW 142nd St,50009,-93.8146716,41.7609478,March to November,"Apricots, Cherries (sweet, tart, etc.), Figs, Grapes (black, green, red, etc.), Oranges, clementine, mandarins, tangerines, tangelos, Pears, Persimmons, Plums (black, green, red, etc.), Artichoke, Arugula, Asparagus, Beans (string), Beans, other (lima, etc.), Beets, Bok Choy, Broccoli, Broccoli rabe, Broccolini/baby broccoli, Cabbage, Carrots, Cauliflower, Celery, Collard Greens, Cucumbers, Eggplant (Italian, Japanese, etc.), Garlic, Green beans, Green onions/scallions, Kale, Kohlrabi, Leeks, Lettuce (head, leaf, etc.), Mixed leafy greens, Mustard Greens, Okra, Onions (pearl, red, white, etc.), Parsnips, Peanuts, Peas, Peppers, hot, Peppers, sweet, Potatoes (new, red, russet, etc.), Pumpkin, Radicchio, Radishes, Rhubarb, Rutabaga, Shallots, Spinach: baby, regular, Squash, summer: zucchini, etc., Squash, winter: butternut, etc., Sweet potatoes, Tomatoes (cherry, grape, etc.), Tomatoes (plum, round, etc.), Turnip greens, Turnips, Apricots, Cherries (sweet, tart, etc.), Figs, Grapes (black, green, red, etc.), Oranges, clementine, mandarins, tangerines, tangelos, Pears, Persimmons, Plums (black, green, red, etc.), Artichoke, Arugula, Asparagus, Beans (string), Beans, other (lima, etc.), Beets, Bok Choy, Broccoli, Broccoli rabe, Broccolini/baby broccoli, Cabbage, Carrots, Cauliflower, Celery, Collard Greens, Cucumbers, Eggplant (Italian, Japanese, etc.), Garlic, Green beans, Green onions/scallions, Kale, Kohlrabi, Leeks, Lettuce (head, leaf, etc.), Mixed leafy greens, Mustard Greens, Okra, Onions (pearl, red, white, etc.), Parsnips, Peanuts, Peas, Peppers, hot, Peppers, sweet, Potatoes (new, red, russet, etc.), Pumpkin, Radicchio, Radishes, Rhubarb, Rutabaga, Shallots, Spinach: baby, regular, Squash, summer: zucchini, etc., Squash, winter: butternut, etc., Sweet potatoes, Tomatoes (cherry, grape, etc.), Tomatoes (plum, round, etc.), Turnip greens, Turnips, Cut flowers, Wild harvested forest products: mushrooms, medicinal herbs, edible fruits and nuts, etc."
csa enterprise,"Jul 30th, 2014",default-csa-4-3.jpg,200087,Rolling Acres Farm,,Denise O'Brien,hnob@metc.net,712-243-3264,http://rollingacres.wordpress.com/,https://www.facebook.com/rollingacresatlanticiowa?ref=hl,,,,,,"59624 Chicago Rd., Atlantic, Iowa 50022",Iowa,Atlantic,59624 Chicago Rd,50022,-95.0491459,41.4770817,March to November,"Apples, Cherries (sweet, tart, etc.), Figs, Plums (black, green, red, etc.), Artichoke, Arugula, Beans, other (lima, etc.), Bok Choy, Broccoli, Broccoli rabe, Broccolini/baby broccoli, Cabbage, Carrots, Cauliflower, Collard Greens, Corn (sweet), Cucumbers, Eggplant (Italian, Japanese, etc.), Garlic, Green beans, Kale, Kohlrabi, Mixed leafy greens, Mustard Greens, Okra, Parsnips, Peanuts, Peas, Peppers, hot, Peppers, sweet, Potatoes (new, red, russet, etc.), Radicchio, Radishes, Rhubarb, Spinach: baby, regular, Squash, winter: butternut, etc., Sweet potatoes, Swiss chard, Tomatoes (cherry, grape, etc.), Tomatoes (plum, round, etc.), Turnip greens, Turnips, Chicken, Turkey, Apples, Cherries (sweet, tart, etc.), Figs, Plums (black, green, red, etc.), Artichoke, Arugula, Beans, other (lima, etc.), Bok Choy, Broccoli, Broccoli rabe, Broccolini/baby broccoli, Cabbage, Carrots, Cauliflower, Collard Greens, Corn (sweet), Cucumbers, Eggplant (Italian, Japanese, etc.), Garlic, Green beans, Kale, Kohlrabi, Mixed leafy greens, Mustard Greens, Okra, Parsnips, Peanuts, Peas, Peppers, hot, Peppers, sweet, Potatoes (new, red, russet, etc.), Radicchio, Radishes, Rhubarb, Spinach: baby, regular, Squash, winter: butternut, etc., Sweet potatoes, Swiss chard, Tomatoes (cherry, grape, etc.), Tomatoes (plum, round, etc.), Turnip greens, Turnips, Cut flowers, Eggs, Fresh and/or dried herbs, Chicken, Turkey"
csa enterprise,"Mar 13th, 2019",default-csa-4-3.jpg,200824,Balance Autism Farm and Greenhouse,,Julie Beougher,jbeougher@balanceautism.org,515-957-3352,https://www.balanceautism.org/product-category/purchase/,,,,,,,"8272 NE University Ave, Pleasant Hill, Iowa 50317",Iowa,Pleasant Hill,8272 N E University Ave,50317,-93.438595,41.6045895,May to October,"Apples, Kiwi, Pears, Plums (black, green, red, etc.), Artichoke, Arugula, Beans, other (lima, etc.), Bok Choy, Broccoli, Broccolini/baby broccoli, Cabbage, Carrots, Cauliflower, Collard Greens, Cucumbers, Eggplant (Italian, Japanese, etc.), Garlic, Green beans, Kale, Kohlrabi, Leeks, Okra, Onions (pearl, red, white, etc.), Parsnips, Peanuts, Peas, Peppers, sweet, Potatoes (new, red, russet, etc.), Pumpkin, Radicchio, Rhubarb, Spinach: baby, regular, Squash, summer: zucchini, etc., Squash, winter: butternut, etc., Sweet potatoes, Tomatoes (cherry, grape, etc.), Tomatoes (plum, round, etc.), Apples, Kiwi, Pears, Plums (black, green, red, etc.), Artichoke, Arugula, Beans, other (lima, etc.), Bok Choy, Broccoli, Broccolini/baby broccoli, Cabbage, Carrots, Cauliflower, Collard Greens, Cucumbers, Eggplant (Italian, Japanese, etc.), Garlic, Green beans, Kale, Kohlrabi, Leeks, Okra, Onions (pearl, red, white, etc.), Parsnips, Peanuts, Peas, Peppers, sweet, Potatoes (new, red, russet, etc.), Pumpkin, Radicchio, Rhubarb, Spinach: baby, regular, Squash, summer: zucchini, etc., Squash, winter: butternut, etc., Sweet potatoes, Tomatoes (cherry, grape, etc.), Tomatoes (plum, round, etc.)"
csa enterprise,"Mar 23rd, 2015",default-csa-4-3.jpg,200077,Abbe Hills Farm,,Laura Krouse,laura@abbehills.com,319-895-6924,www.abbehills.com,https://www.facebook.com/abbehillsfarm,,,,,,"825 Abbe Hills Rd, Mt. Vernon, Iowa 52314",Iowa,Mt. Vernon,825 Abbe Hills Rd,52314,-91.446325,41.949022,June to October,"Artichoke, Arugula, Beans, other (lima, etc.), Bok Choy, Broccolini/baby broccoli, Cauliflower, Collard Greens, Cucumbers, Eggplant (Italian, Japanese, etc.), Garlic, Green beans, Kale, Kohlrabi, Mustard Greens, Okra, Onions (pearl, red, white, etc.), Parsnips, Peanuts, Peas, Peppers, hot, Pumpkin, Radicchio, Rhubarb, Spinach: baby, regular, Squash, summer: zucchini, etc., Squash, winter: butternut, etc., Sweet potatoes, Swiss chard, Tomatoes (cherry, grape, etc.), Tomatoes (plum, round, etc.), Turnip greens, Turnips, Artichoke, Arugula, Beans, other (lima, etc.), Bok Choy, Broccolini/baby broccoli, Cauliflower, Collard Greens, Cucumbers, Eggplant (Italian, Japanese, etc.), Garlic, Green beans, Kale, Kohlrabi, Mustard Greens, Okra, Onions (pearl, red, white, etc.), Parsnips, Peanuts, Peas, Peppers, hot, Pumpkin, Radicchio, Rhubarb, Spinach: baby, regular, Squash, summer: zucchini, etc., Squash, winter: butternut, etc., Sweet potatoes, Swiss chard, Tomatoes (cherry, grape, etc.), Tomatoes (plum, round, etc.), Turnip greens, Turnips, Eggs"
csa enterprise,"Mar 23rd, 2015",default-csa-4-3.jpg,200447,Koenigs' Acres Farm CSA,,Matt and Karen Koenig,koenig_karen1964@msn.com,6414564903,http://sites.google.com/site/koenigsacresfarm/home,https://www.facebook.com/koenigsacresfarm,,,,,,"1510 110th Street, Hampton, Iowa 50441",Iowa,Hampton,1510 110th St,50441,-93.221035,42.687582,June to October,"Apples, Figs, Grapes (black, green, red, etc.), Kiwi, Plums (black, green, red, etc.), Watermelons, Artichoke, Arugula, Beans, other (lima, etc.), Bok Choy, Broccoli, Broccoli rabe, Broccolini/baby broccoli, Cabbage, Carrots, Cauliflower, Celery, Collard Greens, Corn (sweet), Cucumbers, Eggplant (Italian, Japanese, etc.), Endives, Green beans, Green onions/scallions, Kale, Kohlrabi, Leeks, Mixed leafy greens, Mustard Greens, Okra, Onions (pearl, red, white, etc.), Peanuts, Peas, Peppers, sweet, Potatoes (new, red, russet, etc.), Pumpkin, Radicchio, Radishes, Rhubarb, Rutabaga, Shallots, Soybeans, Spinach: baby, regular, Squash, winter: butternut, etc., Sweet potatoes, Swiss chard, Tomatoes (cherry, grape, etc.), Tomatoes (plum, round, etc.), Turnip greens, Chicken, Apples, Figs, Grapes (black, green, red, etc.), Kiwi, Plums (black, green, red, etc.), Watermelons, Artichoke, Arugula, Beans, other (lima, etc.), Bok Choy, Broccoli, Broccoli rabe, Broccolini/baby broccoli, Cabbage, Carrots, Cauliflower, Celery, Collard Greens, Corn (sweet), Cucumbers, Eggplant (Italian, Japanese, etc.), Endives, Green beans, Green onions/scallions, Kale, Kohlrabi, Leeks, Mixed leafy greens, Mustard Greens, Okra, Onions (pearl, red, white, etc.), Peanuts, Peas, Peppers, sweet, Potatoes (new, red, russet, etc.), Pumpkin, Radicchio, Radishes, Rhubarb, Rutabaga, Shallots, Soybeans, Spinach: baby, regular, Squash, winter: butternut, etc., Sweet potatoes, Swiss chard, Tomatoes (cherry, grape, etc.), Tomatoes (plum, round, etc.), Turnip greens, Canned or preserved fruits/vegetables: jams, jellies, preserves, salsas, pickles, dried fruit, etc., Eggs, Fresh and/or dried herbs, Honey, Nuts, Chicken"
