[{"Type":"farmers market","ModifyDate":"Jan 10th, 2021","Image":"default-farmersmarket-4-3.jpg","ListingID":"301369","Name":"Kamuela Farmers Market","Description":null,"ContactName":"Stacy Aurway","ContactEmail":"kamuelafarmersmarket@gmail.com","ContactPhone":"8089601493","Website":"kamuelafarmersmarket.com","Facebook":"https:\/\/www.facebook.com\/kamuelafarmersmarket","Twitter":null,"Instagram":null,"Pinterest":null,"Youtube":null,"Blog":null,"Address":"67-139 Pukalani Road, Kamuela, Hawaii 96727","State":"Hawaii","City":"Kamuela","Street":"67-139 Pukalani Road","Zip":"96727","Longitude":"-155.66266","Latitude":"20.017794","Dates":"Year-round","Products":"Fresh fruits, Fresh vegetables, Baked goods, Bedding plants, Canned or preserved fruits\/vegetables, Coffee\/tea, Crafts\/woodworking items, Cut flowers, Eggs, Fish\/seafood, Fresh\/dried herbs, Honey, Juices\/non-alcoholic ciders, Nursery stock, Nuts, Pet food, Prepared foods, Red\/other non-poultry meat and products, Soap\/body care products, Tofu\/non-animal protein"},{"Type":"farmers market","ModifyDate":"Jan 25th, 2021","Image":"default-farmersmarket-4-3.jpg","ListingID":"300268","Name":"Adaptations' Fresh Feast","Description":null,"ContactName":"Maureen Datta","ContactEmail":"order.adapt@gmail.com","ContactPhone":"808-324-6600","Website":"www.adaptationsaloha.com","Facebook":"https:\/\/www.facebook.com\/adaptationsaloha","Twitter":"https:\/\/twitter.com\/MaureenDatta","Instagram":null,"Pinterest":null,"Youtube":null,"Blog":null,"Address":"79-7500 Mamalahoa Highway, Unit 1, Kealakekua, Hawaii 96750","State":"Hawaii","City":"Kealakekua","Street":"79-7500 Mamalahoa Highway, Unit 1","Zip":"96750","Longitude":"-155.92365","Latitude":"19.5257840","Dates":"Year-round","Products":"Fresh fruits, Fresh vegetables, Baked goods, Canned or preserved fruits\/vegetables, Coffee\/tea, Dairy products., Eggs, Fresh\/dried herbs, Honey, Mushrooms, Nuts"},{"Type":"farmers market","ModifyDate":"Jan 9th, 2021","Image":"default-farmersmarket-4-3.jpg","ListingID":"300215","Name":"Hanalei Farmers' Market at Hale Halawai 'Ohana O Hanalei","Description":null,"ContactName":"Tanya Nuuhiwa Gomez","ContactEmail":"farmersmarket@halehalawai.org","ContactPhone":"808-826-1011","Website":"http:\/\/halehalawai.org\/","Facebook":"https:\/\/www.facebook.com\/hanaleifarmersmarket.halehalawai\/","Twitter":null,"Instagram":null,"Pinterest":null,"Youtube":null,"Blog":null,"Address":"55299C Kuhio Hwy , Hanalei, Hawaii 96714","State":"Hawaii","City":"Hanalei","Street":"55299C Kuhio Hwy","Zip":"96714","Longitude":"-159.49920","Latitude":"22.201731","Dates":"Year-round","Products":"Fresh fruits, Fresh vegetables, Baked goods, Canned or preserved fruits\/vegetables, Coffee\/tea, Crafts\/woodworking items, Cut flowers, Dairy products., Eggs, Fresh\/dried herbs, Honey, Juices\/non-alcoholic ciders, Mushrooms, Nuts, Poultry\/fowl meat and products, Prepared foods, Soap\/body care products, Wild harvested forest products"},{"Type":"farmers market","ModifyDate":"Jul 27th, 2021","Image":"default-farmersmarket-4-3.jpg","ListingID":"301579","Name":"Hana Farmers Market","Description":null,"ContactName":"Kari Hagedorn","ContactEmail":"hanafarmersmarket@gmail.com","ContactPhone":"8083780084","Website":"www.hanafarmersmarket.org","Facebook":"HFUU Hana Chapter","Twitter":null,"Instagram":null,"Pinterest":null,"Youtube":null,"Blog":null,"Address":"Hana Highway, Hana, Hawaii 96713","State":"Hawaii","City":"Hana","Street":"Hana Highway","Zip":"96713","Longitude":"-155.98694","Latitude":"20.750751","Dates":"March to October","Products":"Fresh fruits, Fresh vegetables, Baked goods, Canned or preserved fruits\/vegetables, Coffee\/tea, Crafts\/woodworking items, Cut flowers, Dairy products., Eggs, Fish\/seafood, Fresh\/dried herbs, Honey, Juices\/non-alcoholic ciders, Mushrooms, Nursery stock, Nuts, Poultry\/fowl meat and products, Prepared foods, Red\/other non-poultry meat and products, Soap\/body care products, Wild harvested forest products"},{"Type":"farmers market","ModifyDate":"Jun 24th, 2021","Image":"default-farmersmarket-4-3.jpg","ListingID":"301544","Name":"Grove Farm Market","Description":null,"ContactName":"Nikki Ige","ContactEmail":"nige@grovefarm.com","ContactPhone":"8086322528","Website":"https:\/\/www.grovefarm.com\/grovefarmmarket","Facebook":"https:\/\/www.facebook.com\/GroveFarmMarket\/","Twitter":null,"Instagram":null,"Pinterest":null,"Youtube":null,"Blog":null,"Address":"4411 Kikowaena St, Lihue, Hawaii 96766","State":"Hawaii","City":"Lihue","Street":"4411 Kikowaena St","Zip":"96766","Longitude":"-159.39557","Latitude":"21.965378","Dates":"Year-round","Products":"Fresh fruits, Fresh vegetables, Baked goods, Canned or preserved fruits\/vegetables, Coffee\/tea, Cut flowers, Fish\/seafood, Fresh\/dried herbs, Honey, Juices\/non-alcoholic ciders, Poultry\/fowl meat and products, Prepared foods, Red\/other non-poultry meat and products"},{"Type":"farmers market","ModifyDate":"Mar 20th, 2023","Image":"default-farmersmarket-4-3.jpg","ListingID":"309666","Name":"Kaiser Permanente's Fresh Day Farmers' Market","Description":null,"ContactName":null,"ContactEmail":null,"ContactPhone":"808-432-2270","Website":"http:\/\/www.kp.org\/famersmarket","Facebook":null,"Twitter":null,"Instagram":null,"Pinterest":null,"Youtube":null,"Blog":null,"Address":"1010 Pensacola Street Honolulu, HI 96814","State":"Hawaii","City":"HONOLULU","Street":"1010 PENSACOLA ST","Zip":"96814","Longitude":"-157.84573140475248","Latitude":"21.30059672156182","Dates":null,"Products":""},{"Type":"farmers market","ModifyDate":"Mar 20th, 2023","Image":"default-farmersmarket-4-3.jpg","ListingID":"309667","Name":"Keauhou Farmers Market","Description":null,"ContactName":null,"ContactEmail":null,"ContactPhone":null,"Website":"http:\/\/www.keauhoufarmersmarket.com","Facebook":null,"Twitter":null,"Instagram":null,"Pinterest":null,"Youtube":null,"Blog":null,"Address":"78-6831 Alii Drive, Keauhou Shopping Center Kailua-Kona, HI 96740","State":"Hawaii","City":"KAILUA KONA","Street":"78-6831 ALII DR","Zip":"96740","Longitude":"-155.96614056224922","Latitude":"19.57337976250685","Dates":null,"Products":""},{"Type":"farmers market","ModifyDate":"Mar 20th, 2023","Image":"default-farmersmarket-4-3.jpg","ListingID":"309668","Name":"Lipoa Street Farmer's Market","Description":null,"ContactName":null,"ContactEmail":null,"ContactPhone":"808-357-4564","Website":null,"Facebook":"http:\/\/www.facebook.com\/lipoamarket","Twitter":null,"Instagram":null,"Pinterest":null,"Youtube":null,"Blog":null,"Address":"95 Lipoa Street Suite 210 Kihei, HI 96753","State":"Hawaii","City":"KIHEI","Street":"95 W LIPOA ST","Zip":"96753","Longitude":"-156.45670203167674","Latitude":"20.747443980309384","Dates":null,"Products":""},{"Type":"farmers market","ModifyDate":"Mar 20th, 2023","Image":"default-farmersmarket-4-3.jpg","ListingID":"309669","Name":"Makawao Marketplace","Description":null,"ContactName":null,"ContactEmail":null,"ContactPhone":"808-280-5516","Website":"http:\/\/makawaomarketplace.com","Facebook":"http:\/\/www.facebook.com\/MakawaoMarketplace","Twitter":null,"Instagram":null,"Pinterest":null,"Youtube":null,"Blog":null,"Address":"3654 Baldwin Ave Makawao, HI 96768 We are located in Upcountry Maui on Baldwin Avenue Makawao town. Street parking on Baldwin and public parking lot on Makawao Avenue.","State":"Hawaii","City":"MAKAWAO","Street":"3654 BALDWIN AVE","Zip":"96768","Longitude":"-156.31144255356344","Latitude":"20.855321714539134","Dates":null,"Products":""},{"Type":"farmers market","ModifyDate":"Mar 20th, 2023","Image":"default-farmersmarket-4-3.jpg","ListingID":"309670","Name":"Waimea Town Market at Parker School","Description":null,"ContactName":null,"ContactEmail":null,"ContactPhone":"808-938-2897","Website":null,"Facebook":null,"Twitter":null,"Instagram":null,"Pinterest":null,"Youtube":null,"Blog":null,"Address":"65-1224 Lindsey Road Kamuela, HI 96743","State":"Hawaii","City":"KAMUELA","Street":"65-1224 LINDSEY LN","Zip":"96743","Longitude":"-155.67295160224347","Latitude":"20.023980129684865","Dates":null,"Products":""},{"Type":"on-farm market","ModifyDate":"Apr 18th, 2022","Image":"default-onfarmmarket-4-3.jpg","ListingID":"700127","Name":"Hilo Coffee Mill Market @ The Mill","Description":"","ContactName":"Jeanette Baysa","ContactEmail":"hcmcoffee@msn.com","ContactPhone":"808-968-1333","Website":"www.hilocoffeemill.com","Facebook":"https:\/\/www.facebook.com\/hcmcoffee","Twitter":"www.twitter.com\/hilocoffeemill","Instagram":"","Pinterest":"","Youtube":"","Blog":"","Address":"17-995 Volcano Rd, Mountain View, Hawaii 96771","State":"Hawaii","City":"Mountain View","Street":"17-995 Volcano Rd","Zip":"96771","Longitude":"-155.08852","Latitude":"19.564663","Dates":null,"Products":""},{"Type":"on-farm market","ModifyDate":"Jan 27th, 2021","Image":"default-onfarmmarket-4-3.jpg","ListingID":"701578","Name":"Kahumana Farms & Caf Market","Description":null,"ContactName":"Saleh Azizi","ContactEmail":"sazizi@asi-hawaii.org","ContactPhone":"8083835224","Website":"www.kahumana.org","Facebook":"facebook.com\/kahumanafarms\/","Twitter":"www.kahumana.org","Instagram":null,"Pinterest":null,"Youtube":null,"Blog":null,"Address":"86-660 lualualei homestead road, Wai\\'anae, Hawaii 96792","State":"Hawaii","City":"Wai\\'anae","Street":"86-660 lualualei homestead road","Zip":"96792","Longitude":"-158.15596","Latitude":"21.440047","Dates":null,"Products":""},{"Type":"on-farm market","ModifyDate":"Jul 30th, 2014","Image":"default-onfarmmarket-4-3.jpg","ListingID":"700278","Name":"Love Family Farms","Description":null,"ContactName":"Ken and Margy Love","ContactEmail":"ken@mycoffee.net","ContactPhone":"808-323-2417","Website":"http:\/\/www.hawaiifruit.net","Facebook":null,"Twitter":null,"Instagram":null,"Pinterest":null,"Youtube":null,"Blog":null,"Address":"81-639994 lilikalani, Captain Cook, Hawaii 96704","State":"Hawaii","City":"Captain Cook","Street":"81-639994 lilikalani","Zip":"96704","Longitude":"-155.92097","Latitude":"19.499856","Dates":null,"Products":""},{"Type":"on-farm market","ModifyDate":"Sep 30th, 2014","Image":"default-onfarmmarket-4-3.jpg","ListingID":"700204","Name":"Edge of the World","Description":null,"ContactName":"Dr. Kurt Weigelt","ContactEmail":"weigelt@aloha.net","ContactPhone":"(808) 328-7424","Website":"www.konaedge.com","Facebook":null,"Twitter":null,"Instagram":null,"Pinterest":null,"Youtube":null,"Blog":null,"Address":"82-5889 Old Government Rd., Captain Cook, Hawaii 96704","State":"Hawaii","City":"Captain Cook","Street":"82-5889 Old Government Rd.","Zip":"96704","Longitude":"-155.89835","Latitude":"19.477671","Dates":null,"Products":""}]