[{"Type":"on-farm market","ModifyDate":"Apr 6th, 2020","Image":"default-onfarmmarket-4-3.jpg","ListingID":"701515","Name":"WCF Neighborhood Farmers Market","Description":null,"ContactName":"Wolf Kuhlemeier","ContactEmail":"Wolf@wcfarmstx.com","ContactPhone":"8069069055","Website":"Wcfarmstx.com","Facebook":"@wcfarmstx","Twitter":null,"Instagram":null,"Pinterest":null,"Youtube":null,"Blog":null,"Address":"5301 County Road 1260, Lubbock, Texas 79407","State":"Texas","City":"Lubbock","Street":"5301 County Road 1260","Zip":"79407","Longitude":"-102.03007","Latitude":"33.544297","Dates":null,"Products":""},{"Type":"on-farm market","ModifyDate":"Aug 11th, 2014","Image":"default-onfarmmarket-4-3.jpg","ListingID":"700829","Name":"Taylor Farm","Description":null,"ContactName":"Ward & Jill Taylor","ContactEmail":"taylorstxfarm@gmail.com","ContactPhone":"512-229-7446","Website":"Taylor farm.org","Facebook":"Www.facebook.com\/taylorstxfarm","Twitter":null,"Instagram":null,"Pinterest":null,"Youtube":null,"Blog":null,"Address":"1003 private rd 3081, Lexington , Texas 78947","State":"Texas","City":"Lexington","Street":"1003 private rd 3081","Zip":"78947","Longitude":"-97.158258","Latitude":"30.384445","Dates":null,"Products":""},{"Type":"on-farm market","ModifyDate":"Aug 12th, 2014","Image":"default-onfarmmarket-4-3.jpg","ListingID":"700830","Name":"Munkebo Farm","Description":null,"ContactName":"Germaine Swenson","ContactEmail":"germaine.swenson@gmail.com","ContactPhone":"512-278-0908","Website":"www.munkebofarm.com","Facebook":null,"Twitter":null,"Instagram":null,"Pinterest":null,"Youtube":null,"Blog":null,"Address":"20826 Blake Manor Rd., Manor, Texas 78653","State":"Texas","City":"Manor","Street":"20826 Blake Manor Rd.","Zip":"78653","Longitude":"-97.482753","Latitude":"30.2618250","Dates":null,"Products":""},{"Type":"on-farm market","ModifyDate":"Aug 12th, 2023","Image":"onfarmmarket_701486_12618_20230812133114.png","ListingID":"701486","Name":"Hope Farms Market","Description":"Hope Farms is a seven acre farm located in the heart of Houston\\'s Sunnyside neighborhood where we grow healthy food, train veterans and others to become professional farmers, teach children and adults how to grow and cook healthy food and provide a gathering place for neighbors near and far to learn about and celebrate local food. Visit our market stand every Saturday from 9-1 to purchase freshly harvested produce, or our once-a-month First Wednesday evening market with local artisan vendors, fresh produce, and fun activities! Located on the corner of Airport and Scott Street.","ContactName":"Gracie Cavnar","ContactEmail":"Gracie@recipe4success.org","ContactPhone":"713-520-0443","Website":"Www.hopefarmshtx.org","Facebook":"https:\/\/www.facebook.com\/HopeFarmsHTX","Twitter":"","Instagram":"https:\/\/www.instagram.com\/r4sfoundation\/","Pinterest":"","Youtube":"","Blog":"","Address":"10401 Scott Street, Houston , Texas 77051","State":"Texas","City":"Houston","Street":"10401 Scott Street","Zip":"77051","Longitude":"-95.367588","Latitude":"29.645582","Dates":"Year-round","Products":"Fresh fruits, Fresh vegetables, Bedding plants, Cut flowers, Eggs, Fresh\/dried herbs, Honey"},{"Type":"on-farm market","ModifyDate":"Aug 14th, 2014","Image":"default-onfarmmarket-4-3.jpg","ListingID":"700392","Name":"Dewberry Hills Farm","Description":null,"ContactName":"Jane Levan","ContactEmail":"buychicken@verizon.net","ContactPhone":"512-308-7706","Website":"www.dhfarms.com","Facebook":"https:\/\/www.facebook.com\/pages\/Dewberry-Hills-Farm\/282475245128234","Twitter":null,"Instagram":null,"Pinterest":null,"Youtube":null,"Blog":null,"Address":"5619 FM 1624, Lexington, Texas 78947","State":"Texas","City":"Lexington","Street":"5619 FM 1624","Zip":"78947","Longitude":"-97.027186","Latitude":"30.403759","Dates":null,"Products":""},{"Type":"on-farm market","ModifyDate":"Aug 14th, 2014","Image":"default-onfarmmarket-4-3.jpg","ListingID":"700508","Name":"Mandujano Brothers","Description":null,"ContactName":"Veronica Mandujano","ContactEmail":"coyanosapumpkins@yahoo.com","ContactPhone":"432-343-2669","Website":null,"Facebook":"www.facebook.com\/mandujanobrothersproduce","Twitter":null,"Instagram":null,"Pinterest":null,"Youtube":null,"Blog":null,"Address":"FM 1776 And Watermelon Row, Coyanosa, Texas 79730","State":"Texas","City":"Coyanosa","Street":"FM 1776 And Watermelon Row","Zip":"79730","Longitude":"-103.06756","Latitude":"31.263145","Dates":null,"Products":""},{"Type":"on-farm market","ModifyDate":"Aug 26th, 2014","Image":"default-onfarmmarket-4-3.jpg","ListingID":"700952","Name":"Bar M Ranch","Description":null,"ContactName":"Matt Schiel","ContactEmail":"bmrcattle@yahoo.com","ContactPhone":"936-697-1401","Website":"www.bmrcattle.com","Facebook":"https:\/\/www.facebook.com\/pages\/Bar-M-Ranch\/138325886265765","Twitter":null,"Instagram":null,"Pinterest":null,"Youtube":null,"Blog":null,"Address":"26319 Decker Prairie Rosehill Rd., Magnolia, Texas 77355","State":"Texas","City":"Magnolia","Street":"26319 Decker Prairie Rosehill Rd.","Zip":"77355","Longitude":"-95.672724","Latitude":"30.125433","Dates":null,"Products":""},{"Type":"on-farm market","ModifyDate":"Aug 27th, 2014","Image":"default-onfarmmarket-4-3.jpg","ListingID":"700281","Name":"Lund Produce Co. Branchgrove Farms","Description":null,"ContactName":"Kevin Lundgren","ContactEmail":"lundproduce@gmail.com","ContactPhone":"512-845-0267","Website":null,"Facebook":null,"Twitter":null,"Instagram":null,"Pinterest":null,"Youtube":null,"Blog":null,"Address":"15906 County Line Rd., Elgin, Texas 78621","State":"Texas","City":"Elgin","Street":"15906 County Line Rd.","Zip":"78621","Longitude":"-97.390609","Latitude":"30.394821","Dates":null,"Products":""},{"Type":"on-farm market","ModifyDate":"Aug 28th, 2014","Image":"default-onfarmmarket-4-3.jpg","ListingID":"700471","Name":"Stoney Brook Farm","Description":null,"ContactName":"Louis Duffield","ContactEmail":"stoneybrookfrm@sbcglobal.net","ContactPhone":"936 569 4859","Website":"Stoneybrookfrm@sbcglobal","Facebook":null,"Twitter":null,"Instagram":null,"Pinterest":null,"Youtube":null,"Blog":null,"Address":"6427 South Farm Road 225, Nacogdoches, Texas 75964","State":"Texas","City":"Nacogdoches","Street":"6427 South Farm Road 225","Zip":"75964","Longitude":"-94.503789","Latitude":"31.4432005","Dates":null,"Products":""},{"Type":"on-farm market","ModifyDate":"Aug 28th, 2014","Image":"default-onfarmmarket-4-3.jpg","ListingID":"700968","Name":"Spoiled Hen Coop and Run","Description":null,"ContactName":"Wayne DuBose","ContactEmail":"wwdubose@yahoo.com","ContactPhone":"9366373568","Website":null,"Facebook":null,"Twitter":null,"Instagram":null,"Pinterest":null,"Youtube":null,"Blog":null,"Address":", Diboll, Texas","State":"Texas","City":"Diboll","Street":null,"Zip":null,"Longitude":"-94.768853","Latitude":"31.261484","Dates":null,"Products":""},{"Type":"on-farm market","ModifyDate":"Aug 31st, 2014","Image":"default-onfarmmarket-4-3.jpg","ListingID":"701001","Name":"Grapevine Farms","Description":null,"ContactName":"Paul Thomas","ContactEmail":"paul@grapevinefarms.org","ContactPhone":"3256657818","Website":"www.grapevinefarms.com","Facebook":"grapevinefarms","Twitter":null,"Instagram":null,"Pinterest":null,"Youtube":null,"Blog":null,"Address":"2826 West Lake Road Abilene, Texas 79601","State":"Texas","City":"Abilene","Street":"2826 West Lake Road,","Zip":"79601","Longitude":"-99.725288","Latitude":"32.4825850","Dates":null,"Products":""},{"Type":"on-farm market","ModifyDate":"Aug 5th, 2015","Image":"default-onfarmmarket-4-3.jpg","ListingID":"701291","Name":"Moleyville Farms","Description":null,"ContactName":"Travis Moles","ContactEmail":"tlmoles@icloud.com","ContactPhone":"817-846-1047","Website":null,"Facebook":null,"Twitter":null,"Instagram":null,"Pinterest":null,"Youtube":null,"Blog":null,"Address":"672 fm 4116, Campbell , Texas 75422","State":"Texas","City":"Campbell","Street":"672 fm 4116","Zip":"75422","Longitude":"-95.888151","Latitude":"33.144244","Dates":null,"Products":""},{"Type":"on-farm market","ModifyDate":"Feb 6th, 2016","Image":"default-onfarmmarket-4-3.jpg","ListingID":"701314","Name":"Honey's Acres Farm","Description":null,"ContactName":"Carolyn White","ContactEmail":"honeysacresfarm@gmail.com","ContactPhone":"972 741-8791","Website":null,"Facebook":"Honey\\'s Acres Farm","Twitter":null,"Instagram":null,"Pinterest":null,"Youtube":null,"Blog":null,"Address":"1350 Stoney Creek Dr, Cedar Hill, Texas 75104","State":"Texas","City":"Cedar Hill","Street":"1350 Stoney Creek Dr","Zip":"75104","Longitude":"-96.937545","Latitude":"32.561252","Dates":null,"Products":""},{"Type":"on-farm market","ModifyDate":"Feb 8th, 2019","Image":"default-onfarmmarket-4-3.jpg","ListingID":"701470","Name":"Texas US Farms","Description":null,"ContactName":"Rachel Leveridge","ContactEmail":"texasusfarms@gmail.com","ContactPhone":"979-213-8320","Website":"www.texasusfarms.com","Facebook":"https:\/\/www.facebook.com\/TexasUSfarms\/?ref=bookmarks","Twitter":null,"Instagram":null,"Pinterest":null,"Youtube":null,"Blog":null,"Address":"15631 Autumn Oaks Ln, Iola, Texas 77861","State":"Texas","City":"Iola","Street":"15631 Autumn Oaks Ln","Zip":"77861","Longitude":"-96.110927","Latitude":"30.699648","Dates":null,"Products":""},{"Type":"on-farm market","ModifyDate":"Feb 9th, 2019","Image":"default-onfarmmarket-4-3.jpg","ListingID":"701471","Name":"Mill Creek Meat Company LLC","Description":null,"ContactName":"James Hooser","ContactEmail":"hooserfarms@gmail.com","ContactPhone":"9036547744","Website":"millcreekmeatcompany.com","Facebook":null,"Twitter":null,"Instagram":null,"Pinterest":null,"Youtube":null,"Blog":null,"Address":"2408 Hamrock Rd, Italy, Texas 76651","State":"Texas","City":"Italy","Street":"2408 Hamrock Rd","Zip":"76651","Longitude":"-96.862786","Latitude":"32.100708","Dates":null,"Products":""},{"Type":"on-farm market","ModifyDate":"Jan 14th, 2021","Image":"default-onfarmmarket-4-3.jpg","ListingID":"701575","Name":"Blessed Organics LLC","Description":null,"ContactName":"David Brown","ContactEmail":"Info@BlessedOrganicsLLC.com","ContactPhone":"9153053484","Website":"https:\/\/www.BlessedOrganicsLLC.com\/","Facebook":null,"Twitter":null,"Instagram":null,"Pinterest":null,"Youtube":null,"Blog":null,"Address":"6176 RIVER PARK PL, EL PASO, Texas 79932","State":"Texas","City":"EL PASO","Street":"6176 RIVER PARK PL","Zip":"79932","Longitude":"-106.61736","Latitude":"31.878107","Dates":null,"Products":""},{"Type":"on-farm market","ModifyDate":"Jan 25th, 2020","Image":"default-onfarmmarket-4-3.jpg","ListingID":"701499","Name":"Ficarro Farms","Description":null,"ContactName":"Luke Ficarro","ContactEmail":"ficarrofarms@gmail.com","ContactPhone":"361-799-2325","Website":"ficarrofarms.com","Facebook":null,"Twitter":"twitter.com\/lfficarro","Instagram":null,"Pinterest":null,"Youtube":null,"Blog":"ficarrofarms.com\/blog\/","Address":", Corpus Christi, Texas 78413","State":"Texas","City":"Corpus Christi","Street":null,"Zip":"78413","Longitude":"-97.402830","Latitude":"27.682065","Dates":null,"Products":""},{"Type":"on-farm market","ModifyDate":"Jul 26th, 2014","Image":"default-onfarmmarket-4-3.jpg","ListingID":"700021","Name":"The Herb Cottage","Description":null,"ContactName":"Cindy Meredith","ContactEmail":"cindy@theherbcottage.com","ContactPhone":"979-562-2153","Website":"http:\/\/theherbcottage.com","Facebook":"https:\/\/www.facebook.com\/theherbcottage","Twitter":"https:\/\/twitter.com\/herbiecott","Instagram":null,"Pinterest":null,"Youtube":null,"Blog":"http:\/\/theherbcottage.blogspot.com\/","Address":"442 CR 233, Hallettsville, Texas 77964","State":"Texas","City":"Hallettsville","Street":"442 CR 233","Zip":"77964","Longitude":"-96.927152","Latitude":"29.5629932","Dates":null,"Products":""},{"Type":"on-farm market","ModifyDate":"Jul 26th, 2014","Image":"default-onfarmmarket-4-3.jpg","ListingID":"700722","Name":"Echo Springs Blueberry Farm","Description":null,"ContactName":"Phyllis Vaselniuck","ContactEmail":"info@texasblueberrys.com","ContactPhone":"903 852 5277","Website":"www.echospringsblueberyfarm.com","Facebook":null,"Twitter":null,"Instagram":null,"Pinterest":null,"Youtube":null,"Blog":null,"Address":"7235 FM 607, Brownsboro, Texas 75778","State":"Texas","City":"Brownsboro","Street":"7235 FM 607","Zip":"75778","Longitude":"-95.640854","Latitude":"32.2439146","Dates":null,"Products":""},{"Type":"on-farm market","ModifyDate":"Jul 27th, 2014","Image":"default-onfarmmarket-4-3.jpg","ListingID":"700112","Name":"Liberty Farms Dairy","Description":null,"ContactName":"Conan Martin","ContactEmail":"stephanie@libertydairyfarms.com","ContactPhone":"254-974-3041","Website":"www.libertdairyfarms.com","Facebook":"https:\/\/www.facebook.com\/libertyfarmsdairy","Twitter":null,"Instagram":null,"Pinterest":null,"Youtube":null,"Blog":null,"Address":"287 County Road 2495, Hico, Texas 76457","State":"Texas","City":"Hico","Street":"287 County Road 2495","Zip":"76457","Longitude":"-97.964857","Latitude":"31.991469","Dates":null,"Products":""},{"Type":"on-farm market","ModifyDate":"Jul 27th, 2014","Image":"default-onfarmmarket-4-3.jpg","ListingID":"700240","Name":"Cuts Of Color","Description":null,"ContactName":"Rita Anders","ContactEmail":"ritajanders@cvctx.com","ContactPhone":"979-561-6162","Website":"www.cutsofcolor.com","Facebook":"https:\/\/www.facebook.com\/pages\/Cuts-Of-Color\/114984438567908","Twitter":null,"Instagram":null,"Pinterest":null,"Youtube":null,"Blog":null,"Address":"1166 CR 210, Weimar, Texas 78962","State":"Texas","City":"Weimar","Street":"1166 CR 210","Zip":"78962","Longitude":"-96.704865","Latitude":"29.679000","Dates":null,"Products":""},{"Type":"on-farm market","ModifyDate":"Jul 27th, 2014","Image":"default-onfarmmarket-4-3.jpg","ListingID":"700578","Name":"Flaylers Fruit Farm","Description":null,"ContactName":"Richard Flayler","ContactEmail":"relisys6@yahoo.com","ContactPhone":"979-877-4872","Website":null,"Facebook":null,"Twitter":null,"Instagram":null,"Pinterest":null,"Youtube":null,"Blog":null,"Address":"11366 Hahn Rd, Sealy, Texas 77474","State":"Texas","City":"Sealy","Street":"11366 Hahn Rd","Zip":"77474","Longitude":"-96.303691","Latitude":"29.801639","Dates":null,"Products":""},{"Type":"on-farm market","ModifyDate":"Jul 27th, 2014","Image":"default-onfarmmarket-4-3.jpg","ListingID":"700586","Name":"Deep Creek Farm","Description":null,"ContactName":"Robert Perry","ContactEmail":"prryrbrt@yahoo.com","ContactPhone":"903 521 2239","Website":null,"Facebook":null,"Twitter":null,"Instagram":null,"Pinterest":null,"Youtube":null,"Blog":null,"Address":"15970 highway 271, Tyler, Texas 75708","State":"Texas","City":"Tyler","Street":"15970 highway 271","Zip":"75708","Longitude":"-95.141124","Latitude":"32.437659","Dates":null,"Products":""},{"Type":"on-farm market","ModifyDate":"Jul 27th, 2014","Image":"default-onfarmmarket-4-3.jpg","ListingID":"700622","Name":"Bluebonnet Berries","Description":null,"ContactName":"john thomas","ContactEmail":"bjtjwt@msn.com","ContactPhone":"936-594-6473","Website":"bjtjwt@msn.com","Facebook":null,"Twitter":null,"Instagram":null,"Pinterest":null,"Youtube":null,"Blog":null,"Address":"10356 South State Hwy 94, Trinity , Texas 75862","State":"Texas","City":"Trinity","Street":"10356 South State Hwy 94","Zip":"75862","Longitude":"-95.307772","Latitude":"30.996667","Dates":null,"Products":""},{"Type":"on-farm market","ModifyDate":"Jul 28th, 2016","Image":"default-onfarmmarket-4-3.jpg","ListingID":"701365","Name":"Thompson Farm Market","Description":null,"ContactName":"Brandon Thompson\/Cecilio Pia\/Amor Pia","ContactEmail":"thompsonfarms909@gmail.com","ContactPhone":"956-519-4558","Website":null,"Facebook":null,"Twitter":null,"Instagram":null,"Pinterest":null,"Youtube":null,"Blog":null,"Address":"2409 E. 4 Mile Line, Mission, Texas 78573","State":"Texas","City":"Mission","Street":"2409 E. 4 Mile Line","Zip":"78573","Longitude":"-98.275300","Latitude":"26.267234","Dates":null,"Products":""},{"Type":"on-farm market","ModifyDate":"Jul 29th, 2014","Image":"default-onfarmmarket-4-3.jpg","ListingID":"700478","Name":"Henrietta Creek Orchard","Description":null,"ContactName":"Ray and sue short","ContactEmail":"ss.apple@juno.com","ContactPhone":"817-439-3202","Website":"Henrietta creek orchard.com","Facebook":"https:\/\/www.facebook.com\/HenriettaCreekAppleOrchard","Twitter":null,"Instagram":null,"Pinterest":null,"Youtube":null,"Blog":null,"Address":"14255 Old Denton Road, Roanoke, Texas 76262","State":"Texas","City":"Roanoke","Street":"14255 Old Denton Road","Zip":"76262","Longitude":"-97.297603","Latitude":"32.986277","Dates":null,"Products":""},{"Type":"on-farm market","ModifyDate":"Jul 29th, 2014","Image":"default-onfarmmarket-4-3.jpg","ListingID":"700500","Name":"Ruby-Farm","Description":null,"ContactName":"David Ruby","ContactEmail":"davidruby@ruby-farm.com","ContactPhone":"936-225-2969","Website":"ruby-farm.com","Facebook":null,"Twitter":null,"Instagram":null,"Pinterest":null,"Youtube":null,"Blog":null,"Address":"1057 County Road 2732, Alto, Texas 75925","State":"Texas","City":"Alto","Street":"1057 County Road 2732","Zip":"75925","Longitude":"-94.991578","Latitude":"31.5267890","Dates":null,"Products":""},{"Type":"on-farm market","ModifyDate":"Jul 29th, 2014","Image":"default-onfarmmarket-4-3.jpg","ListingID":"700590","Name":"P-6 Farms","Description":null,"ContactName":"Carey Poole","ContactEmail":"carey@p-6farms.com","ContactPhone":"936-597-6062","Website":"www.p-6farms.com","Facebook":"https:\/\/www.facebook.com\/pages\/P-6-Farms\/230130763705630","Twitter":null,"Instagram":null,"Pinterest":null,"Youtube":null,"Blog":null,"Address":"9963 Pooles Road, Montgomery, Texas 77356","State":"Texas","City":"Montgomery","Street":"9963 Pooles Road","Zip":"77356","Longitude":"-95.735342","Latitude":"30.3945978","Dates":null,"Products":""},{"Type":"on-farm market","ModifyDate":"Jul 30th, 2014","Image":"default-onfarmmarket-4-3.jpg","ListingID":"700194","Name":"JZJ Natural Beef","Description":null,"ContactName":"Jack or Jo Ann Zerkle","ContactEmail":"Zerkles@aol.com","ContactPhone":"254-252-0164","Website":"jzjbeefmasters.com and jzjnaturalbeef.com","Facebook":null,"Twitter":null,"Instagram":null,"Pinterest":null,"Youtube":null,"Blog":null,"Address":"8371 Bottoms Road, Troy, Texas 76569","State":"Texas","City":"Troy","Street":"8371 Bottoms Road","Zip":"76569","Longitude":"-97.260941","Latitude":"31.160251","Dates":null,"Products":""},{"Type":"on-farm market","ModifyDate":"Jul 30th, 2014","Image":"default-onfarmmarket-4-3.jpg","ListingID":"700557","Name":"Punkin Center Berry Farm","Description":null,"ContactName":"Janet Walters Scott","ContactEmail":"janetwscott@gmail.com","ContactPhone":"254-580-8096","Website":"punkincenterberryfarm.com","Facebook":"https:\/\/www.facebook.com\/pages\/Punkin-Center-Berry-Farm\/498097476896300","Twitter":null,"Instagram":null,"Pinterest":null,"Youtube":null,"Blog":null,"Address":"1785 Waldo Road, Oglesby, Texas 76561","State":"Texas","City":"Oglesby","Street":"1785 Waldo Road","Zip":"76561","Longitude":"-97.531835","Latitude":"31.4786277","Dates":null,"Products":""},{"Type":"on-farm market","ModifyDate":"Jul 30th, 2014","Image":"default-onfarmmarket-4-3.jpg","ListingID":"700621","Name":"Texas A&M University-Commerce Twin Oaks Blueberry Farm","Description":null,"ContactName":"Charle Fox","ContactEmail":"blueberry@tamuc.edu","ContactPhone":"903-886-5100","Website":"www.tamuc.edu\/blueberry","Facebook":"www.facebook.com\/twinoaksblueberryfarm","Twitter":null,"Instagram":null,"Pinterest":null,"Youtube":null,"Blog":null,"Address":"2965 State Highway 24, Campbell, Texas 75422","State":"Texas","City":"Campbell","Street":"2965 State Highway 24","Zip":"75422","Longitude":"-95.931503","Latitude":"33.183129","Dates":null,"Products":""},{"Type":"on-farm market","ModifyDate":"Jul 31st, 2014","Image":"default-onfarmmarket-4-3.jpg","ListingID":"700707","Name":"Jollisant Farms Strawberry & Vegetable Garden","Description":null,"ContactName":"Sandra Kuta","ContactEmail":"jollisantfarms@gmail.com","ContactPhone":"936-894-2766","Website":"www.Jollisantfarms.com","Facebook":"https:\/\/www.facebook.com\/jollisantfarm","Twitter":null,"Instagram":null,"Pinterest":null,"Youtube":null,"Blog":null,"Address":"11351 County Road 203, Plantersville, Texas 77363","State":"Texas","City":"Plantersville","Street":"11351 County Road 203","Zip":"77363","Longitude":"-95.821647","Latitude":"30.325124","Dates":null,"Products":""},{"Type":"on-farm market","ModifyDate":"Jul 5th, 2016","Image":"default-onfarmmarket-4-3.jpg","ListingID":"701347","Name":"Gardenkids of Kemah","Description":null,"ContactName":"shelia thorne","ContactEmail":"gardenkidsKemah@yahoo.com","ContactPhone":"2813347529","Website":"www.gardenkidskemah.org","Facebook":"www.facebook.com\/gardenkidskemah","Twitter":null,"Instagram":null,"Pinterest":null,"Youtube":null,"Blog":null,"Address":", KEMAH, Texas 77565","State":"Texas","City":"KEMAH","Street":null,"Zip":"77565","Longitude":"-95.027307","Latitude":"29.528392","Dates":null,"Products":""},{"Type":"on-farm market","ModifyDate":"Jun 30th, 2015","Image":"default-onfarmmarket-4-3.jpg","ListingID":"701280","Name":"A Touch of Earth Gardens","Description":null,"ContactName":"Michael H. Wallace","ContactEmail":"atouchofearthgardens@gmail.com","ContactPhone":"214-502-3808","Website":null,"Facebook":"https:\/\/www.facebook.com\/pages\/A-Touch-of-Earth-Gardens\/204045213012249?pnref=lhc","Twitter":null,"Instagram":null,"Pinterest":null,"Youtube":null,"Blog":null,"Address":"838 H. Wallace Ln., Rockwall, Texas 75032","State":"Texas","City":"Rockwall","Street":"838 H. Wallace Ln.","Zip":"75032","Longitude":"-96.436831","Latitude":"32.875836","Dates":null,"Products":""},{"Type":"on-farm market","ModifyDate":"Jun 8th, 2015","Image":"default-onfarmmarket-4-3.jpg","ListingID":"700901","Name":"Kiomatia Blueberry Farm","Description":null,"ContactName":"Kenneth and Judy Short","ContactEmail":"kiomatia.blueberries@gmail.com","ContactPhone":"903.674.2477","Website":null,"Facebook":"https:\/\/www.facebook.com\/pages\/Kiomatia Blueberry Farm\/437803346331761","Twitter":null,"Instagram":null,"Pinterest":null,"Youtube":null,"Blog":null,"Address":"16602 Farm Road 410 North, Detroit, Texas 75436","State":"Texas","City":"Detroit","Street":"16602 Farm Road 410 North","Zip":"75436","Longitude":"-95.223135","Latitude":"33.878438","Dates":null,"Products":""},{"Type":"on-farm market","ModifyDate":"Mar 1st, 2021","Image":"default-onfarmmarket-4-3.jpg","ListingID":"701590","Name":"Natural Pasture Farms","Description":null,"ContactName":"Richard Bruton","ContactEmail":"richerichvet@hotmail.com","ContactPhone":"8322793133","Website":"https:\/\/www.naturalpasturefarms.com","Facebook":null,"Twitter":null,"Instagram":null,"Pinterest":null,"Youtube":null,"Blog":null,"Address":"976 county rd 351, Gause, Texas 77857","State":"Texas","City":"Gause","Street":"976 county rd 351","Zip":"77857","Longitude":"-96.641107","Latitude":"30.764064","Dates":null,"Products":""},{"Type":"on-farm market","ModifyDate":"Mar 23rd, 2015","Image":"default-onfarmmarket-4-3.jpg","ListingID":"700333","Name":"Honey's Farm Fresh","Description":null,"ContactName":"Penny Baker","ContactEmail":"honeysfarmfresh@gmail.com","ContactPhone":"806-676-9179","Website":"www.honeysfarmfresh.com","Facebook":"https:\/\/www.facebook.com\/pages\/Honeys-Farm-Fresh\/201738469838822","Twitter":null,"Instagram":null,"Pinterest":null,"Youtube":null,"Blog":null,"Address":"16100 FM 2590, Amarillo, Texas 79119","State":"Texas","City":"Amarillo","Street":"16100 FM 2590","Zip":"79119","Longitude":"-101.93758","Latitude":"35.0464500","Dates":null,"Products":""},{"Type":"on-farm market","ModifyDate":"Mar 26th, 2015","Image":"default-onfarmmarket-4-3.jpg","ListingID":"700602","Name":"Partybarn Farm","Description":null,"ContactName":"Richard Smith","ContactEmail":"partybarn18@gmail.com","ContactPhone":"281-255-4428","Website":"www.partybarnfarm.com","Facebook":"www.Facebook.com\/PartybarnFarm","Twitter":null,"Instagram":null,"Pinterest":null,"Youtube":null,"Blog":null,"Address":"18611 Becker Rd, Hockley, Texas 77447","State":"Texas","City":"Hockley","Street":"18611 Becker Rd","Zip":"77447","Longitude":"-95.799977","Latitude":"30.045827","Dates":null,"Products":""},{"Type":"on-farm market","ModifyDate":"Mar 30th, 2020","Image":"default-onfarmmarket-4-3.jpg","ListingID":"701512","Name":"SerenityFarm.farm","Description":null,"ContactName":"Steve Larkin","ContactEmail":"travelingcageman@gmail.com","ContactPhone":"2145367525","Website":"SerenityFarm.farm","Facebook":"https:\/\/www.facebook.com\/larkinfarm","Twitter":null,"Instagram":null,"Pinterest":null,"Youtube":null,"Blog":null,"Address":"19892 N STATE HWY 34, TERRELL, Texas 75161","State":"Texas","City":"TERRELL","Street":"19892 N STATE HWY 34","Zip":"75161","Longitude":"-96.196888","Latitude":"32.814598","Dates":null,"Products":""},{"Type":"on-farm market","ModifyDate":"May 17th, 2017","Image":"default-onfarmmarket-4-3.jpg","ListingID":"701409","Name":"Three Sisters Farm","Description":null,"ContactName":"Jennifer Plihal","ContactEmail":"Info@threesistersfarmtx.com","ContactPhone":"832-276-4979","Website":null,"Facebook":null,"Twitter":null,"Instagram":null,"Pinterest":null,"Youtube":null,"Blog":null,"Address":"14025 Oak Lake Village Dr, Needville , Texas 77461","State":"Texas","City":"Needville","Street":"14025 Oak Lake Village Dr","Zip":"77461","Longitude":"-95.658259","Latitude":"29.4089580","Dates":null,"Products":""},{"Type":"on-farm market","ModifyDate":"May 30th, 2022","Image":"default-onfarmmarket-4-3.jpg","ListingID":"700359","Name":"SB Longhorns","Description":"Locally raised grass-fed beef.","ContactName":"Steve Beggs","ContactEmail":"Farmers2@sblonghorns.com","ContactPhone":"469-767-5394","Website":"www.sblonghorns.com","Facebook":"","Twitter":"","Instagram":"","Pinterest":"","Youtube":"","Blog":"","Address":"3841 FM 2264, Decatur, Texas 76234","State":"Texas","City":"Decatur","Street":"3857 FM 2264","Zip":"76234","Longitude":"-97.439859","Latitude":"33.184096","Dates":"Year-round","Products":"Red\/other non-poultry meat and products"},{"Type":"on-farm market","ModifyDate":"Oct 26th, 2014","Image":"default-onfarmmarket-4-3.jpg","ListingID":"701154","Name":"A Garden in Every Home","Description":null,"ContactName":"Andrea McGilvray","ContactEmail":"cowgirlcapital@att.net","ContactPhone":"210-413-7392","Website":"http:\/\/www.agardenineveryhome.com\/","Facebook":"https:\/\/www.facebook.com\/AGardenInEveryHome","Twitter":null,"Instagram":null,"Pinterest":null,"Youtube":null,"Blog":null,"Address":"251 Lost Oak, Bandera, Texas 78003","State":"Texas","City":"Bandera","Street":"251 Lost Oak","Zip":"78003","Longitude":"-99.035729","Latitude":"29.745359","Dates":null,"Products":""},{"Type":"on-farm market","ModifyDate":"Sep 16th, 2014","Image":"default-onfarmmarket-4-3.jpg","ListingID":"700294","Name":"FLOHAS Farms","Description":null,"ContactName":"James Bass","ContactEmail":"james@flohasfarms.com","ContactPhone":"903-505-1374","Website":"flohasfarms.com","Facebook":null,"Twitter":null,"Instagram":null,"Pinterest":null,"Youtube":null,"Blog":null,"Address":"8564 County Road 4912, Ladonia, Texas 75449","State":"Texas","City":"Ladonia","Street":"8564 County Road 4912","Zip":"75449","Longitude":"-95.868255","Latitude":"33.379028","Dates":null,"Products":""},{"Type":"on-farm market","ModifyDate":"Sep 16th, 2014","Image":"default-onfarmmarket-4-3.jpg","ListingID":"700323","Name":"Funky Monkey Farms, LLC","Description":null,"ContactName":"Funky Monkey","ContactEmail":"info@funkymonkeyfarms.com","ContactPhone":null,"Website":"Www.funkymonkeyfarms.com","Facebook":null,"Twitter":null,"Instagram":null,"Pinterest":null,"Youtube":null,"Blog":null,"Address":"780 Burton St., Alvin, Texas 77511","State":"Texas","City":"Alvin","Street":"780 Burton St.","Zip":"77511","Longitude":"-95.269408","Latitude":"29.4172010","Dates":null,"Products":""},{"Type":"on-farm market","ModifyDate":"Sep 16th, 2014","Image":"default-onfarmmarket-4-3.jpg","ListingID":"700326","Name":"Coyote Creek Organic Farm and Feed Mill","Description":null,"ContactName":"Cameron Molberg","ContactEmail":"mill@coyotecreekfarm.org","ContactPhone":"512-285-2556","Website":"CoyoteCreekFarm.com","Facebook":"https:\/\/www.facebook.com\/pages\/Coyote-Creek-Organic-Feed-Mill-and-Farm\/119211684770073?ref=hl","Twitter":"https:\/\/twitter.com\/CoyoteCreekFarm","Instagram":null,"Pinterest":null,"Youtube":null,"Blog":"http:\/\/coyotecreekfarm.tumblr.com","Address":"13817 Klaus Lane, Elgin, Texas 78621","State":"Texas","City":"Elgin","Street":"13817 Klaus Lane","Zip":"78621","Longitude":"-97.428517","Latitude":"30.3619800","Dates":null,"Products":""},{"Type":"on-farm market","ModifyDate":"Sep 18th, 2014","Image":"default-onfarmmarket-4-3.jpg","ListingID":"700477","Name":"Sun Seasons","Description":null,"ContactName":"David Stanley Moulton","ContactEmail":"stan.moulton@gmail.com","ContactPhone":"830-426-1343","Website":null,"Facebook":null,"Twitter":null,"Instagram":null,"Pinterest":null,"Youtube":null,"Blog":null,"Address":"1504 County Road 532. Post Office Box 103, Hondo, Texas 78861","State":"Texas","City":"Hondo","Street":"1504 County Road 532. Post Office Box 103","Zip":"78861","Longitude":"-99.146618","Latitude":"29.308190","Dates":null,"Products":""},{"Type":"on-farm market","ModifyDate":"Sep 18th, 2014","Image":"default-onfarmmarket-4-3.jpg","ListingID":"700581","Name":"Hawkins Organic","Description":null,"ContactName":"Matthew S Williams","ContactEmail":"rcfurn@yahoo.com","ContactPhone":"903-769-1017","Website":null,"Facebook":null,"Twitter":null,"Instagram":null,"Pinterest":null,"Youtube":null,"Blog":null,"Address":"170 Yates Street, Hawkins, Texas 75765","State":"Texas","City":"Hawkins","Street":"170 Yates Street","Zip":"75765","Longitude":"-95.207062","Latitude":"32.5975978","Dates":null,"Products":""},{"Type":"on-farm market","ModifyDate":"Sep 22nd, 2016","Image":"default-onfarmmarket-4-3.jpg","ListingID":"701372","Name":"Rockin Bar B Ranch","Description":null,"ContactName":null,"ContactEmail":null,"ContactPhone":null,"Website":null,"Facebook":"Bobbi Smith","Twitter":null,"Instagram":null,"Pinterest":null,"Youtube":null,"Blog":null,"Address":"5261 CR 4738, Cumby, Texas 75433","State":"Texas","City":"Cumby","Street":"5261 CR 4738","Zip":"75433","Longitude":"-95.773851","Latitude":"33.2184740","Dates":null,"Products":""},{"Type":"on-farm market","ModifyDate":"Sep 23rd, 2014","Image":"default-onfarmmarket-4-3.jpg","ListingID":"701032","Name":"Briers Simmental Ranch","Description":null,"ContactName":null,"ContactEmail":null,"ContactPhone":null,"Website":null,"Facebook":"https:\/\/www.facebook.com\/BriersSimmentalRanch","Twitter":null,"Instagram":null,"Pinterest":null,"Youtube":null,"Blog":null,"Address":"5349 FM 244, Anderson , Texas","State":"Texas","City":"Anderson","Street":"5349 FM 244","Zip":null,"Longitude":"-95.924803","Latitude":"30.4618557","Dates":null,"Products":""},{"Type":"on-farm market","ModifyDate":"Sep 9th, 2014","Image":"default-onfarmmarket-4-3.jpg","ListingID":"701046","Name":"Wolf Creek Farms","Description":null,"ContactName":"Wolf Kuhlemeier","ContactEmail":"wolf@wolfcreekfarmsonline.com","ContactPhone":"806.853.7901","Website":"wolfcreekfarmsonline.com","Facebook":null,"Twitter":"https:\/\/www.twitter.com\/wolfcreekfarms","Instagram":null,"Pinterest":null,"Youtube":null,"Blog":null,"Address":"5301 County Road 1260, Lubbock, Texas 79407","State":"Texas","City":"Lubbock","Street":"5301 County Road 1260","Zip":"79407","Longitude":"-102.02966","Latitude":"33.545375","Dates":null,"Products":""}]