[{"Type":"farmers market","ModifyDate":"Apr 25th, 2020","Image":"default-farmersmarket-4-3.jpg","ListingID":"301086","Name":"Adams-Ricci Farmers Market","Description":null,"ContactName":null,"ContactEmail":null,"ContactPhone":null,"Website":"https:\/\/bit.ly\/2xZlt79","Facebook":"https:\/\/www.facebook.com\/FarmersAtAdamsRicciParkEast\/","Twitter":"@adamsriccifm","Instagram":null,"Pinterest":null,"Youtube":"n\/a","Blog":null,"Address":"100 East Penn Drive, Enola, Pennsylvania 17025","State":"Pennsylvania","City":"Enola","Street":"100 East Penn Drive","Zip":"17025","Longitude":"-76.937407","Latitude":"40.273997","Dates":"May to October","Products":"Fresh fruits, Fresh vegetables, Baked goods, Bedding plants, Canned or preserved fruits\/vegetables, Coffee\/tea, Cut flowers, Dairy products., Dry beans, Eggs, Fresh\/dried herbs, Honey, Pet food, Poultry\/fowl meat and products, Prepared foods, Red\/other non-poultry meat and products, Soap\/body care products, Wine, spirits, beer, hard cider"},{"Type":"farmers market","ModifyDate":"Apr 29th, 2021","Image":"default-farmersmarket-4-3.jpg","ListingID":"301498","Name":"Greater Washington County Food Bank Farmers' Market","Description":null,"ContactName":"Jodi Gatts","ContactEmail":"admin@gwcfb.org","ContactPhone":"7246322190","Website":"www.gwcfb.org","Facebook":"Greater Washington County Food Bank","Twitter":null,"Instagram":null,"Pinterest":null,"Youtube":null,"Blog":null,"Address":"909 National Pike West, Brownsville, Pennsylvania 15417","State":"Pennsylvania","City":"Brownsville","Street":"909 National Pike West","Zip":"15417","Longitude":"-79.977907","Latitude":"40.041867","Dates":"June to October","Products":"Fresh fruits, Fresh vegetables, Baked goods, Bedding plants, Coffee\/tea, Crafts\/woodworking items, Cut flowers, Eggs, Fresh\/dried herbs, Honey, Prepared foods, Soap\/body care products"},{"Type":"farmers market","ModifyDate":"Aug 10th, 2022","Image":"farmersmarket_301551_11046_20220610123717.png","ListingID":"301551","Name":"Hollidaysburg Farmers Market","Description":"","ContactName":"Melanie Ramsey","ContactEmail":"mramsey@hollidaysburgpa.org","ContactPhone":"814-696-0544","Website":"","Facebook":"https:\/\/www.facebook.com\/HollidaysburgFarmersMarket","Twitter":"","Instagram":"","Pinterest":"","Youtube":"","Blog":"","Address":"Montgomery and Allegheny Street (near the Diamond), Hollidaysburg, Pennsylvania 16648","State":"Pennsylvania","City":"Hollidaysburg","Street":"Montgomery and Allegheny Street","Zip":"16648","Longitude":"-78.394591","Latitude":"40.429065","Dates":"June to September","Products":"Fresh fruits, Fresh vegetables, Baked goods, Canned or preserved fruits\/vegetables, Eggs, Fresh\/dried herbs, Juices\/non-alcoholic ciders, Prepared foods, Soap\/body care products, Wine, spirits, beer, hard cider"},{"Type":"farmers market","ModifyDate":"Aug 18th, 2022","Image":"farmersmarket_301760_14273_20220819024846.png","ListingID":"301760","Name":"Downtown Sharon Farmers Market","Description":"The Downtown Sharon Farmers Market is set for 8-1 PM Saturdays and 3:30 - 7 PM Wednesdays July through the end of October. Besides our farming community, we'll also have live music, kids activities, pop-up artisans and food trucks - c'mon out and support our farmers and enjoy a little break in your busy week!","ContactName":"Jeanice Britvich","ContactEmail":"jeanice@ferrisfarm.net","ContactPhone":"(724) 971-0888","Website":"","Facebook":"https:\/\/www.facebook.com\/SharonFarmersMkt","Twitter":"","Instagram":"https:\/\/www.instagram.com\/downtownsharonfarmersmarket\/","Pinterest":"","Youtube":"","Blog":"","Address":"200 Sterling Avenue, Sharon, PA, USA","State":"Pennsylvania","City":"Sharon","Street":"200 Sterling Avenue","Zip":"16146","Longitude":"-80.5115015","Latitude":"41.22905979999999","Dates":"07\/09\/2022 to 10\/29\/2022","Products":"Fresh fruits, Fresh vegetables, Baked goods, Canned or preserved fruits\/vegetables, Crafts\/woodworking items, Cut flowers, Eggs, Fresh\/dried herbs, Honey, Juices\/non-alcoholic ciders, Maple products, Prepared foods, Soap\/body care products, Wine, spirits, beer, hard cider"},{"Type":"farmers market","ModifyDate":"Aug 2nd, 2022","Image":"farmersmarket_301745_14239_20220802175350.png","ListingID":"301745","Name":"Johnstown Farmers' Market","Description":"The Johnstown Farmers' Market is an open air market in the heart of the city. Guests may purchase fresh locally grown produce and flowers as well as a variety of prepared foods, baked goods, and handcrafted items.","ContactName":"Jacob Zerby","ContactEmail":"jzerby@cojtwn.com","ContactPhone":"(814) 539-2504","Website":"","Facebook":"https:\/\/www.facebook.com\/Johnstown-Farmers-Market-131268183573123","Twitter":"","Instagram":"","Pinterest":"","Youtube":"","Blog":"","Address":"507 Main Street, Johnstown, PA, USA","State":"Pennsylvania","City":"Johnstown","Street":"507 Main Street","Zip":"15901","Longitude":"-78.9174646","Latitude":"40.3251584","Dates":"05\/13\/2022 to 10\/28\/2022","Products":"Fresh fruits, Fresh vegetables, Baked goods, Bedding plants, Canned or preserved fruits\/vegetables, Crafts\/woodworking items, Cut flowers, Eggs, Prepared foods"},{"Type":"farmers market","ModifyDate":"Aug 4th, 2020","Image":"default-farmersmarket-4-3.jpg","ListingID":"300468","Name":"City of Pittsburgh Carrick Farmers Market","Description":null,"ContactName":null,"ContactEmail":"mirella.ranallo@pittsburghpa.gov","ContactPhone":"412-422-6523","Website":null,"Facebook":null,"Twitter":null,"Instagram":null,"Pinterest":null,"Youtube":null,"Blog":null,"Address":"1529 Brownsville Road, Pittsburgh , Pennsylvania 15210","State":"Pennsylvania","City":"Pittsburgh","Street":"1529 Brownsville Road","Zip":"15210","Longitude":"-79.988803","Latitude":"40.400201","Dates":"June to September","Products":"Fresh fruits, Fresh vegetables, Baked goods, Honey, Prepared foods"},{"Type":"farmers market","ModifyDate":"Aug 7th, 2020","Image":"default-farmersmarket-4-3.jpg","ListingID":"300290","Name":"North Square Farmers Market","Description":null,"ContactName":"Guy Shaul and Jay Eury","ContactEmail":"northsquareinfo@gmail.com","ContactPhone":"717-288-7440","Website":"www.northsquarefarmersmarket.com","Facebook":"https:\/\/www.facebook.com\/pages\/North-Square-Farmers-Market\/114897878526668","Twitter":null,"Instagram":null,"Pinterest":null,"Youtube":null,"Blog":null,"Address":"100 Spring St, Chambersburg, Pennsylvania 17201","State":"Pennsylvania","City":"Chambersburg","Street":"100 Spring St","Zip":"17201","Longitude":"-77.662435","Latitude":"39.938459","Dates":"May to November","Products":"Fresh fruits, Fresh vegetables, Baked goods, Bedding plants, Canned or preserved fruits\/vegetables, Crafts\/woodworking items, Cut flowers, Dairy products., Eggs, Fresh\/dried herbs, Honey, Maple products, Mushrooms, Poultry\/fowl meat and products, Prepared foods, Red\/other non-poultry meat and products, Soap\/body care products, Wild harvested forest products, Wine, spirits, beer, hard cider"},{"Type":"farmers market","ModifyDate":"Feb 3rd, 2021","Image":"default-farmersmarket-4-3.jpg","ListingID":"300430","Name":"Bethlehem Farmers' Market","Description":null,"ContactName":"Deb Martin","ContactEmail":"bethlehemfarmersmarket@gmail.com","ContactPhone":"610-758-1220","Website":"www.bethlehemfarmersmarket.com","Facebook":"facebook.com\/BethlehemFarmersMarketPA","Twitter":"twitter.com\/BethFarmMkt","Instagram":null,"Pinterest":null,"Youtube":null,"Blog":null,"Address":"Intersection of New and Morton Streets, Bethlehem, Pennsylvania 18015","State":"Pennsylvania","City":"Bethlehem","Street":"Intersection of New and Morton Streets","Zip":"18015","Longitude":"-75.378402","Latitude":"40.6098058","Dates":"April to October","Products":"Fresh fruits, Fresh vegetables, Baked goods, Canned or preserved fruits\/vegetables, Cut flowers, Eggs, Fresh\/dried herbs, Honey, Mushrooms, Nuts, Poultry\/fowl meat and products, Prepared foods, Red\/other non-poultry meat and products, Soap\/body care products"},{"Type":"farmers market","ModifyDate":"Jan 20th, 2021","Image":"default-farmersmarket-4-3.jpg","ListingID":"300374","Name":"Bloomfield Saturday Market","Description":null,"ContactName":"Abigail Gildea","ContactEmail":"market@bloomfieldpgh.org","ContactPhone":"412.681.8800","Website":"www.bloomfieldpgh.org","Facebook":"https:\/\/www.facebook.com\/bloomfieldmarket\/","Twitter":null,"Instagram":null,"Pinterest":null,"Youtube":null,"Blog":null,"Address":"5050 Liberty Ave, Pittsburgh, Pennsylvania 15224","State":"Pennsylvania","City":"Pittsburgh","Street":"5050 Liberty Ave","Zip":"15224","Longitude":"-79.944435","Latitude":"40.459005","Dates":"May to November","Products":"Fresh fruits, Fresh vegetables, Baked goods, Canned or preserved fruits\/vegetables, Coffee\/tea, Dairy products., Eggs, Fish\/seafood, Fresh\/dried herbs, Maple products, Mushrooms, Poultry\/fowl meat and products, Prepared foods, Red\/other non-poultry meat and products, Soap\/body care products, Wild harvested forest products, Wine, spirits, beer, hard cider"},{"Type":"farmers market","ModifyDate":"Jan 20th, 2021","Image":"default-farmersmarket-4-3.jpg","ListingID":"300549","Name":"Yardley Farmers Market","Description":null,"ContactName":"Susan Schneck","ContactEmail":"YardleyFarmersMarket@gmail.com","ContactPhone":"215-630-0906","Website":"http:\/\/yardleyfarmersmarket.com\/","Facebook":"https:\/\/www.facebook.com\/YardleyFarmersMarket\/","Twitter":"https:\/\/twitter.com\/yardleyfarmmart","Instagram":null,"Pinterest":null,"Youtube":"https:\/\/www.youtube.com\/channel\/UCPyEWf4FdNUFUWiVQfiJdIA","Blog":null,"Address":"Buttonwood Drive, Buttonwood Park, Yardley borough, Pennsylvania 19067","State":"Pennsylvania","City":"Yardley borough","Street":"Buttonwood Drive","Zip":"19067","Longitude":"-74.839997","Latitude":"40.240829","Dates":"May to October","Products":"Fresh fruits, Fresh vegetables, Baked goods, Bedding plants, Canned or preserved fruits\/vegetables, Coffee\/tea, Crafts\/woodworking items, Cut flowers, Dairy products., Eggs, Fresh\/dried herbs, Honey, Juices\/non-alcoholic ciders, Mushrooms, Pet food, Poultry\/fowl meat and products, Prepared foods, Red\/other non-poultry meat and products, Soap\/body care products"},{"Type":"farmers market","ModifyDate":"Jan 21st, 2021","Image":"default-farmersmarket-4-3.jpg","ListingID":"301031","Name":"Lansdale Farmers' Market","Description":null,"ContactName":"Peter Derstine","ContactEmail":"lansdaleFM@gmail.com","ContactPhone":"2159202761","Website":"https:\/\/www.lansdalefarmersmarket.org\/","Facebook":"https:\/\/www.facebook.com\/LansdaleFarmersMarket\/","Twitter":"Twitter: @LansdaleFM","Instagram":null,"Pinterest":null,"Youtube":null,"Blog":null,"Address":"400 Penn Street, Lansdale, Pennsylvania 19446","State":"Pennsylvania","City":"Lansdale","Street":"400 Penn Street","Zip":"19446","Longitude":"-75.277496","Latitude":"40.234201","Dates":"May to November","Products":"Fresh fruits, Fresh vegetables, Baked goods, Canned or preserved fruits\/vegetables, Coffee\/tea, Cut flowers, Dairy products., Eggs, Fish\/seafood, Fresh\/dried herbs, Grains\/flour, Honey, Juices\/non-alcoholic ciders, Maple products, Mushrooms, Nursery stock, Pet food, Poultry\/fowl meat and products, Prepared foods, Red\/other non-poultry meat and products, Soap\/body care products, Wild harvested forest products"},{"Type":"farmers market","ModifyDate":"Jan 25th, 2021","Image":"default-farmersmarket-4-3.jpg","ListingID":"300188","Name":"Main Street Farmers Market","Description":null,"ContactName":"Ed Stout","ContactEmail":"info@msfm.org","ContactPhone":"7247479703","Website":"PO Box 1100","Facebook":"https:\/\/www.facebook.com\/washingtonfarmers","Twitter":null,"Instagram":null,"Pinterest":null,"Youtube":null,"Blog":null,"Address":"South Main at Wheeling, Washington, Pennsylvania 15301","State":"Pennsylvania","City":"Washington","Street":"South Main at Wheeling","Zip":"15301","Longitude":"-80.245","Latitude":"40.169","Dates":"May to October","Products":"Fresh fruits, Fresh vegetables, Baked goods, Bedding plants, Canned or preserved fruits\/vegetables, Coffee\/tea, Cut flowers, Dairy products., Eggs, Fresh\/dried herbs, Grains\/flour, Honey, Juices\/non-alcoholic ciders, Maple products, Poultry\/fowl meat and products, Prepared foods, Red\/other non-poultry meat and products, Wine, spirits, beer, hard cider"},{"Type":"farmers market","ModifyDate":"Jan 26th, 2021","Image":"default-farmersmarket-4-3.jpg","ListingID":"300237","Name":"Wrightstown Farmers Market","Description":null,"ContactName":"Cheryl Gilmore","ContactEmail":"managerwfm@gmail.com","ContactPhone":"2153783284","Website":"www.wrightstownfarmersmarket.org","Facebook":"https:\/\/www.facebook.com\/WrightstownFarmersMarket","Twitter":"https:\/\/twitter.com\/WRmarket","Instagram":null,"Pinterest":null,"Youtube":null,"Blog":null,"Address":"Middletown Grange 576 Penns Park Road, Wrightstown (use Newtown for GPS), Pennsylvania 18940","State":"Pennsylvania","City":"Wrightstown (use Newtown for GPS)","Street":"Middletown Grange 576 Penns Park Road","Zip":"18940","Longitude":"-75.106815","Latitude":"40.3368710","Dates":"May to November","Products":"Fresh fruits, Fresh vegetables, Baked goods, Bedding plants, Canned or preserved fruits\/vegetables, Coffee\/tea, Cut flowers, Dairy products., Eggs, Fresh\/dried herbs, Grains\/flour, Honey, Juices\/non-alcoholic ciders, Mushrooms, Nuts, Pet food, Poultry\/fowl meat and products, Prepared foods, Red\/other non-poultry meat and products, Soap\/body care products, Wild harvested forest products"},{"Type":"farmers market","ModifyDate":"Jan 26th, 2021","Image":"default-farmersmarket-4-3.jpg","ListingID":"300289","Name":"Easton Farmers' Market","Description":null,"ContactName":"Megan McBride","ContactEmail":"megan@eastonpartnership.org","ContactPhone":"610-330-9942","Website":"https:\/\/eastonfarmersmarket.com","Facebook":"https:\/\/www.facebook.com\/EastonFarmersMarket","Twitter":"https:\/\/twitter.com\/buyfresh","Instagram":null,"Pinterest":null,"Youtube":"https:\/\/www.youtube.com\/user\/EastonFarmersMarket","Blog":null,"Address":"128 Larry Holmes Drive , Easton , Pennsylvania 18042","State":"Pennsylvania","City":"Easton","Street":"128 Larry Holmes Drive","Zip":"18042","Longitude":"-75.206274","Latitude":"40.689778","Dates":"May to December","Products":"Fresh fruits, Fresh vegetables, Baked goods, Canned or preserved fruits\/vegetables, Dairy products., Eggs, Honey, Mushrooms, Poultry\/fowl meat and products, Prepared foods, Red\/other non-poultry meat and products, Wild harvested forest products"},{"Type":"farmers market","ModifyDate":"Jan 26th, 2021","Image":"default-farmersmarket-4-3.jpg","ListingID":"300314","Name":"Huntingdon Farmers' Market","Description":null,"ContactName":"Tony Ricci","ContactEmail":"info@huntingdonfarmersmarket.org","ContactPhone":"(814) 448-2423","Website":"https:\/\/www.huntingdonfarmersmarket.org\/","Facebook":"https:\/\/www.facebook.com\/HuntFarmMarket","Twitter":null,"Instagram":null,"Pinterest":null,"Youtube":null,"Blog":null,"Address":"842 Penn Street, Huntingdon, Pennsylvania 16652","State":"Pennsylvania","City":"Huntingdon","Street":"842 Penn Street","Zip":"16652","Longitude":"-78.017230","Latitude":"40.485653","Dates":"May to October","Products":"Fresh fruits, Fresh vegetables, Baked goods, Bedding plants, Canned or preserved fruits\/vegetables, Cut flowers, Dairy products., Eggs, Fresh\/dried herbs, Honey, Mushrooms, Poultry\/fowl meat and products, Prepared foods, Red\/other non-poultry meat and products, Soap\/body care products, Wild harvested forest products, Wine, spirits, beer, hard cider"},{"Type":"farmers market","ModifyDate":"Jan 26th, 2021","Image":"default-farmersmarket-4-3.jpg","ListingID":"301393","Name":"Rittenhouse Tuesday Market","Description":null,"ContactName":"Farm to City","ContactEmail":"info@farmtocity.org","ContactPhone":"215-733-9599","Website":"www.farmtocitymarkets.com","Facebook":"https:\/\/www.facebook.com\/RittenhouseFarmersMarket","Twitter":null,"Instagram":null,"Pinterest":null,"Youtube":null,"Blog":null,"Address":"1800 Walnut Street, Philadelphia, Pennsylvania 19103","State":"Pennsylvania","City":"Philadelphia","Street":"1800 Walnut Street","Zip":"19103","Longitude":"-75.170843","Latitude":"39.950045","Dates":"Year-round","Products":"Fresh fruits, Fresh vegetables, Baked goods, Canned or preserved fruits\/vegetables, Cut flowers, Eggs, Honey, Poultry\/fowl meat and products, Prepared foods, Wine, spirits, beer, hard cider"},{"Type":"farmers market","ModifyDate":"Jan 26th, 2021","Image":"default-farmersmarket-4-3.jpg","ListingID":"301395","Name":"The Fountain Farmers' Market","Description":null,"ContactName":"Farm to City","ContactEmail":"info@farmtocity.org","ContactPhone":"215-733-9599","Website":"www.farmtocitymarkets.com","Facebook":"https:\/\/www.facebook.com\/FarmToCity","Twitter":null,"Instagram":null,"Pinterest":null,"Youtube":null,"Blog":null,"Address":"The Singing Fountain, Philadelphia, Pennsylvania 19147","State":"Pennsylvania","City":"Philadelphia","Street":"The Singing Fountain","Zip":"19147","Longitude":"-75.163171","Latitude":"39.929934","Dates":"May to November","Products":"Fresh fruits, Fresh vegetables, Baked goods, Cut flowers, Eggs, Fresh\/dried herbs, Honey, Prepared foods"},{"Type":"farmers market","ModifyDate":"Jan 26th, 2021","Image":"default-farmersmarket-4-3.jpg","ListingID":"301396","Name":"University Square Farmers' Market","Description":null,"ContactName":"Farm to City","ContactEmail":"info@farmtocity.org","ContactPhone":"215-733-9599","Website":"www.farmtocitymarkets.com","Facebook":"https:\/\/www.facebook.com\/FarmToCity","Twitter":null,"Instagram":null,"Pinterest":null,"Youtube":null,"Blog":null,"Address":"3600 Walnut Street, Philadelphia, Pennsylvania 19104","State":"Pennsylvania","City":"Philadelphia","Street":"3600 Walnut Street","Zip":"19104","Longitude":"-75.194883","Latitude":"39.953276","Dates":"Year-round","Products":"Fresh fruits, Fresh vegetables, Baked goods, Bedding plants, Canned or preserved fruits\/vegetables, Eggs, Honey, Prepared foods"},{"Type":"farmers market","ModifyDate":"Jan 26th, 2021","Image":"default-farmersmarket-4-3.jpg","ListingID":"301397","Name":"Jefferson Farmers' Market","Description":null,"ContactName":"Farm to City","ContactEmail":"info@farmtocity.org","ContactPhone":"215-733-9599","Website":"www.farmtocitymarkets.com","Facebook":"https:\/\/www.facebook.com\/Jefferson-Farmers-Market-129580207073874","Twitter":null,"Instagram":null,"Pinterest":null,"Youtube":null,"Blog":null,"Address":"925 Chestnut Street, Philadelphia, Pennsylvania 19107","State":"Pennsylvania","City":"Philadelphia","Street":"925 Chestnut Street","Zip":"19107","Longitude":"-75.156213","Latitude":"39.949940","Dates":"May to November","Products":"Fresh fruits, Fresh vegetables, Baked goods, Bedding plants, Cut flowers, Honey, Nursery stock, Prepared foods"},{"Type":"farmers market","ModifyDate":"Jan 26th, 2021","Image":"default-farmersmarket-4-3.jpg","ListingID":"301398","Name":"Mt Airy Farmers' Market","Description":null,"ContactName":"Farm to City","ContactEmail":"info@farmtocity.org","ContactPhone":"215-733-9599","Website":"www.farmtocitymarkets.com","Facebook":"https:\/\/www.facebook.com\/Mt-Airy-Farmers-Market-115303871848990","Twitter":null,"Instagram":null,"Pinterest":null,"Youtube":null,"Blog":null,"Address":"601 Carpenter Lane, Philadelphia, Pennsylvania 19119","State":"Pennsylvania","City":"Philadelphia","Street":"601 Carpenter Lane","Zip":"19119","Longitude":"-75.196253","Latitude":"40.046156","Dates":"June to August","Products":"Fresh fruits, Fresh vegetables, Baked goods, Canned or preserved fruits\/vegetables, Cut flowers, Honey"},{"Type":"farmers market","ModifyDate":"Jan 26th, 2021","Image":"default-farmersmarket-4-3.jpg","ListingID":"301399","Name":"Gorgas Park Farmers' Market","Description":null,"ContactName":"Farm to City","ContactEmail":"info@farmtocity.org","ContactPhone":"215-733-9599","Website":"www.farmtocitymarkets.com","Facebook":"https:\/\/www.facebook.com\/FarmToCity","Twitter":null,"Instagram":null,"Pinterest":null,"Youtube":null,"Blog":null,"Address":"6300 Ridge Avenue, Philadelphia, Pennsylvania 19128","State":"Pennsylvania","City":"Philadelphia","Street":"6300 Ridge Avenue","Zip":"19128","Longitude":"-75.221221","Latitude":"40.037308","Dates":"May to November","Products":"Fresh fruits, Fresh vegetables, Baked goods, Bedding plants, Canned or preserved fruits\/vegetables, Cut flowers, Eggs, Honey, Nursery stock, Poultry\/fowl meat and products"},{"Type":"farmers market","ModifyDate":"Jan 26th, 2021","Image":"default-farmersmarket-4-3.jpg","ListingID":"301400","Name":"Ambler Farmers' Market","Description":null,"ContactName":"Farm to City","ContactEmail":"info@farmtocity.org","ContactPhone":"215-733-9599","Website":"www.farmtocitymarkets.com","Facebook":"https:\/\/www.facebook.com\/FarmToCity","Twitter":null,"Instagram":null,"Pinterest":null,"Youtube":null,"Blog":null,"Address":"29 West Butler Pike, Ambler, Pennsylvania 19002","State":"Pennsylvania","City":"Ambler","Street":"29 West Butler Pike","Zip":"19002","Longitude":"-75.225298","Latitude":"40.153501","Dates":"May to November","Products":"Fresh fruits, Fresh vegetables, Baked goods, Bedding plants, Canned or preserved fruits\/vegetables, Coffee\/tea, Crafts\/woodworking items, Cut flowers, Dairy products., Eggs, Honey, Maple products, Mushrooms, Nursery stock, Pet food, Poultry\/fowl meat and products, Prepared foods, Red\/other non-poultry meat and products, Soap\/body care products, Wine, spirits, beer, hard cider"},{"Type":"farmers market","ModifyDate":"Jan 26th, 2021","Image":"default-farmersmarket-4-3.jpg","ListingID":"301401","Name":"Chestnut Hill Farmers' Market","Description":null,"ContactName":"Farm to City","ContactEmail":"info@farmtocity.org","ContactPhone":"215-733-9599","Website":"www.farmtocitymarkets.com","Facebook":"https:\/\/www.facebook.com\/AmblerFarmersMarket","Twitter":null,"Instagram":null,"Pinterest":null,"Youtube":null,"Blog":null,"Address":"7673 Germantown Avenue, Philadelphia, Pennsylvania 19118","State":"Pennsylvania","City":"Philadelphia","Street":"7673 Germantown Avenue","Zip":"19118","Longitude":"-75.196931","Latitude":"40.067760","Dates":"Year-round","Products":"Fresh fruits, Fresh vegetables, Baked goods, Bedding plants, Canned or preserved fruits\/vegetables, Coffee\/tea, Cut flowers, Dairy products., Eggs, Fish\/seafood, Honey, Mushrooms, Nursery stock, Pet food, Poultry\/fowl meat and products, Prepared foods, Red\/other non-poultry meat and products, Soap\/body care products, Wine, spirits, beer, hard cider"},{"Type":"farmers market","ModifyDate":"Jan 26th, 2021","Image":"default-farmersmarket-4-3.jpg","ListingID":"301402","Name":"Bryn Mawr Farmers' Market","Description":null,"ContactName":"Farm to City","ContactEmail":"info@farmtocity.org","ContactPhone":"215-733-9599","Website":"www.farmtocitymarkets.com","Facebook":"https:\/\/www.facebook.com\/TBMFM","Twitter":null,"Instagram":null,"Pinterest":null,"Youtube":null,"Blog":null,"Address":"775 Lancaster Avenue, Bryn Mawr, Pennsylvania 19010","State":"Pennsylvania","City":"Bryn Mawr","Street":"775 Lancaster Avenue","Zip":"19010","Longitude":"-75.317067","Latitude":"40.021168","Dates":"Year-round","Products":"Fresh fruits, Fresh vegetables, Baked goods, Bedding plants, Canned or preserved fruits\/vegetables, Coffee\/tea, Cut flowers, Dairy products., Eggs, Fresh\/dried herbs, Grains\/flour, Honey, Maple products, Mushrooms, Nursery stock, Pet food, Poultry\/fowl meat and products, Prepared foods, Red\/other non-poultry meat and products, Soap\/body care products, Wild harvested forest products, Wine, spirits, beer, hard cider"},{"Type":"farmers market","ModifyDate":"Jan 26th, 2021","Image":"default-farmersmarket-4-3.jpg","ListingID":"301403","Name":"Rittenhouse Saturday Farmers' Market","Description":null,"ContactName":"Farm to City","ContactEmail":"info@farmtocity.org","ContactPhone":"215-733-9599","Website":"www.farmtocitymarkets.com","Facebook":"https:\/\/www.facebook.com\/RittenhouseFarmersMarket","Twitter":null,"Instagram":null,"Pinterest":null,"Youtube":null,"Blog":null,"Address":"1800 Walnut Street, Philadelphia, Pennsylvania 19103","State":"Pennsylvania","City":"Philadelphia","Street":"1800 Walnut Street","Zip":"19103","Longitude":"-75.170836","Latitude":"39.950039","Dates":"Year-round","Products":"Fresh fruits, Fresh vegetables, Baked goods, Bedding plants, Canned or preserved fruits\/vegetables, Coffee\/tea, Crafts\/woodworking items, Cut flowers, Dairy products., Eggs, Fish\/seafood, Fresh\/dried herbs, Grains\/flour, Honey, Mushrooms, Nursery stock, Pet food, Poultry\/fowl meat and products, Prepared foods, Red\/other non-poultry meat and products, Soap\/body care products, Wild harvested forest products, Wine, spirits, beer, hard cider"},{"Type":"farmers market","ModifyDate":"Jan 26th, 2021","Image":"default-farmersmarket-4-3.jpg","ListingID":"301404","Name":"Swarthmore Farmers Market","Description":null,"ContactName":"Farm to City","ContactEmail":"info@farmtocity.org","ContactPhone":"215-733-9599","Website":"www.farmtocitymarkets.com","Facebook":"https:\/\/www.facebook.com\/swarthmorefarmersmarket","Twitter":null,"Instagram":null,"Pinterest":null,"Youtube":null,"Blog":null,"Address":"121 Park Avenue, Swarthmore, Pennsylvania 19081","State":"Pennsylvania","City":"Swarthmore","Street":"121 Park Avenue","Zip":"19081","Longitude":"-75.348771","Latitude":"39.901671","Dates":"May to November","Products":"Fresh fruits, Fresh vegetables, Baked goods, Bedding plants, Canned or preserved fruits\/vegetables, Coffee\/tea, Crafts\/woodworking items, Cut flowers, Dairy products., Eggs, Fresh\/dried herbs, Honey, Maple products, Mushrooms, Nursery stock, Pet food, Poultry\/fowl meat and products, Prepared foods, Red\/other non-poultry meat and products, Soap\/body care products, Wine, spirits, beer, hard cider"},{"Type":"farmers market","ModifyDate":"Jan 26th, 2021","Image":"default-farmersmarket-4-3.jpg","ListingID":"301405","Name":"Media Farmers' Market","Description":null,"ContactName":"Farm to City","ContactEmail":"info@farmtocity.org","ContactPhone":"215-733-9599","Website":"www.farmtocitymarkets.com","Facebook":"https:\/\/www.facebook.com\/mediafarmersmarket","Twitter":null,"Instagram":null,"Pinterest":null,"Youtube":null,"Blog":null,"Address":"Edgemont Street, Media, Pennsylvania 19063","State":"Pennsylvania","City":"Media","Street":"Edgemont Street","Zip":"19063","Longitude":"-75.385551","Latitude":"39.917838","Dates":"Year-round","Products":"Fresh fruits, Fresh vegetables, Baked goods, Bedding plants, Canned or preserved fruits\/vegetables, Cut flowers, Dairy products., Eggs, Fresh\/dried herbs, Honey, Mushrooms, Pet food, Poultry\/fowl meat and products, Prepared foods, Red\/other non-poultry meat and products, Soap\/body care products, Wine, spirits, beer, hard cider"},{"Type":"farmers market","ModifyDate":"Jan 27th, 2021","Image":"default-farmersmarket-4-3.jpg","ListingID":"301407","Name":"Dickinson Square Farmers' Market","Description":null,"ContactName":"Farm to City","ContactEmail":"info@farmtocity.org","ContactPhone":"215-733-9599","Website":"www.farmtocitymarkets.com","Facebook":"https:\/\/www.facebook.com\/DSPFarmersMarket","Twitter":null,"Instagram":null,"Pinterest":null,"Youtube":null,"Blog":null,"Address":"1600 East Moyamensing Avenue, Philadelphia, Pennsylvania 19148","State":"Pennsylvania","City":"Philadelphia","Street":"1600 East Moyamensing Avenue","Zip":"19148","Longitude":"-75.151276","Latitude":"39.927056","Dates":"Year-round","Products":"Fresh fruits, Fresh vegetables, Baked goods, Canned or preserved fruits\/vegetables, Crafts\/woodworking items, Cut flowers, Eggs, Fresh\/dried herbs, Honey, Mushrooms, Nursery stock, Pet food, Poultry\/fowl meat and products, Prepared foods, Red\/other non-poultry meat and products, Soap\/body care products, Wine, spirits, beer, hard cider"},{"Type":"farmers market","ModifyDate":"Jan 4th, 2021","Image":"default-farmersmarket-4-3.jpg","ListingID":"300887","Name":"Co-Operative Farmers Market","Description":null,"ContactName":"PAUL BRACE","ContactEmail":"schirg225@frontiernet.net","ContactPhone":"570-961-8251","Website":"www.coopfarmersmarket.com","Facebook":"Co-Operative Farmers Market","Twitter":null,"Instagram":null,"Pinterest":null,"Youtube":null,"Blog":null,"Address":"900 Barring Avenue, Scranton, Pennsylvania 18508","State":"Pennsylvania","City":"Scranton","Street":"900 Barring Avenue","Zip":"18508","Longitude":"-75.662496","Latitude":"41.422523","Dates":"July to November","Products":"Fresh fruits, Fresh vegetables, Baked goods, Bedding plants, Canned or preserved fruits\/vegetables, Cut flowers, Dairy products., Dry beans, Eggs, Fresh\/dried herbs, Honey, Maple products, Nuts, Poultry\/fowl meat and products, Prepared foods, Soap\/body care products, Wine, spirits, beer, hard cider"},{"Type":"farmers market","ModifyDate":"Jan 4th, 2021","Image":"default-farmersmarket-4-3.jpg","ListingID":"301094","Name":"Murrysville Farmers' Market","Description":null,"ContactName":"Carly Greene","ContactEmail":"momrecreation@murrysville.com","ContactPhone":"724-327-2100","Website":"https:\/\/murrysvilleparecreation.com\/190\/Farmers-Market","Facebook":"https:\/\/www.facebook.com\/Murrysville-Farmers-Market-452857878198702\/","Twitter":null,"Instagram":null,"Pinterest":null,"Youtube":null,"Blog":null,"Address":"3235 Sardis Road, Murrysville, Pennsylvania 15668","State":"Pennsylvania","City":"Murrysville","Street":"3235 Sardis Road","Zip":"15668","Longitude":"-79.696788","Latitude":"40.430121","Dates":"","Products":"Fresh fruits, Fresh vegetables, Baked goods, Bedding plants, Canned or preserved fruits\/vegetables, Cut flowers, Eggs, Fresh\/dried herbs, Grains\/flour, Honey, Maple products, Nursery stock, Poultry\/fowl meat and products, Prepared foods, Red\/other non-poultry meat and products, Soap\/body care products, Wine, spirits, beer, hard cider"},{"Type":"farmers market","ModifyDate":"Jan 4th, 2021","Image":"default-farmersmarket-4-3.jpg","ListingID":"301097","Name":"Farmers on the Square","Description":null,"ContactName":"Andrea Hopper","ContactEmail":"friendsofthefarmers@gmail.com","ContactPhone":"7178775820","Website":"www.farmersonthesquare.com","Facebook":"https:\/\/www.facebook.com\/FarmersontheSquare\/","Twitter":null,"Instagram":null,"Pinterest":null,"Youtube":null,"Blog":null,"Address":"2A N Hanover St, Carlisle, Pennsylvania 17013","State":"Pennsylvania","City":"Carlisle","Street":"2A N Hanover St","Zip":"17013","Longitude":"-77.189254","Latitude":"40.201689","Dates":"Year-round","Products":"Fresh fruits, Fresh vegetables, Baked goods, Canned or preserved fruits\/vegetables, Coffee\/tea, Cut flowers, Dairy products., Dry beans, Eggs, Fish\/seafood, Fresh\/dried herbs, Honey, Juices\/non-alcoholic ciders, Maple products, Mushrooms, Nursery stock, Poultry\/fowl meat and products, Prepared foods, Red\/other non-poultry meat and products, Soap\/body care products, Wine, spirits, beer, hard cider"},{"Type":"farmers market","ModifyDate":"Jul 4th, 2021","Image":"default-farmersmarket-4-3.jpg","ListingID":"301558","Name":"Wayne County Farmers Market","Description":null,"ContactName":"Anita Avvisato","ContactEmail":"Anitaavvisato@yahoo.com","ContactPhone":"570-862-9912","Website":null,"Facebook":"Wayne County Farmers Market","Twitter":null,"Instagram":null,"Pinterest":null,"Youtube":null,"Blog":null,"Address":"200 Willow Ave. Route 6, Honesdale , Pennsylvania 18431","State":"Pennsylvania","City":"Honesdale","Street":"200 Willow Ave. Route 6","Zip":"18431","Longitude":"-75.251698","Latitude":"41.566626","Dates":"May to October","Products":"Fresh fruits, Fresh vegetables, Baked goods, Bedding plants, Canned or preserved fruits\/vegetables, Crafts\/woodworking items, Cut flowers, Eggs, Fresh\/dried herbs, Honey, Juices\/non-alcoholic ciders, Maple products, Mushrooms, Poultry\/fowl meat and products, Red\/other non-poultry meat and products, Soap\/body care products, Wild harvested forest products"},{"Type":"farmers market","ModifyDate":"Jul 8th, 2021","Image":"default-farmersmarket-4-3.jpg","ListingID":"301559","Name":"Titusville Open Air Market","Description":null,"ContactName":"Leah Carter","ContactEmail":"titusvilleren@gmail.com","ContactPhone":"8148271012","Website":null,"Facebook":"https:\/\/www.facebook.com\/titusvilleopenairmarket","Twitter":null,"Instagram":null,"Pinterest":null,"Youtube":null,"Blog":null,"Address":"11652 Hydetown Road, Titusville, Pennsylvania 16354","State":"Pennsylvania","City":"Titusville","Street":"11652 Hydetown Road","Zip":"16354","Longitude":"-79.701982","Latitude":"41.636919","Dates":"June to October","Products":"Fresh fruits, Fresh vegetables, Baked goods, Bedding plants, Canned or preserved fruits\/vegetables, Cut flowers, Eggs, Fresh\/dried herbs, Honey, Juices\/non-alcoholic ciders, Maple products, Nursery stock, Poultry\/fowl meat and products, Red\/other non-poultry meat and products"},{"Type":"farmers market","ModifyDate":"Jun 1st, 2022","Image":"farmersmarket_301734_11412_20220601181331.png","ListingID":"301734","Name":"Main Street Farmer's Market","Description":"The Main Street Farmers Market strives to provide the greater Honesdale community with access to superb local products. The Market is a vibrant and friendly gathering of exemplary local producers and enthusiastic consumers, connecting through a mutual appreciation for each other and for our regional foodscape.","ContactName":"Jenna Mauder","ContactEmail":"jenna@thecooperageproject.org","ContactPhone":"5702532020","Website":"www.thecooperageproject.org\/markets\/farmersmarket","Facebook":"www.facebook.com\/thecooperageproject","Twitter":"","Instagram":"www.instagram.com\/thecooperageproject","Pinterest":"","Youtube":"","Blog":"","Address":"1030 Main Street, Honesdale, PA, USA","State":"Pennsylvania","City":"Honesdale","Street":"1030 Main Street","Zip":"18431","Longitude":"-75.2577046","Latitude":"41.575017","Dates":"11\/05\/2022 to 04\/29\/2023","Products":"Fresh fruits, Fresh vegetables, Baked goods, Cut flowers, Dairy products., Eggs, Fresh\/dried herbs, Maple products, Mushrooms, Nuts, Poultry\/fowl meat and products, Wild harvested forest products"},{"Type":"farmers market","ModifyDate":"Jun 3rd, 2021","Image":"default-farmersmarket-4-3.jpg","ListingID":"301524","Name":"Pretzel Park Farmers Market","Description":null,"ContactName":"Arlene Jones","ContactEmail":"amjinbox@yahoo.com","ContactPhone":"215-508-5606","Website":"http:\/\/www.friendsofpretzelpark.org","Facebook":"https:\/\/www.facebook.com\/pretzelparkfarmersmarket","Twitter":null,"Instagram":null,"Pinterest":null,"Youtube":null,"Blog":null,"Address":"4300 Silverwood Street, Philadelphia , Pennsylvania 19127","State":"Pennsylvania","City":"Philadelphia","Street":"4300 Silverwood Street","Zip":"19127","Longitude":"-75.220985","Latitude":"40.025446","Dates":"Year-round","Products":"Fresh fruits, Fresh vegetables, Baked goods, Canned or preserved fruits\/vegetables, Coffee\/tea, Crafts\/woodworking items, Cut flowers, Dairy products., Eggs, Fresh\/dried herbs, Grains\/flour, Honey, Maple products, Mushrooms, Pet food, Poultry\/fowl meat and products, Prepared foods, Red\/other non-poultry meat and products, Soap\/body care products, Wine, spirits, beer, hard cider"},{"Type":"farmers market","ModifyDate":"Jun 4th, 2021","Image":"default-farmersmarket-4-3.jpg","ListingID":"301526","Name":"Forest Hills Farmers Market","Description":null,"ContactName":"Ariana Say and Jerianne Benish","ContactEmail":"latebloomersgardenclub@gmail.com","ContactPhone":"4123027547","Website":"http:\/\/www.foresthillsfarmersmarket.com","Facebook":"Forest Hills PA Farmers Market","Twitter":null,"Instagram":null,"Pinterest":null,"Youtube":null,"Blog":null,"Address":"1840 Ardmore Blvd, Pittsburgh, Pennsylvania 15221","State":"Pennsylvania","City":"Pittsburgh","Street":"1840 Ardmore Blvd","Zip":"15221","Longitude":"-79.861110","Latitude":"40.425019","Dates":"May to October","Products":"Fresh fruits, Fresh vegetables, Baked goods, Bedding plants, Canned or preserved fruits\/vegetables, Cut flowers, Eggs, Fresh\/dried herbs, Honey, Poultry\/fowl meat and products, Prepared foods, Red\/other non-poultry meat and products"},{"Type":"farmers market","ModifyDate":"Jun 8th, 2021","Image":"default-farmersmarket-4-3.jpg","ListingID":"301527","Name":"Birdsboro Farmers Market","Description":null,"ContactName":"Christen Thompson","ContactEmail":"thompson_christen@yahoo.com","ContactPhone":"8159737578","Website":"https:\/\/birdsboropa.org\/community-events\/","Facebook":"https:\/\/m.facebook.com\/events\/main-bird-park-226-n-water-st-birdsboro-pa-19508\/birdsboro-farmers-market\/752878688717725\/","Twitter":null,"Instagram":null,"Pinterest":null,"Youtube":null,"Blog":null,"Address":"226 N Water St, Birdsboro, Pennsylvania 19508","State":"Pennsylvania","City":"Birdsboro","Street":"226 N Water St","Zip":"19508","Longitude":"-75.810113","Latitude":"40.262329","Dates":"May to October","Products":"Fresh fruits, Fresh vegetables, Baked goods, Bedding plants, Canned or preserved fruits\/vegetables, Coffee\/tea, Crafts\/woodworking items, Cut flowers, Eggs, Fresh\/dried herbs, Honey, Juices\/non-alcoholic ciders, Pet food, Prepared foods, Soap\/body care products"},{"Type":"farmers market","ModifyDate":"Mar 22nd, 2021","Image":"default-farmersmarket-4-3.jpg","ListingID":"301477","Name":"Patch & Pasture, LLC","Description":null,"ContactName":"Lauren McCartney","ContactEmail":"patchandpasture@gmail.com","ContactPhone":"7178602261","Website":null,"Facebook":"https:\/\/www.facebook.com\/patchandpasture\/","Twitter":null,"Instagram":null,"Pinterest":null,"Youtube":null,"Blog":null,"Address":"17004 Path Valley Rd, Spring Run, Pennsylvania 17262","State":"Pennsylvania","City":"Spring Run","Street":"17004 Path Valley Rd","Zip":"17262","Longitude":"-77.766771","Latitude":"40.151488","Dates":"April to October","Products":"Fresh fruits, Fresh vegetables, Baked goods, Bedding plants, Canned or preserved fruits\/vegetables, Crafts\/woodworking items, Dairy products., Eggs, Fresh\/dried herbs, Honey, Mushrooms, Prepared foods, Red\/other non-poultry meat and products"},{"Type":"farmers market","ModifyDate":"Mar 27th, 2023","Image":"default-farmersmarket-4-3.jpg","ListingID":"312501","Name":"Abington Winter Farm Market","Description":null,"ContactName":null,"ContactEmail":null,"ContactPhone":"570-618-3877","Website":null,"Facebook":"https:\/\/www.facebook.com\/abingtonwinterfarmmarket","Twitter":null,"Instagram":null,"Pinterest":null,"Youtube":null,"Blog":null,"Address":"1310 Morgan Hwy., Clarks Summit, PA, 18411","State":"Pennsylvania","City":"Clarks Summit","Street":"1310 Morgan Hwy.","Zip":"18411","Longitude":"-75.71903209079949","Latitude":"41.487073374180795","Dates":null,"Products":""},{"Type":"farmers market","ModifyDate":"Mar 27th, 2023","Image":"default-farmersmarket-4-3.jpg","ListingID":"312502","Name":"ABV Farm Market","Description":null,"ContactName":null,"ContactEmail":null,"ContactPhone":"570-897-5900","Website":"http:\/\/appleblossomvillage.com","Facebook":null,"Twitter":null,"Instagram":null,"Pinterest":null,"Youtube":null,"Blog":null,"Address":"690 Allegheny Road Mount Bethel, PA 18343","State":"Pennsylvania","City":"MOUNT BETHEL","Street":"690 ALLEGHENY RD","Zip":"18343","Longitude":"-75.10046327261942","Latitude":"40.87483118187429","Dates":null,"Products":""},{"Type":"farmers market","ModifyDate":"Mar 27th, 2023","Image":"default-farmersmarket-4-3.jpg","ListingID":"312503","Name":"Adams County Farmers Market","Description":null,"ContactName":null,"ContactEmail":null,"ContactPhone":null,"Website":"https:\/\/www.acfarmersmarkets.org\/","Facebook":"https:\/\/www.facebook.com\/adamscountyfarmersmarket","Twitter":null,"Instagram":null,"Pinterest":null,"Youtube":null,"Blog":null,"Address":"108 N. Stratton Street Gettysburg, PA 17325","State":"Pennsylvania","City":"Gettysburg","Street":"108 N. Stratton Street","Zip":"17325","Longitude":"-77.228891593881","Latitude":"39.83221554727864","Dates":null,"Products":""},{"Type":"farmers market","ModifyDate":"Mar 27th, 2023","Image":"default-farmersmarket-4-3.jpg","ListingID":"312504","Name":"Allentown Fairgrounds Farmers' Market","Description":null,"ContactName":null,"ContactEmail":"market@fairgroundfarmersmkt.com","ContactPhone":"610-432-8425","Website":"http:\/\/www.fairgroundfarmersmkt.com\/","Facebook":"https:\/\/www.facebook.com\/pages\/Allentown-Farmers-Market\/364367726809","Twitter":null,"Instagram":null,"Pinterest":null,"Youtube":null,"Blog":null,"Address":"1825 W. Chew St., Allentown Fairgrounds, Allentown, PA, 18104","State":"Pennsylvania","City":"Allentown","Street":"1825 W. Chew St.","Zip":"18104","Longitude":"-75.49767868105067","Latitude":"40.599844346319294","Dates":null,"Products":""},{"Type":"farmers market","ModifyDate":"Mar 27th, 2023","Image":"default-farmersmarket-4-3.jpg","ListingID":"312505","Name":"Allison Hill Farmers Market","Description":null,"ContactName":null,"ContactEmail":null,"ContactPhone":"717-232-9757","Website":"http:\/\/cactricounty.org\/our-programs\/neighborhood-revitalization\/south-allison-hill\/farmers-market.html","Facebook":null,"Twitter":null,"Instagram":null,"Pinterest":null,"Youtube":null,"Blog":null,"Address":"1421 Derry Street Harrisburg, PA 17104 The Allison Hill Farmers Market is located at the Heart of the Community Garden on 1421 Derry St. in Harrisburg.","State":"Pennsylvania","City":"HARRISBURG","Street":"1421 DERRY ST","Zip":"17104","Longitude":"-76.86614349802088","Latitude":"40.26271070223619","Dates":null,"Products":""},{"Type":"farmers market","ModifyDate":"Mar 27th, 2023","Image":"default-farmersmarket-4-3.jpg","ListingID":"312506","Name":"Ambridge Farmers Market","Description":null,"ContactName":null,"ContactEmail":null,"ContactPhone":null,"Website":"http:\/\/beavercountyfarmersmarket.com","Facebook":"http:\/\/www.facebook.com\/pages\/Beaver-County-Farmers-Markets\/164099770332791&fref=","Twitter":null,"Instagram":null,"Pinterest":null,"Youtube":null,"Blog":null,"Address":"624 Park Road Ambridge, PA 15003 4 to 7 PM - In the parking lot of St. Mary's church along route 65.","State":"Pennsylvania","City":"AMBRIDGE","Street":"624 RK RD","Zip":"15003","Longitude":"-80.22952925245691","Latitude":"40.586104786518426","Dates":null,"Products":""},{"Type":"farmers market","ModifyDate":"Mar 27th, 2023","Image":"default-farmersmarket-4-3.jpg","ListingID":"312507","Name":"Anselma Farmers and Artisans Market","Description":null,"ContactName":null,"ContactEmail":null,"ContactPhone":"610-827-1906","Website":null,"Facebook":"http:\/\/www.facebook.com\/anselmamarket?fref=ts","Twitter":null,"Instagram":null,"Pinterest":null,"Youtube":null,"Blog":null,"Address":"1730 Conestoga Road Route 401 Chester Springs, PA 19425","State":"Pennsylvania","City":"CHESTER SPRGS","Street":"1730 CONESTOGA RD","Zip":"19425","Longitude":"-75.643150433082","Latitude":"40.082919055822614","Dates":null,"Products":""},{"Type":"farmers market","ModifyDate":"Mar 27th, 2023","Image":"default-farmersmarket-4-3.jpg","ListingID":"312508","Name":"Artisan Exchange West Chester Indoor Market","Description":null,"ContactName":null,"ContactEmail":"Info@artisanexchangewcpa.com","ContactPhone":"800-528-0933","Website":"http:\/\/artisanexchangewcpa.com\/indoor-market\/","Facebook":"https:\/\/www.facebook.com\/ArtisanExchangeWCPa","Twitter":null,"Instagram":null,"Pinterest":null,"Youtube":null,"Blog":null,"Address":"208 Carter Dr., Ste. 13B, West Chester, PA, 19382","State":"Pennsylvania","City":"West Chester","Street":"208 Carter Dr.","Zip":"19382","Longitude":"-75.58936217641157","Latitude":"39.9510861723179","Dates":null,"Products":""},{"Type":"farmers market","ModifyDate":"Mar 27th, 2023","Image":"default-farmersmarket-4-3.jpg","ListingID":"312509","Name":"Back Mountain Library Farmers' Market","Description":null,"ContactName":null,"ContactEmail":"amorrow@unitedwaywb.org","ContactPhone":"570-675-1182","Website":"http:\/\/backmountainlibrary.org\/","Facebook":"https:\/\/www.facebook.com\/pages\/Back-Mountain-Library-Farmers-Market\/764759206970660","Twitter":null,"Instagram":null,"Pinterest":null,"Youtube":null,"Blog":null,"Address":"96 Huntsville Rd., Dallas, PA, 18612","State":"Pennsylvania","City":"Dallas","Street":"96 Huntsville Rd.","Zip":"18612","Longitude":"-75.962944125049","Latitude":"41.33298620461515","Dates":null,"Products":""},{"Type":"farmers market","ModifyDate":"Mar 27th, 2023","Image":"default-farmersmarket-4-3.jpg","ListingID":"312510","Name":"Beaver County Courthouse Farmers' Market","Description":null,"ContactName":null,"ContactEmail":null,"ContactPhone":null,"Website":"http:\/\/beavercountyfarmersmarket.com","Facebook":"http:\/\/www.facebook.com\/pages\/Beaver-County-Farmers-Markets\/164099770332791&fref=","Twitter":null,"Instagram":null,"Pinterest":null,"Youtube":null,"Blog":null,"Address":"800 Third Street Beaver, PA 15009 Park in the FREE County Parking garage on 3rd street this season or on surrounding streets. Courthouse construction has caused the temporary relocation of many of our","State":"Pennsylvania","City":"BEAVER","Street":"800 3RD ST","Zip":"15009","Longitude":"-80.30731435042917","Latitude":"40.69418778448895","Dates":null,"Products":""},{"Type":"farmers market","ModifyDate":"Mar 27th, 2023","Image":"default-farmersmarket-4-3.jpg","ListingID":"312511","Name":"Beaver Falls Farmers Market","Description":null,"ContactName":null,"ContactEmail":null,"ContactPhone":null,"Website":"http:\/\/beavercountyfarmersmarket.com","Facebook":"http:\/\/www.facebook.com\/pages\/Beaver-County-Farmers-Markets\/164099770332791&fref=","Twitter":null,"Instagram":null,"Pinterest":null,"Youtube":null,"Blog":null,"Address":"712 12th Street Beaver Falls, PA 15010 In the parking lot behind the Brodhead Apartments. Monday afternoons from 3:30 to 6:30 May 3, 2021 to November 22, 2021","State":"Pennsylvania","City":"BEAVER FALLS","Street":"712 12TH ST","Zip":"15010","Longitude":"-80.31962860726344","Latitude":"40.75298056349601","Dates":null,"Products":""},{"Type":"farmers market","ModifyDate":"Mar 27th, 2023","Image":"default-farmersmarket-4-3.jpg","ListingID":"312512","Name":"Bellevue Farmers Market","Description":null,"ContactName":null,"ContactEmail":null,"ContactPhone":null,"Website":"http:\/\/www.bellevuemarket.org","Facebook":"http:\/\/www.facebook.com\/BellevueFarmersMarket","Twitter":null,"Instagram":null,"Pinterest":null,"Youtube":null,"Blog":null,"Address":"34 N Balph Ave Bellevue, PA 15202 The Bellevue Farmers Market is held every Wednesday, 3-7 PM in Bayne Park in Bellevue, PA! Plenty of free parking. Serving Bellevue, Avalon, Ben Avon, Ben Avon Height","State":"Pennsylvania","City":"BELLEVUE","Street":"34 N BALPH AVE","Zip":"15202","Longitude":"-80.0552544173685","Latitude":"40.49598839668271","Dates":null,"Products":""},{"Type":"farmers market","ModifyDate":"Mar 27th, 2023","Image":"default-farmersmarket-4-3.jpg","ListingID":"312513","Name":"Bethel Park Municipal Farmers Market","Description":null,"ContactName":null,"ContactEmail":null,"ContactPhone":null,"Website":"http:\/\/www.bethelparkfarmersmarket.com\/","Facebook":"http:\/\/www.facebook.com\/bethelparkfarmersmarket","Twitter":null,"Instagram":null,"Pinterest":null,"Youtube":null,"Blog":null,"Address":"30 Corrigan Drive Bethel Park, PA 15102 You'll find us conveniently located in South Park's VIP Parking Lot directly off Corrigan Drive near the Ice Skating Rink.","State":"Pennsylvania","City":"BETHEL PARK","Street":"30 CORRIGAN DR","Zip":"15102","Longitude":"-80.02148557604593","Latitude":"40.33004530852042","Dates":null,"Products":""},{"Type":"farmers market","ModifyDate":"Mar 27th, 2023","Image":"default-farmersmarket-4-3.jpg","ListingID":"312514","Name":"Blairsville Downtown Farmers' Market","Description":null,"ContactName":null,"ContactEmail":null,"ContactPhone":null,"Website":"http:\/\/blairsville-pa.net\/farmers-market\/","Facebook":null,"Twitter":null,"Instagram":null,"Pinterest":null,"Youtube":null,"Blog":null,"Address":"75 N. Morrow St., Tractor Supply Co. Parking Lot, Blairsville, PA, 15717","State":"Pennsylvania","City":"Blairsville","Street":"75 N. Morrow St.","Zip":"15717","Longitude":"-79.25921126616737","Latitude":"40.43244442490057","Dates":null,"Products":""},{"Type":"farmers market","ModifyDate":"Mar 27th, 2023","Image":"default-farmersmarket-4-3.jpg","ListingID":"312515","Name":"Boalsburg Winter Farmers' Market","Description":null,"ContactName":null,"ContactEmail":"boalsburgfarmersmarket@gmail.com","ContactPhone":"814-876-3279","Website":"http:\/\/www.boalsburgfarmersmarket.com\/","Facebook":"https:\/\/www.facebook.com\/pages\/Boalsburg-Farmers-Market\/108299077230","Twitter":null,"Instagram":null,"Pinterest":null,"Youtube":null,"Blog":null,"Address":"218 N. Church St., St. John's United Church of Christ, Boalsburg, PA, 16827","State":"Pennsylvania","City":"Boalsburg","Street":"218 N. Church St.","Zip":"16827","Longitude":"-77.79316384497315","Latitude":"40.77683156795901","Dates":null,"Products":""},{"Type":"farmers market","ModifyDate":"Mar 27th, 2023","Image":"default-farmersmarket-4-3.jpg","ListingID":"312516","Name":"Boscov's Fairgrounds Farmers' Market","Description":null,"ContactName":null,"ContactEmail":"info@fairgroundsfarmersmarket.com","ContactPhone":"610-929-3429","Website":"http:\/\/www.fairgroundsfarmersmarket.com\/","Facebook":"https:\/\/www.facebook.com\/pages\/Boscovs-Fairgrounds-Farmers-market\/586244008106448","Twitter":null,"Instagram":null,"Pinterest":null,"Youtube":null,"Blog":null,"Address":"2934 N. 5th St. Hwy., Reading, PA, 19605","State":"Pennsylvania","City":"Reading","Street":"2934 N. 5th St. Hwy.","Zip":"19605","Longitude":"-75.92721749600017","Latitude":"40.37885250967007","Dates":null,"Products":""},{"Type":"farmers market","ModifyDate":"Mar 27th, 2023","Image":"default-farmersmarket-4-3.jpg","ListingID":"312517","Name":"Boyertown Farmers Market","Description":null,"ContactName":null,"ContactEmail":null,"ContactPhone":null,"Website":"http:\/\/www.boyertownpa.org\/farmersmarket","Facebook":null,"Twitter":null,"Instagram":null,"Pinterest":null,"Youtube":null,"Blog":null,"Address":"100 South Walnut Street Boyertown, PA 19512","State":"Pennsylvania","City":"BOYERTOWN","Street":"100 S WALNUT ST","Zip":"19512","Longitude":"-75.64068005858425","Latitude":"40.332517161143016","Dates":null,"Products":""},{"Type":"farmers market","ModifyDate":"Mar 27th, 2023","Image":"default-farmersmarket-4-3.jpg","ListingID":"312518","Name":"Broad Street Market","Description":null,"ContactName":null,"ContactEmail":"manager@broadstreetmarket.org","ContactPhone":"717-236-7923","Website":"http:\/\/www.broadstreetmarket.org\/","Facebook":"https:\/\/www.facebook.com\/BroadStreetMarket","Twitter":null,"Instagram":null,"Pinterest":null,"Youtube":null,"Blog":null,"Address":"1233 N. 3rd St., Harrisburg, PA, 17102","State":"Pennsylvania","City":"Harrisburg","Street":"1233 N. 3rd St.","Zip":"17102","Longitude":"-76.88878749074689","Latitude":"40.269482323558016","Dates":null,"Products":""},{"Type":"farmers market","ModifyDate":"Mar 27th, 2023","Image":"default-farmersmarket-4-3.jpg","ListingID":"312519","Name":"Brookhaven Farmers Market","Description":null,"ContactName":null,"ContactEmail":null,"ContactPhone":"610-876-1088","Website":"http:\/\/www.campbellsmarkets.com","Facebook":null,"Twitter":null,"Instagram":null,"Pinterest":null,"Youtube":null,"Blog":null,"Address":"4101 Edgmont Ave. Brookhaven, PA 19015","State":"Pennsylvania","City":"BROOKHAVEN","Street":"4101 EDGMONT AVE","Zip":"19015","Longitude":"-75.3894193180046","Latitude":"39.87323038305947","Dates":null,"Products":""},{"Type":"farmers market","ModifyDate":"Mar 27th, 2023","Image":"default-farmersmarket-4-3.jpg","ListingID":"312520","Name":"Butler City Farmers' Market","Description":null,"ContactName":null,"ContactEmail":"cityfarmersmarket@gmail.com","ContactPhone":"916-342-5256","Website":null,"Facebook":"https:\/\/www.facebook.com\/pages\/Butler-City-Farmers-Market\/161364660572913","Twitter":null,"Instagram":null,"Pinterest":null,"Youtube":null,"Blog":null,"Address":"205 S. Chestnut St., Butler, PA, 16001","State":"Pennsylvania","City":"Butler","Street":"205 S. Chestnut St.","Zip":"16001","Longitude":"-79.9005144384347","Latitude":"40.858996432617296","Dates":null,"Products":""},{"Type":"farmers market","ModifyDate":"Mar 27th, 2023","Image":"default-farmersmarket-4-3.jpg","ListingID":"312521","Name":"Canonsburg Pike Street Farmers Market","Description":null,"ContactName":null,"ContactEmail":null,"ContactPhone":"724-745-5310","Website":null,"Facebook":null,"Twitter":null,"Instagram":null,"Pinterest":null,"Youtube":null,"Blog":null,"Address":"148 W. Pike St. Canonsburg, PA 15317 Free parking next to Farmers Market location","State":"Pennsylvania","City":"CANONSBURG","Street":"148 W PIKE ST","Zip":"15317","Longitude":"-80.19063188644532","Latitude":"40.25823063278143","Dates":null,"Products":""},{"Type":"farmers market","ModifyDate":"Mar 27th, 2023","Image":"default-farmersmarket-4-3.jpg","ListingID":"312522","Name":"Carlin Farm\/4 Seasons Farm Market\/Carlin Farm","Description":null,"ContactName":null,"ContactEmail":null,"ContactPhone":"570-240-5094","Website":"http:\/\/www.4seasonsfarmmarket.com","Facebook":"http:\/\/www.facebook.com\/4seasonsfarmmarket","Twitter":null,"Instagram":null,"Pinterest":null,"Youtube":null,"Blog":null,"Address":"3064 State Route 3005 Meshoppen, PA 18630-9418 From Montrose: (From North) State Route 706 to State Route 267 South in Lawton. Turn onto Route 267 and go approximately 1\/4 mile to State Route 367 on r","State":"Pennsylvania","City":"MESHOPPEN","Street":"3064 STATE RTE 3005","Zip":"18630","Longitude":"-76.077610325068","Latitude":"41.69020201567529","Dates":null,"Products":""},{"Type":"farmers market","ModifyDate":"Mar 27th, 2023","Image":"default-farmersmarket-4-3.jpg","ListingID":"312523","Name":"Carlisle Country Market","Description":null,"ContactName":null,"ContactEmail":"Email not found","ContactPhone":"717-254-6457","Website":"http:\/\/carlislecountrymarket.com\/","Facebook":"https:\/\/www.facebook.com\/CarlisleCountryMarket","Twitter":null,"Instagram":null,"Pinterest":null,"Youtube":null,"Blog":null,"Address":"1446 Holly Pike, Carlisle, PA, 17015","State":"Pennsylvania","City":"Carlisle","Street":"1446 Holly Pike","Zip":"17015","Longitude":"-77.19366957424718","Latitude":"40.16848189883573","Dates":null,"Products":""},{"Type":"farmers market","ModifyDate":"Mar 27th, 2023","Image":"default-farmersmarket-4-3.jpg","ListingID":"312524","Name":"Carlisle Farmers Market","Description":null,"ContactName":null,"ContactEmail":null,"ContactPhone":"717-243-5222","Website":null,"Facebook":null,"Twitter":null,"Instagram":null,"Pinterest":null,"Youtube":null,"Blog":null,"Address":"260 York Road 260 York Road Carlisle, PA 17013","State":"Pennsylvania","City":"CARLISLE","Street":"260 YORK RD","Zip":"17013","Longitude":"-77.16586990383074","Latitude":"40.19413212548635","Dates":null,"Products":""},{"Type":"farmers market","ModifyDate":"Mar 27th, 2023","Image":"default-farmersmarket-4-3.jpg","ListingID":"312525","Name":"Central Market","Description":null,"ContactName":null,"ContactEmail":"centralmarketyork@gmail.com","ContactPhone":"717-848-2243","Website":"http:\/\/www.centralmarketyork.com\/","Facebook":"https:\/\/www.facebook.com\/CentralMarketYork","Twitter":null,"Instagram":null,"Pinterest":null,"Youtube":null,"Blog":null,"Address":"34 W. Philadelphia St., York, PA, 17401","State":"Pennsylvania","City":"York","Street":"34 W. Philadelphia St.","Zip":"17401","Longitude":"-76.72981958000842","Latitude":"39.96345585512702","Dates":null,"Products":""},{"Type":"farmers market","ModifyDate":"Mar 27th, 2023","Image":"default-farmersmarket-4-3.jpg","ListingID":"312526","Name":"Central Market","Description":null,"ContactName":null,"ContactEmail":null,"ContactPhone":"717-380-3914","Website":"http:\/\/www.cityoflancasterpa.com\/lancastercity\/cwp\/browse.asp?a=671&bc=0&c=42768","Facebook":null,"Twitter":null,"Instagram":null,"Pinterest":null,"Youtube":null,"Blog":null,"Address":"23 n. market street Lancaster, PA 17603","State":"Pennsylvania","City":"LANCASTER","Street":"23 N MARKET ST","Zip":"17603","Longitude":"-76.30701136491703","Latitude":"40.03919553406692","Dates":null,"Products":""},{"Type":"farmers market","ModifyDate":"Mar 27th, 2023","Image":"default-farmersmarket-4-3.jpg","ListingID":"312527","Name":"Chippewa Farmers' Market","Description":null,"ContactName":null,"ContactEmail":"haffeytl@yahoo.com","ContactPhone":"724-495-9618","Website":"http:\/\/www.localharvest.org\/chippewa-farmers-market-M57814","Facebook":"https:\/\/www.facebook.com\/Beaver-County-Farmers-Markets-164099770332791","Twitter":null,"Instagram":null,"Pinterest":null,"Youtube":null,"Blog":null,"Address":"2545 Darlington Rd., Chippewa United Methodist Church Parking Lot, Beaver Falls, PA, 15010","State":"Pennsylvania","City":"Beaver Falls","Street":"2545 Darlington Rd.","Zip":"15010","Longitude":"-80.37412089810628","Latitude":"40.772214738045804","Dates":null,"Products":""},{"Type":"farmers market","ModifyDate":"Mar 27th, 2023","Image":"default-farmersmarket-4-3.jpg","ListingID":"312528","Name":"Clarion Farmers' Market","Description":null,"ContactName":null,"ContactEmail":null,"ContactPhone":"814-227-8101","Website":null,"Facebook":"https:\/\/www.facebook.com\/pages\/Clarion-Farmers-Market\/113258205355496","Twitter":null,"Instagram":null,"Pinterest":null,"Youtube":null,"Blog":null,"Address":"421 Main St., Clarion, PA, 16214","State":"Pennsylvania","City":"Clarion","Street":"421 Main St.","Zip":"16214","Longitude":"-79.38635226235357","Latitude":"41.21500202395288","Dates":null,"Products":""},{"Type":"farmers market","ModifyDate":"Mar 27th, 2023","Image":"default-farmersmarket-4-3.jpg","ListingID":"312529","Name":"Columbia Market House","Description":null,"ContactName":null,"ContactEmail":null,"ContactPhone":"717-449-4731","Website":"http:\/\/www.columbiahistoricmarkethouse.com\/","Facebook":null,"Twitter":null,"Instagram":null,"Pinterest":null,"Youtube":null,"Blog":null,"Address":"15 South Third Street Columbia, PA 17512","State":"Pennsylvania","City":"COLUMBIA","Street":"15 S 3RD ST","Zip":"17512","Longitude":"-76.50206646826264","Latitude":"40.03143956288737","Dates":null,"Products":""},{"Type":"farmers market","ModifyDate":"Mar 27th, 2023","Image":"default-farmersmarket-4-3.jpg","ListingID":"312530","Name":"Coraopolis Farmers' Market","Description":null,"ContactName":null,"ContactEmail":null,"ContactPhone":"724-774-2380","Website":null,"Facebook":null,"Twitter":null,"Instagram":null,"Pinterest":null,"Youtube":null,"Blog":null,"Address":"1201 5th Ave., Presbyterian Church parking lot, Coraopolis, PA, 15108","State":"Pennsylvania","City":"Coraopolis","Street":"1201 5th Ave.","Zip":"15108","Longitude":"-80.16110108105363","Latitude":"40.51627418325151","Dates":null,"Products":""},{"Type":"farmers market","ModifyDate":"Mar 27th, 2023","Image":"default-farmersmarket-4-3.jpg","ListingID":"312531","Name":"Corn Crib Main Street Market","Description":null,"ContactName":null,"ContactEmail":"tkaley101@comcast.net","ContactPhone":"717-278-9892","Website":null,"Facebook":"https:\/\/www.facebook.com\/pages\/Corn-Crib-Main-Street-Market\/376395685802074","Twitter":null,"Instagram":null,"Pinterest":null,"Youtube":null,"Blog":null,"Address":"35 W. Main St., Mount Joy, PA, 17552","State":"Pennsylvania","City":"Mount Joy","Street":"35 W. Main St.","Zip":"17552","Longitude":"-76.5052243628271","Latitude":"40.1102149402981","Dates":null,"Products":""},{"Type":"farmers market","ModifyDate":"Mar 27th, 2023","Image":"default-farmersmarket-4-3.jpg","ListingID":"312532","Name":"Country Farmers Market","Description":null,"ContactName":null,"ContactEmail":null,"ContactPhone":"570-224-4579","Website":null,"Facebook":null,"Twitter":null,"Instagram":null,"Pinterest":null,"Youtube":null,"Blog":null,"Address":"640 MAIN ST. Honesdale, PA 18431","State":"Pennsylvania","City":"Honesdale","Street":"640 MAIN ST.","Zip":"18431","Longitude":"-75.25497244929025","Latitude":"41.570998561870766","Dates":null,"Products":""},{"Type":"farmers market","ModifyDate":"Mar 27th, 2023","Image":"default-farmersmarket-4-3.jpg","ListingID":"312533","Name":"Cowtown Farmers' Market","Description":null,"ContactName":null,"ContactEmail":null,"ContactPhone":"484-494-3832","Website":null,"Facebook":null,"Twitter":null,"Instagram":null,"Pinterest":null,"Youtube":null,"Blog":null,"Address":"918 Delview Drive Folcroft, PA 19032","State":"Pennsylvania","City":"FOLCROFT","Street":"918 DELVIEW DR","Zip":"19032","Longitude":"-75.28363293020345","Latitude":"39.88826862947021","Dates":null,"Products":""},{"Type":"farmers market","ModifyDate":"Mar 27th, 2023","Image":"default-farmersmarket-4-3.jpg","ListingID":"312534","Name":"Cross Creek Farm Market","Description":null,"ContactName":null,"ContactEmail":null,"ContactPhone":"724-759-8977","Website":null,"Facebook":null,"Twitter":null,"Instagram":null,"Pinterest":null,"Youtube":null,"Blog":null,"Address":"1400 Cross Creek rd. Burgettstown, PA 15021","State":"Pennsylvania","City":"BURGETTSTOWN","Street":"1400 CROSS CREEK RD","Zip":"15021","Longitude":"-80.38728070197153","Latitude":"40.33709153075527","Dates":null,"Products":""},{"Type":"farmers market","ModifyDate":"Mar 27th, 2023","Image":"default-farmersmarket-4-3.jpg","ListingID":"312535","Name":"CVFC Farmer's Market","Description":null,"ContactName":null,"ContactEmail":null,"ContactPhone":"717-382-4432","Website":"http:\/\/www.citizensvfc.com","Facebook":null,"Twitter":null,"Instagram":null,"Pinterest":null,"Youtube":null,"Blog":null,"Address":"171 S. Market St. Fawn Grove, PA 17321","State":"Pennsylvania","City":"FAWN GROVE","Street":"171 S MARKET ST","Zip":"17321","Longitude":"-76.45197928410929","Latitude":"39.723378167637314","Dates":null,"Products":""},{"Type":"farmers market","ModifyDate":"Mar 27th, 2023","Image":"default-farmersmarket-4-3.jpg","ListingID":"312536","Name":"Dillsburg Farmers' Market","Description":null,"ContactName":null,"ContactEmail":"dillsburgfarmersmarket@gmail.com","ContactPhone":"717-599-0893","Website":"http:\/\/dillsburgfarmersma.wix.com\/dbgfarmersmarket","Facebook":"https:\/\/www.facebook.com\/dillsburgfarmersmarket","Twitter":null,"Instagram":null,"Pinterest":null,"Youtube":null,"Blog":null,"Address":"1 N. 2nd Street Dillsburg, PA 17019","State":"Pennsylvania","City":"Dillsburg","Street":"1 N. 2nd Street","Zip":"17019","Longitude":"-77.03730767570501","Latitude":"40.11066893206609","Dates":null,"Products":""},{"Type":"farmers market","ModifyDate":"Mar 27th, 2023","Image":"default-farmersmarket-4-3.jpg","ListingID":"312537","Name":"Downtown Bedford Farmers Market","Description":null,"ContactName":null,"ContactEmail":null,"ContactPhone":"814-623-0048","Website":"http:\/\/www.downtownbedford.com","Facebook":null,"Twitter":null,"Instagram":null,"Pinterest":null,"Youtube":null,"Blog":null,"Address":"124 S. Juliana St. Second Floor Bedford, PA 15522","State":"Pennsylvania","City":"BEDFORD","Street":"124 S JULIANA ST","Zip":"15522","Longitude":"-78.50375966453083","Latitude":"40.0181055896777","Dates":null,"Products":""},{"Type":"farmers market","ModifyDate":"Mar 27th, 2023","Image":"default-farmersmarket-4-3.jpg","ListingID":"312538","Name":"Downtown Indiana Farmers' Market","Description":null,"ContactName":null,"ContactEmail":null,"ContactPhone":null,"Website":null,"Facebook":null,"Twitter":null,"Instagram":null,"Pinterest":null,"Youtube":null,"Blog":null,"Address":"2445 Clarksburg Rd., Clarksburg, PA, 15725","State":"Pennsylvania","City":"Clarksburg","Street":"2445 Clarksburg Rd.","Zip":"15725","Longitude":"-79.35442556241503","Latitude":"40.5076856851453","Dates":null,"Products":""},{"Type":"farmers market","ModifyDate":"Mar 27th, 2023","Image":"default-farmersmarket-4-3.jpg","ListingID":"312539","Name":"Downtown Lititz Farmers Market","Description":null,"ContactName":null,"ContactEmail":null,"ContactPhone":"717-626-6332","Website":"http:\/\/www.lititzfarmersmarket.com","Facebook":null,"Twitter":null,"Instagram":null,"Pinterest":null,"Youtube":null,"Blog":null,"Address":"20 South Water Street Lititz, PA 17543","State":"Pennsylvania","City":"LITITZ","Street":"20 N WATER ST","Zip":"17543","Longitude":"-76.3019570695785","Latitude":"40.1571673161523","Dates":null,"Products":""},{"Type":"farmers market","ModifyDate":"Mar 27th, 2023","Image":"default-farmersmarket-4-3.jpg","ListingID":"312540","Name":"Dutch Country Farmers' Market","Description":null,"ContactName":null,"ContactEmail":"Email not found","ContactPhone":"215-722-1632","Website":"http:\/\/www.padutchcountrymarket.com\/","Facebook":null,"Twitter":null,"Instagram":null,"Pinterest":null,"Youtube":null,"Blog":null,"Address":"2031 Cottman Ave., Philadelphia, PA, 19111","State":"Pennsylvania","City":"Philadelphia","Street":"2031 Cottman Ave.","Zip":"19111","Longitude":"-75.06544879555621","Latitude":"40.05084317852371","Dates":null,"Products":""},{"Type":"farmers market","ModifyDate":"Mar 27th, 2023","Image":"default-farmersmarket-4-3.jpg","ListingID":"312541","Name":"Eagleview Farmers' Market","Description":null,"ContactName":null,"ContactEmail":"lisa@growingrootspartners.com","ContactPhone":"610-836-1391","Website":"http:\/\/growingrootspartners.com\/eagleview-farmers-market\/","Facebook":"https:\/\/www.facebook.com\/eagleviewfarmersmarket","Twitter":null,"Instagram":null,"Pinterest":null,"Youtube":null,"Blog":null,"Address":"540 Wellington Sq., Exton, PA, 19341","State":"Pennsylvania","City":"Exton","Street":"540 Wellington Sq.","Zip":"19341","Longitude":"-75.68358706982814","Latitude":"40.0615667700056","Dates":null,"Products":""},{"Type":"farmers market","ModifyDate":"Mar 27th, 2023","Image":"default-farmersmarket-4-3.jpg","ListingID":"312542","Name":"East Bayfront Eats & Arts Market","Description":null,"ContactName":null,"ContactEmail":null,"ContactPhone":null,"Website":null,"Facebook":"http:\/\/www.facebook.com\/eatsandarts\/","Twitter":null,"Instagram":null,"Pinterest":null,"Youtube":null,"Blog":null,"Address":"408 East 6th Street Erie, PA 16507 On the corner of 6th and Parade Street. Free street parking or in the open grassy area behind the vendor stands.","State":"Pennsylvania","City":"ERIE","Street":"408 E 6TH ST","Zip":"16507","Longitude":"-80.0758294362932","Latitude":"42.132927798436526","Dates":null,"Products":""},{"Type":"farmers market","ModifyDate":"Mar 27th, 2023","Image":"default-farmersmarket-4-3.jpg","ListingID":"312543","Name":"East Falls Farmers Market","Description":null,"ContactName":null,"ContactEmail":null,"ContactPhone":"215-848-8084","Website":"http:\/\/www.eastfalls-pa.com","Facebook":"http:\/\/www.facebook.com\/EFDCorp","Twitter":null,"Instagram":null,"Pinterest":null,"Youtube":null,"Blog":null,"Address":"4100 Ridge Ave. Philadelphia, PA 19129","State":"Pennsylvania","City":"PHILADELPHIA","Street":"4100 RIDGE AVE","Zip":"19129","Longitude":"-75.19228001794266","Latitude":"40.00811979795799","Dates":null,"Products":""},{"Type":"farmers market","ModifyDate":"Mar 27th, 2023","Image":"default-farmersmarket-4-3.jpg","ListingID":"312544","Name":"East Goshen Farmers' Market","Description":null,"ContactName":null,"ContactEmail":null,"ContactPhone":"610-692-7171","Website":"http:\/\/www.eastgoshenfarmersmarket.org\/","Facebook":"https:\/\/www.facebook.com\/EastGoshenFarmersMarket","Twitter":null,"Instagram":null,"Pinterest":null,"Youtube":null,"Blog":null,"Address":"1661 Paoli Pike, West Chester, PA, 19380","State":"Pennsylvania","City":"West Chester","Street":"1661 Paoli Pike","Zip":"19380","Longitude":"-75.54288881082046","Latitude":"39.99624228969353","Dates":null,"Products":""},{"Type":"farmers market","ModifyDate":"Mar 27th, 2023","Image":"default-farmersmarket-4-3.jpg","ListingID":"312545","Name":"Ebensburg Farmers Market","Description":null,"ContactName":null,"ContactEmail":null,"ContactPhone":null,"Website":null,"Facebook":null,"Twitter":null,"Instagram":null,"Pinterest":null,"Youtube":null,"Blog":null,"Address":"111 West High Street 111 West High Street Ebensburg, PA 15931","State":"Pennsylvania","City":"EBENSBURG","Street":"111 W HIGH ST","Zip":"15931","Longitude":"-78.72514552431426","Latitude":"40.48518309001749","Dates":null,"Products":""},{"Type":"farmers market","ModifyDate":"Mar 27th, 2023","Image":"default-farmersmarket-4-3.jpg","ListingID":"312546","Name":"Emmaus Farmers' Market","Description":null,"ContactName":null,"ContactEmail":"info@emmausmarket.com","ContactPhone":null,"Website":"http:\/\/www.emmausmarket.com\/","Facebook":"https:\/\/www.facebook.com\/EmmausFarmersMarket","Twitter":null,"Instagram":null,"Pinterest":null,"Youtube":null,"Blog":null,"Address":"235 Main St., Emmaus, PA, 18049","State":"Pennsylvania","City":"Emmaus","Street":"235 Main St.","Zip":"18049","Longitude":"-75.4892107980439","Latitude":"40.5369566609228","Dates":null,"Products":""},{"Type":"farmers market","ModifyDate":"Mar 27th, 2023","Image":"default-farmersmarket-4-3.jpg","ListingID":"312547","Name":"Essential Eating Farmers' Market","Description":null,"ContactName":null,"ContactEmail":"info@essentialeating.com","ContactPhone":null,"Website":null,"Facebook":"https:\/\/www.facebook.com\/EssentialEatingFarmersMarket","Twitter":null,"Instagram":null,"Pinterest":null,"Youtube":null,"Blog":null,"Address":"517 Northern Blvd., Clarks Summit, PA, 18411","State":"Pennsylvania","City":"Clarks Summit","Street":"517 Northern Blvd.","Zip":"18411","Longitude":"-75.68104658701931","Latitude":"41.47344742297991","Dates":null,"Products":""},{"Type":"farmers market","ModifyDate":"Mar 27th, 2023","Image":"default-farmersmarket-4-3.jpg","ListingID":"312548","Name":"Farm Fresh Farm Market","Description":null,"ContactName":null,"ContactEmail":null,"ContactPhone":null,"Website":null,"Facebook":"https:\/\/www.facebook.com\/Farm-Fresh-Farm-Market-471296176353568","Twitter":null,"Instagram":null,"Pinterest":null,"Youtube":null,"Blog":null,"Address":"100 Pennsylvania Ave., Irwin, PA, 15642","State":"Pennsylvania","City":"Irwin","Street":"100 Pennsylvania Ave.","Zip":"15642","Longitude":"-79.71253555319127","Latitude":"40.32791539313998","Dates":null,"Products":""},{"Type":"farmers market","ModifyDate":"Mar 27th, 2023","Image":"default-farmersmarket-4-3.jpg","ListingID":"312549","Name":"Farmers Market at Morgan Log House","Description":null,"ContactName":null,"ContactEmail":null,"ContactPhone":"215-368-2480","Website":"http:\/\/www.MLHmarket.org","Facebook":null,"Twitter":null,"Instagram":null,"Pinterest":null,"Youtube":null,"Blog":null,"Address":"850 Weikel Road Lansdale, PA 19446","State":"Pennsylvania","City":"LANSDALE","Street":"850 WEIKEL RD","Zip":"19446","Longitude":"-75.31264770970664","Latitude":"40.24420796164659","Dates":null,"Products":""},{"Type":"farmers market","ModifyDate":"Mar 27th, 2023","Image":"default-farmersmarket-4-3.jpg","ListingID":"312550","Name":"Farmers' Market Cooperative of East Liberty","Description":null,"ContactName":null,"ContactEmail":"cameronsuorsa@gmail.com","ContactPhone":"412-661-4414","Website":"http:\/\/www.farmersmarketcooperativeofeastliberty.com\/","Facebook":"https:\/\/www.facebook.com\/pages\/Farmers-Market-Cooperative-of-East-Liberty\/283258215040616","Twitter":null,"Instagram":null,"Pinterest":null,"Youtube":null,"Blog":null,"Address":"344 N. Sheridan Ave., Pittsburgh, PA, 15206","State":"Pennsylvania","City":"Pittsburgh","Street":"344 N. Sheridan Ave.","Zip":"15206","Longitude":"-79.92186669661496","Latitude":"40.4639437227582","Dates":null,"Products":""},{"Type":"farmers market","ModifyDate":"Mar 27th, 2023","Image":"default-farmersmarket-4-3.jpg","ListingID":"312551","Name":"Farmers Market on 4th","Description":null,"ContactName":null,"ContactEmail":null,"ContactPhone":"717-774-8789","Website":"http:\/\/newcumberlandpa.com","Facebook":"http:\/\/www.facebook.com\/newcumberlandpa","Twitter":null,"Instagram":null,"Pinterest":null,"Youtube":null,"Blog":null,"Address":"400 Bridge Street New Cumberland, PA 17070","State":"Pennsylvania","City":"NEW CUMBERLAND","Street":"400 BRIDGE ST","Zip":"17070","Longitude":"-76.86581479393995","Latitude":"40.227420529713164","Dates":null,"Products":""},{"Type":"farmers market","ModifyDate":"Mar 27th, 2023","Image":"default-farmersmarket-4-3.jpg","ListingID":"312552","Name":"Farmstead Farmers Market","Description":null,"ContactName":null,"ContactEmail":null,"ContactPhone":"717-469-2606","Website":null,"Facebook":"https:\/\/www.facebook.com\/groups\/147947675248616\/","Twitter":null,"Instagram":null,"Pinterest":null,"Youtube":null,"Blog":null,"Address":"1976 Laudermilch Road Palmyra, PA 17078","State":"Pennsylvania","City":"Palmyra","Street":"1976 Laudermilch Road","Zip":"17078","Longitude":"-76.65019221091568","Latitude":"40.36998753573572","Dates":null,"Products":""},{"Type":"farmers market","ModifyDate":"Mar 27th, 2023","Image":"default-farmersmarket-4-3.jpg","ListingID":"312553","Name":"Fencerow Farmers Market","Description":null,"ContactName":null,"ContactEmail":null,"ContactPhone":"724-255-0464","Website":"http:\/\/www.fencerowfarmersmarket.com","Facebook":"http:\/\/www.facebook.com\/#!\/pages\/Fencerow-Farmers-Market\/355787474939","Twitter":null,"Instagram":null,"Pinterest":null,"Youtube":null,"Blog":null,"Address":"1604 E High St Waynesburg, PA 15370","State":"Pennsylvania","City":"WAYNESBURG","Street":"1604 E HIGH ST","Zip":"15370","Longitude":"-80.1661457167691","Latitude":"39.89630225147136","Dates":null,"Products":""},{"Type":"farmers market","ModifyDate":"Mar 27th, 2023","Image":"default-farmersmarket-4-3.jpg","ListingID":"312554","Name":"Ferry Street Growers' Market","Description":null,"ContactName":null,"ContactEmail":"ballengeefarm@gmail.com","ContactPhone":"570-939-1528","Website":"http:\/\/www.ferrystreetgrowersmarket.com\/","Facebook":"https:\/\/www.facebook.com\/pages\/Ferry-Street-Growers-Market\/122361951128156","Twitter":null,"Instagram":null,"Pinterest":null,"Youtube":null,"Blog":null,"Address":"330 Ferry St., Danville, PA, 17821","State":"Pennsylvania","City":"Danville","Street":"330 Ferry St.","Zip":"17821","Longitude":"-76.6163971552872","Latitude":"40.961713039075704","Dates":null,"Products":""},{"Type":"farmers market","ModifyDate":"Mar 27th, 2023","Image":"default-farmersmarket-4-3.jpg","ListingID":"312555","Name":"Fox Chapel Farmers' Market","Description":null,"ContactName":null,"ContactEmail":"farmersmarket@shadysideacademy.org","ContactPhone":"412-968-3045","Website":"http:\/\/www.shadysideacademy.org\/page.cfm?p=8575","Facebook":"https:\/\/www.facebook.com\/foxchapelfarmmarket","Twitter":null,"Instagram":null,"Pinterest":null,"Youtube":null,"Blog":null,"Address":"423 Fox Chapel Rd., Pittsburgh, PA, 15238","State":"Pennsylvania","City":"Pittsburgh","Street":"423 Fox Chapel Rd.","Zip":"15238","Longitude":"-79.87938323651301","Latitude":"40.5217830815115","Dates":null,"Products":""},{"Type":"farmers market","ModifyDate":"Mar 27th, 2023","Image":"default-farmersmarket-4-3.jpg","ListingID":"312556","Name":"Frankie & May Farmer's Market in the Courtyard","Description":null,"ContactName":null,"ContactEmail":null,"ContactPhone":"814-836-0070","Website":"http:\/\/www.frankieandmay.com","Facebook":"http:\/\/www.facebook.com\/frankieandmay","Twitter":null,"Instagram":null,"Pinterest":null,"Youtube":null,"Blog":null,"Address":"1101 Peninsula Drive Erie, PA 16505","State":"Pennsylvania","City":"ERIE","Street":"1101 PENINSULA DR","Zip":"16505","Longitude":"-80.14634208996807","Latitude":"42.10100923956176","Dates":null,"Products":""},{"Type":"farmers market","ModifyDate":"Mar 27th, 2023","Image":"default-farmersmarket-4-3.jpg","ListingID":"312557","Name":"Fresh Marketplace @ New Wilmington Center","Description":null,"ContactName":null,"ContactEmail":null,"ContactPhone":"609-439-5931","Website":null,"Facebook":"http:\/\/www.facebook.com\/freshmarketplaceatnewwilmingtoncenter\/","Twitter":null,"Instagram":null,"Pinterest":null,"Youtube":null,"Blog":null,"Address":"129 S. Market St. New Wilmington, PA 16142","State":"Pennsylvania","City":"NEW WILMINGTON","Street":"129 S MARKET ST","Zip":"16142","Longitude":"-80.33308242749214","Latitude":"41.12197519238143","Dates":null,"Products":""},{"Type":"farmers market","ModifyDate":"Mar 27th, 2023","Image":"default-farmersmarket-4-3.jpg","ListingID":"312558","Name":"From Around Here Marketplace","Description":null,"ContactName":null,"ContactEmail":null,"ContactPhone":"215-481-0800","Website":"http:\/\/www.wholefoodsmarket.com\/events?store=6584","Facebook":"http:\/\/www.facebook.com\/Whole-Foods-Market-Jenkintown","Twitter":null,"Instagram":null,"Pinterest":null,"Youtube":null,"Blog":null,"Address":"1575 The Fairway Jenkintown, PA 19046","State":"Pennsylvania","City":"JENKINTOWN","Street":"1575 THE FAIRWAY","Zip":"19046","Longitude":"-75.11624945722579","Latitude":"40.10700633860518","Dates":null,"Products":""},{"Type":"farmers market","ModifyDate":"Mar 27th, 2023","Image":"default-farmersmarket-4-3.jpg","ListingID":"312559","Name":"Green Tree Farmers' Market in the...","Description":null,"ContactName":null,"ContactEmail":null,"ContactPhone":null,"Website":"http:\/\/www.greentreeboro.com\/vendors.html","Facebook":null,"Twitter":null,"Instagram":null,"Pinterest":null,"Youtube":null,"Blog":null,"Address":"905 Greentree Rd., Pittsburgh, PA, 15220","State":"Pennsylvania","City":"Pittsburgh","Street":"905 Greentree Rd.","Zip":"15220","Longitude":"-80.04561847038492","Latitude":"40.4183097114615","Dates":null,"Products":""},{"Type":"farmers market","ModifyDate":"Mar 27th, 2023","Image":"default-farmersmarket-4-3.jpg","ListingID":"312560","Name":"Hanover Farmers Market","Description":null,"ContactName":null,"ContactEmail":null,"ContactPhone":"717-632-1353","Website":null,"Facebook":null,"Twitter":null,"Instagram":null,"Pinterest":null,"Youtube":null,"Blog":null,"Address":"210 East Chestnut Street 210 East Chestnut Street Hanover, PA 17331","State":"Pennsylvania","City":"HANOVER","Street":"210 E CHESTNUT ST","Zip":"17331","Longitude":"-76.98213726683507","Latitude":"39.80352480710675","Dates":null,"Products":""},{"Type":"farmers market","ModifyDate":"Mar 27th, 2023","Image":"default-farmersmarket-4-3.jpg","ListingID":"312561","Name":"Hanover Market House","Description":null,"ContactName":null,"ContactEmail":"markethouse@hanoverboroughpa.gov","ContactPhone":"717-632-1353","Website":"http:\/\/www.hanover-market.com\/","Facebook":"https:\/\/www.facebook.com\/HanoverMarket","Twitter":null,"Instagram":null,"Pinterest":null,"Youtube":null,"Blog":null,"Address":"210 E. Chestnut St., Hanover, PA, 17331","State":"Pennsylvania","City":"Hanover","Street":"210 E. Chestnut St.","Zip":"17331","Longitude":"-76.98213726683507","Latitude":"39.80352480710675","Dates":null,"Products":""},{"Type":"farmers market","ModifyDate":"Mar 27th, 2023","Image":"default-farmersmarket-4-3.jpg","ListingID":"312562","Name":"Hatboro Farmers' Market","Description":null,"ContactName":null,"ContactEmail":"hatbororesidents@gmail.com","ContactPhone":null,"Website":"http:\/\/www.hatbororesidents.com\/#!farmers-market\/c14fj","Facebook":"https:\/\/www.facebook.com\/HatboroFarmersMarket","Twitter":null,"Instagram":null,"Pinterest":null,"Youtube":null,"Blog":null,"Address":"32 N. York Rd., Hatboro Baptist Church, Hatboro, PA, 19040","State":"Pennsylvania","City":"Hatboro","Street":"32 N. York Rd.","Zip":"19040","Longitude":"-75.1059842287319","Latitude":"40.17796050036319","Dates":null,"Products":""},{"Type":"farmers market","ModifyDate":"Mar 27th, 2023","Image":"default-farmersmarket-4-3.jpg","ListingID":"312563","Name":"Hawley Farmers Market","Description":null,"ContactName":null,"ContactEmail":null,"ContactPhone":"570-226-1644","Website":"http:\/\/Visithawleypa.com","Facebook":"http:\/\/www.facebook.com\/Pg\/hawley-farmers-market-365105663605824","Twitter":null,"Instagram":null,"Pinterest":null,"Youtube":null,"Blog":null,"Address":"24 Main Ave Hawley, PA 18428 Located at Bingham Park in Hawley PA. Across the street from the Dollar General","State":"Pennsylvania","City":"HAWLEY","Street":"24 MAIN AVE","Zip":"18428","Longitude":"-75.18271667218507","Latitude":"41.48136231002876","Dates":null,"Products":""},{"Type":"farmers market","ModifyDate":"Mar 27th, 2023","Image":"default-farmersmarket-4-3.jpg","ListingID":"312564","Name":"Hillside Park Farmers Market","Description":null,"ContactName":null,"ContactEmail":null,"ContactPhone":null,"Website":null,"Facebook":"http:\/\/www.facebook.com\/@hillsideparkmkt","Twitter":null,"Instagram":null,"Pinterest":null,"Youtube":null,"Blog":null,"Address":"1188 Winola Rd. South Abington Township, PA 18411 Next to the State Hospital, off of Morgan Highway. Plenty of parking throughout the park. Thursdays from 2 -6 pm, May through October.","State":"Pennsylvania","City":"SOUTH ABINGTON TOWNSHIP","Street":"1188 WINOLA RD","Zip":"18411","Longitude":"-75.7589956300221","Latitude":"41.48591136603193","Dates":null,"Products":""},{"Type":"farmers market","ModifyDate":"Mar 27th, 2023","Image":"default-farmersmarket-4-3.jpg","ListingID":"312565","Name":"Jim's Farmers' Market","Description":null,"ContactName":null,"ContactEmail":null,"ContactPhone":"717-264-1273","Website":"http:\/\/www.jimsfarmersmarket.com\/","Facebook":"https:\/\/www.facebook.com\/Jims-Farmers-Market-165327893493765","Twitter":null,"Instagram":null,"Pinterest":null,"Youtube":null,"Blog":null,"Address":"255 Grant St., Chambersburg, PA, 17201","State":"Pennsylvania","City":"Chambersburg","Street":"255 Grant St.","Zip":"17201","Longitude":"-77.6571499563365","Latitude":"39.941195119359094","Dates":null,"Products":""},{"Type":"farmers market","ModifyDate":"Mar 27th, 2023","Image":"default-farmersmarket-4-3.jpg","ListingID":"312566","Name":"Kamaw Open Air Market","Description":null,"ContactName":null,"ContactEmail":null,"ContactPhone":null,"Website":null,"Facebook":null,"Twitter":null,"Instagram":null,"Pinterest":null,"Youtube":null,"Blog":null,"Address":"2704 Glendale Valley Boulevard 2704 Glendale Valley Boulevard Flinton, PA 16640","State":"Pennsylvania","City":"FLINTON","Street":"2704 GLENDALE VALLEY BLVD","Zip":"16640","Longitude":"-78.52490484284279","Latitude":"40.71932304547343","Dates":null,"Products":""},{"Type":"farmers market","ModifyDate":"Mar 27th, 2023","Image":"default-farmersmarket-4-3.jpg","ListingID":"312567","Name":"Kennett Square Farmers Market","Description":null,"ContactName":null,"ContactEmail":"info@historickennettsquare.com","ContactPhone":"610-444-8188","Website":"https:\/\/www.historickennettsquare.com\/farmers.html","Facebook":"https:\/\/www.facebook.com\/pages\/Kennett-Square-Farmers-Market\/214481498570314?ref=ts","Twitter":null,"Instagram":null,"Pinterest":null,"Youtube":null,"Blog":null,"Address":"106 West State Street Kennett Square, PA 19348","State":"Pennsylvania","City":"Kennett Square","Street":"106 West State Street","Zip":"19348","Longitude":"-75.71252750403458","Latitude":"39.846506850006726","Dates":null,"Products":""},{"Type":"farmers market","ModifyDate":"Mar 27th, 2023","Image":"default-farmersmarket-4-3.jpg","ListingID":"312568","Name":"Kutztown Main Street Growers Market","Description":null,"ContactName":null,"ContactEmail":null,"ContactPhone":"484-646-9069","Website":"http:\/\/www.kutztownpa.org","Facebook":null,"Twitter":null,"Instagram":null,"Pinterest":null,"Youtube":null,"Blog":null,"Address":"357 West Main St. Kutztown, PA 19530","State":"Pennsylvania","City":"KUTZTOWN","Street":"357 W MAIN ST","Zip":"19530","Longitude":"-75.7795116314171","Latitude":"40.51488058820026","Dates":null,"Products":""},{"Type":"farmers market","ModifyDate":"Mar 27th, 2023","Image":"default-farmersmarket-4-3.jpg","ListingID":"312569","Name":"Lancaster Central Market","Description":null,"ContactName":null,"ContactEmail":"info@centralmarketlancaster.com","ContactPhone":"717-735-6890","Website":"http:\/\/www.centralmarketlancaster.com\/","Facebook":"https:\/\/www.facebook.com\/LancasterCentralMarket","Twitter":null,"Instagram":null,"Pinterest":null,"Youtube":null,"Blog":null,"Address":"23 N. Market St., Lancaster, PA, 17603","State":"Pennsylvania","City":"Lancaster","Street":"23 N. Market St.","Zip":"17603","Longitude":"-76.30701136491703","Latitude":"40.03919553406692","Dates":null,"Products":""},{"Type":"farmers market","ModifyDate":"Mar 27th, 2023","Image":"default-farmersmarket-4-3.jpg","ListingID":"312570","Name":"Lancaster County Farmers' Market","Description":null,"ContactName":null,"ContactEmail":"nancyscandycorner@comcast.net","ContactPhone":"610-688-9856","Website":"http:\/\/www.lancastercountyfarmersmarket.com\/","Facebook":"https:\/\/www.facebook.com\/LancasterCountyFarmersMarket","Twitter":null,"Instagram":null,"Pinterest":null,"Youtube":null,"Blog":null,"Address":"389 W. Lancaster Ave., Wayne, PA, 19087","State":"Pennsylvania","City":"Wayne","Street":"389 W. Lancaster Ave.","Zip":"19087","Longitude":"-75.38307607945379","Latitude":"40.04385219908166","Dates":null,"Products":""},{"Type":"farmers market","ModifyDate":"Mar 27th, 2023","Image":"default-farmersmarket-4-3.jpg","ListingID":"312571","Name":"Langhorne Borough Farmers Market","Description":null,"ContactName":null,"ContactEmail":null,"ContactPhone":"215-436-7448","Website":null,"Facebook":null,"Twitter":null,"Instagram":null,"Pinterest":null,"Youtube":null,"Blog":null,"Address":"115 W. Richardson Ave. Langhorne, PA 19047","State":"Pennsylvania","City":"LANGHORNE","Street":"115 W RICHARDSON AVE","Zip":"19047","Longitude":"-74.92069149498968","Latitude":"40.174891899867","Dates":null,"Products":""},{"Type":"farmers market","ModifyDate":"Mar 27th, 2023","Image":"default-farmersmarket-4-3.jpg","ListingID":"312572","Name":"Lansdowne Farmers Market","Description":null,"ContactName":null,"ContactEmail":"info@lansdownefarmersmarket.com","ContactPhone":"610-220-1385","Website":"https:\/\/www.lansdownefarmersmarket.com\/","Facebook":"https:\/\/www.facebook.com\/LansdowneFarmersMarketPA\/","Twitter":null,"Instagram":null,"Pinterest":null,"Youtube":null,"Blog":null,"Address":"30 North Lansdowne Avenue Lansdowne, PA 19050","State":"Pennsylvania","City":"Lansdowne","Street":"30 North Lansdowne Avenue","Zip":"19050","Longitude":"-75.27243682136908","Latitude":"39.939257476182405","Dates":null,"Products":""},{"Type":"farmers market","ModifyDate":"Mar 27th, 2023","Image":"default-farmersmarket-4-3.jpg","ListingID":"312573","Name":"Lebanon Farmers Market","Description":null,"ContactName":null,"ContactEmail":null,"ContactPhone":"717-274-3663","Website":"https:\/\/lebanonfarmersmarket.com\/","Facebook":"https:\/\/www.facebook.com\/pages\/Lebanon-Farmers-Market\/109036802482385","Twitter":null,"Instagram":null,"Pinterest":null,"Youtube":null,"Blog":null,"Address":"35 S. 8th Street Lebanon, PA 17042","State":"Pennsylvania","City":"Lebanon","Street":"35 S. 8th Street","Zip":"17042","Longitude":"-76.42444744833952","Latitude":"40.338571210928656","Dates":null,"Products":""},{"Type":"farmers market","ModifyDate":"Mar 27th, 2023","Image":"default-farmersmarket-4-3.jpg","ListingID":"312574","Name":"Leesport Farmers' Market","Description":null,"ContactName":null,"ContactEmail":"info@leesportmarket.com","ContactPhone":"610-926-1307","Website":"http:\/\/www.leesportmarket.com\/","Facebook":"https:\/\/www.facebook.com\/pages\/Leesport-Farmers-Market\/139220509436822","Twitter":null,"Instagram":null,"Pinterest":null,"Youtube":null,"Blog":null,"Address":"312 Gernants Church Rd., Leesport, PA, 19533","State":"Pennsylvania","City":"Leesport","Street":"312 Gernants Church Rd.","Zip":"19533","Longitude":"-75.96853876666715","Latitude":"40.45627836681238","Dates":null,"Products":""},{"Type":"farmers market","ModifyDate":"Mar 27th, 2023","Image":"default-farmersmarket-4-3.jpg","ListingID":"312575","Name":"Lemont Farmers' Market","Description":null,"ContactName":null,"ContactEmail":"kochrose@gmail.com","ContactPhone":null,"Website":"http:\/\/www.lemontvillage.org\/home\/lemont-farmers-market","Facebook":"https:\/\/www.facebook.com\/lemontfarmersmarket","Twitter":null,"Instagram":null,"Pinterest":null,"Youtube":null,"Blog":null,"Address":"133 Mt. Nittany Rd., Lemont, PA, 16851","State":"Pennsylvania","City":"Lemont","Street":"133 Mt. Nittany Rd.","Zip":"16851","Longitude":"-77.81694148737682","Latitude":"40.81029021126174","Dates":null,"Products":""},{"Type":"farmers market","ModifyDate":"Mar 27th, 2023","Image":"default-farmersmarket-4-3.jpg","ListingID":"312576","Name":"Lewisburg Farmers' Market","Description":null,"ContactName":null,"ContactEmail":null,"ContactPhone":"814-237-1960","Website":null,"Facebook":null,"Twitter":null,"Instagram":null,"Pinterest":null,"Youtube":null,"Blog":null,"Address":"600 Fairground Rd., Lewisburg, PA, 17837","State":"Pennsylvania","City":"Lewisburg","Street":"600 Fairground Rd.","Zip":"17837","Longitude":"-76.9064133100613","Latitude":"40.96081944251717","Dates":null,"Products":""},{"Type":"farmers market","ModifyDate":"Mar 27th, 2023","Image":"default-farmersmarket-4-3.jpg","ListingID":"312577","Name":"Lifestyle Market at Greenable","Description":null,"ContactName":null,"ContactEmail":null,"ContactPhone":null,"Website":"http:\/\/www.greenable.net","Facebook":null,"Twitter":null,"Instagram":null,"Pinterest":null,"Youtube":null,"Blog":null,"Address":"820 North 4th Street Philadelphia, PA 19123","State":"Pennsylvania","City":"PHILADELPHIA","Street":"820 N 4TH ST","Zip":"19123","Longitude":"-75.1442756098754","Latitude":"39.96437341979887","Dates":null,"Products":""},{"Type":"farmers market","ModifyDate":"Mar 27th, 2023","Image":"default-farmersmarket-4-3.jpg","ListingID":"312578","Name":"Lititz Farmers' Market","Description":null,"ContactName":null,"ContactEmail":null,"ContactPhone":"717-626-6332","Website":"http:\/\/www.lititzfarmersmarket.com\/","Facebook":"https:\/\/www.facebook.com\/lititzfarmermarket","Twitter":null,"Instagram":null,"Pinterest":null,"Youtube":null,"Blog":null,"Address":"9 N. Water St., Lititz, PA, 17543","State":"Pennsylvania","City":"Lititz","Street":"9 N. Water St.","Zip":"17543","Longitude":"-76.30117904508691","Latitude":"40.1581956026259","Dates":null,"Products":""},{"Type":"farmers market","ModifyDate":"Mar 27th, 2023","Image":"default-farmersmarket-4-3.jpg","ListingID":"312579","Name":"Little Italy Farmers Market","Description":null,"ContactName":null,"ContactEmail":null,"ContactPhone":"814-454-7814","Website":"http:\/\/www.ssjnn.org","Facebook":"http:\/\/www.facebook.com\/SSJNeighborhoodNetwork","Twitter":null,"Instagram":null,"Pinterest":null,"Youtube":null,"Blog":null,"Address":"331 W. 18th Street Erie, PA 16502 Between Chestnut and Myrtle, parking adjacent to grass market lot","State":"Pennsylvania","City":"ERIE","Street":"331 W 18TH ST","Zip":"16502","Longitude":"-80.0849071626548","Latitude":"42.11595416641338","Dates":null,"Products":""},{"Type":"farmers market","ModifyDate":"Mar 27th, 2023","Image":"default-farmersmarket-4-3.jpg","ListingID":"312580","Name":"Local Organic Market","Description":null,"ContactName":null,"ContactEmail":null,"ContactPhone":"610-597-7948","Website":"http:\/\/theindependentspace.com","Facebook":null,"Twitter":null,"Instagram":null,"Pinterest":null,"Youtube":null,"Blog":null,"Address":"19 E. Main Street Kutztown , PA 19530","State":"Pennsylvania","City":"KUTZTOWN","Street":"19 E MAIN ST","Zip":"19530","Longitude":"-75.77566054472766","Latitude":"40.51990635439522","Dates":null,"Products":""},{"Type":"farmers market","ModifyDate":"Mar 27th, 2023","Image":"default-farmersmarket-4-3.jpg","ListingID":"312581","Name":"Lower Burrell Farmers' Market","Description":null,"ContactName":null,"ContactEmail":null,"ContactPhone":null,"Website":null,"Facebook":"https:\/\/www.facebook.com\/LowerBurrellFarmersMarket","Twitter":null,"Instagram":null,"Pinterest":null,"Youtube":null,"Blog":null,"Address":"115 Schreiber St., City Hall Parking Lot, Just off Leechburg Road, New Kensington, PA, 15068","State":"Pennsylvania","City":"New Kensington","Street":"115 Schreiber St.","Zip":"15068","Longitude":"-79.72683521990986","Latitude":"40.58999174511703","Dates":null,"Products":""},{"Type":"farmers market","ModifyDate":"Mar 27th, 2023","Image":"default-farmersmarket-4-3.jpg","ListingID":"312582","Name":"Market and Penn Street Farmers Market","Description":null,"ContactName":null,"ContactEmail":null,"ContactPhone":null,"Website":"http:\/\/www.pennstreetfarmersmarket.com","Facebook":null,"Twitter":null,"Instagram":null,"Pinterest":null,"Youtube":null,"Blog":null,"Address":"380 West Market Street York, PA 17401","State":"Pennsylvania","City":"YORK","Street":"380 W MARKET ST","Zip":"17401","Longitude":"-76.73657388705126","Latitude":"39.95971114841758","Dates":null,"Products":""},{"Type":"farmers market","ModifyDate":"Mar 27th, 2023","Image":"default-farmersmarket-4-3.jpg","ListingID":"312583","Name":"Mars Farmers' Market","Description":null,"ContactName":null,"ContactEmail":"fritzbee@consolidated.net","ContactPhone":"724-776-3527","Website":"http:\/\/pa-vendors.com\/events\/butler-county\/mars-pa-farmers-market\/","Facebook":null,"Twitter":null,"Instagram":null,"Pinterest":null,"Youtube":null,"Blog":null,"Address":"225 Crowe Ave., Mars, PA, 16046","State":"Pennsylvania","City":"Mars","Street":"225 Crowe Ave.","Zip":"16046","Longitude":"-80.01174021682746","Latitude":"40.69536004015286","Dates":null,"Products":""},{"Type":"farmers market","ModifyDate":"Mar 27th, 2023","Image":"default-farmersmarket-4-3.jpg","ListingID":"312584","Name":"Mercer MainStreet Farmers' Market","Description":null,"ContactName":null,"ContactEmail":"heather@thewaynatureintended.net","ContactPhone":"724-662-5555","Website":"http:\/\/www.mercermainstreet.net\/","Facebook":null,"Twitter":null,"Instagram":null,"Pinterest":null,"Youtube":null,"Blog":null,"Address":"102 S. Diamond St., Mercer, PA, 16137","State":"Pennsylvania","City":"Mercer","Street":"102 S. Diamond St.","Zip":"16137","Longitude":"-80.23975131323661","Latitude":"41.226526921258845","Dates":null,"Products":""},{"Type":"farmers market","ModifyDate":"Mar 27th, 2023","Image":"default-farmersmarket-4-3.jpg","ListingID":"312585","Name":"Millersville Farmers Market","Description":null,"ContactName":null,"ContactEmail":null,"ContactPhone":"717-380-3656","Website":null,"Facebook":"http:\/\/www.facebook.com\/millersvillefarmersmarket","Twitter":null,"Instagram":null,"Pinterest":null,"Youtube":null,"Blog":null,"Address":"163 West Frederick Street Millersville, PA 17551 ~ Not open for the 2014 and 2015 season! ~","State":"Pennsylvania","City":"MILLERSVILLE","Street":"163 W FREDERICK ST","Zip":"17551","Longitude":"-76.36174282313281","Latitude":"39.995965445604476","Dates":null,"Products":""},{"Type":"farmers market","ModifyDate":"Mar 27th, 2023","Image":"default-farmersmarket-4-3.jpg","ListingID":"312586","Name":"Millheim Farmers' Market","Description":null,"ContactName":null,"ContactEmail":null,"ContactPhone":"814-422-8041","Website":null,"Facebook":"https:\/\/www.facebook.com\/OutdoorMillheimFarmersMarket15","Twitter":null,"Instagram":null,"Pinterest":null,"Youtube":null,"Blog":null,"Address":"162 W. Main St., Millheim, PA, 16854","State":"Pennsylvania","City":"Millheim","Street":"162 W. Main St.","Zip":"16854","Longitude":"-77.4842018623689","Latitude":"40.88878347725072","Dates":null,"Products":""},{"Type":"farmers market","ModifyDate":"Mar 27th, 2023","Image":"default-farmersmarket-4-3.jpg","ListingID":"312587","Name":"Millheim Indoor Farmers' Market","Description":null,"ContactName":null,"ContactEmail":null,"ContactPhone":null,"Website":null,"Facebook":"https:\/\/www.facebook.com\/Millheim-Indoor-Farmers-Market-142868415874197","Twitter":null,"Instagram":null,"Pinterest":null,"Youtube":null,"Blog":null,"Address":"105 E. Main St., Bremen Town Ballroom, Millheim, PA, 16854","State":"Pennsylvania","City":"Millheim","Street":"105 E. Main St.","Zip":"16854","Longitude":"-77.47650982132056","Latitude":"40.89098755068845","Dates":null,"Products":""},{"Type":"farmers market","ModifyDate":"Mar 27th, 2023","Image":"default-farmersmarket-4-3.jpg","ListingID":"312588","Name":"Mindful Farmers' Market","Description":null,"ContactName":null,"ContactEmail":null,"ContactPhone":null,"Website":"http:\/\/ http:\/\/pittsburghurbangardens.com","Facebook":"https:\/\/www.facebook.com\/PUGPMindfulMarket","Twitter":null,"Instagram":null,"Pinterest":null,"Youtube":null,"Blog":null,"Address":"3759 Library Rd., Pittsburgh, PA, 15234","State":"Pennsylvania","City":"Pittsburgh","Street":"3759 Library Rd.","Zip":"15234","Longitude":"-80.02133146080874","Latitude":"40.36453313291108","Dates":null,"Products":""},{"Type":"farmers market","ModifyDate":"Mar 27th, 2023","Image":"default-farmersmarket-4-3.jpg","ListingID":"312589","Name":"Monroeville Lions Farmers' Market","Description":null,"ContactName":null,"ContactEmail":null,"ContactPhone":"724-339-1709","Website":"http:\/\/www.monroevillefarmersmarket.com\/","Facebook":null,"Twitter":null,"Instagram":null,"Pinterest":null,"Youtube":null,"Blog":null,"Address":"2399 Tilbrook Rd, Monroeville Community Park, Monroeville, PA, 15140","State":"Pennsylvania","City":"Monroeville","Street":"2399 Tilbrook Rd","Zip":"15140","Longitude":"-79.76367249863586","Latitude":"40.4182437705869","Dates":null,"Products":""},{"Type":"farmers market","ModifyDate":"Mar 27th, 2023","Image":"default-farmersmarket-4-3.jpg","ListingID":"312590","Name":"Moon Township Farmers Market","Description":null,"ContactName":null,"ContactEmail":"slewis@moontwp.us","ContactPhone":"412-262-1700","Website":"http:\/\/www.moontwp.com\/farmersmarket.html","Facebook":null,"Twitter":null,"Instagram":null,"Pinterest":null,"Youtube":null,"Blog":null,"Address":"1000 Beaver Grade Rd., Moon Township, PA, 15108","State":"Pennsylvania","City":"Moon Township","Street":"1000 Beaver Grade Rd.","Zip":"15108","Longitude":"-80.20742649930816","Latitude":"40.50537053706036","Dates":null,"Products":""},{"Type":"farmers market","ModifyDate":"Mar 27th, 2023","Image":"default-farmersmarket-4-3.jpg","ListingID":"312591","Name":"Morningstar Marketplace","Description":null,"ContactName":null,"ContactEmail":"info@morningstarmarketplace.net","ContactPhone":"717-791-1919","Website":"http:\/\/www.morningstarmarketplace.net\/","Facebook":null,"Twitter":null,"Instagram":null,"Pinterest":null,"Youtube":null,"Blog":null,"Address":"5309 Lincoln Hwy W, Thomasville, PA, 17364","State":"Pennsylvania","City":"Thomasville","Street":"5309 Lincoln Hwy W","Zip":"17364","Longitude":"-76.85369020974927","Latitude":"39.9285185771895","Dates":null,"Products":""},{"Type":"farmers market","ModifyDate":"Mar 27th, 2023","Image":"default-farmersmarket-4-3.jpg","ListingID":"312592","Name":"Mount Lebanon Farmers Market","Description":null,"ContactName":null,"ContactEmail":null,"ContactPhone":null,"Website":null,"Facebook":null,"Twitter":null,"Instagram":null,"Pinterest":null,"Youtube":null,"Blog":null,"Address":"733 Washington Road 733 Washington Road Pittsburgh, PA 15228","State":"Pennsylvania","City":"PITTSBURGH","Street":"733 WASHINGTON RD","Zip":"15228","Longitude":"-80.0450816272561","Latitude":"40.37959967337718","Dates":null,"Products":""},{"Type":"farmers market","ModifyDate":"Mar 27th, 2023","Image":"default-farmersmarket-4-3.jpg","ListingID":"312593","Name":"Mt. Lebanon Lion's Club Farmers' Market","Description":null,"ContactName":null,"ContactEmail":"pghmarkets@gmail.com","ContactPhone":"412-241-2400","Website":"http:\/\/www.mtlebanonlionsfarmersmarket.com\/","Facebook":"https:\/\/www.facebook.com\/MtLebanonFarmersMarket","Twitter":null,"Instagram":null,"Pinterest":null,"Youtube":null,"Blog":null,"Address":"975 Washington Rd., Pittsburgh, PA, 15228","State":"Pennsylvania","City":"Pittsburgh","Street":"975 Washington Rd.","Zip":"15228","Longitude":"-80.04896459628414","Latitude":"40.373079905668185","Dates":null,"Products":""},{"Type":"farmers market","ModifyDate":"Mar 27th, 2023","Image":"default-farmersmarket-4-3.jpg","ListingID":"312594","Name":"Mt. Lebanon Uptown Farmers' Market","Description":null,"ContactName":null,"ContactEmail":"mtlebanonevents@gmail.com","ContactPhone":"412-343-3412","Website":"http:\/\/www.mtlebopartnership.org\/uptown-farmers-market\/","Facebook":"https:\/\/www.facebook.com\/uptownfarmmkt","Twitter":null,"Instagram":null,"Pinterest":null,"Youtube":null,"Blog":null,"Address":"710 Washington Rd., Pittsburgh, PA, 15228","State":"Pennsylvania","City":"Pittsburgh","Street":"710 Washington Rd.","Zip":"15228","Longitude":"-80.04553838102655","Latitude":"40.378931522780334","Dates":null,"Products":""},{"Type":"farmers market","ModifyDate":"Mar 27th, 2023","Image":"default-farmersmarket-4-3.jpg","ListingID":"312595","Name":"Munster Farmer's Market","Description":null,"ContactName":null,"ContactEmail":null,"ContactPhone":"219-836-6922","Website":null,"Facebook":null,"Twitter":null,"Instagram":null,"Pinterest":null,"Youtube":null,"Blog":null,"Address":"901 N. Centennial Dr. Munster, IN 46321","State":"Pennsylvania","City":"INDIANA","Street":"901 CENTENNIAL DR","Zip":"15701","Longitude":"-79.19899648332715","Latitude":"40.609974470951464","Dates":null,"Products":""},{"Type":"farmers market","ModifyDate":"Mar 27th, 2023","Image":"default-farmersmarket-4-3.jpg","ListingID":"312596","Name":"New Brighton Farmers Market","Description":null,"ContactName":null,"ContactEmail":null,"ContactPhone":null,"Website":"http:\/\/beavercountyfarmersmarket.com","Facebook":"http:\/\/www.facebook.com\/pages\/Beaver-County-Farmers-Markets\/164099770332791&fref=","Twitter":null,"Instagram":null,"Pinterest":null,"Youtube":null,"Blog":null,"Address":"313 5th Avenue New Brighton, PA 15066 Tuesdays from 3:30 to 6:30 PM. In the parking lot of the Diamond Milling Company. The market will open May 4th for the 2021 season. Closes November 16th, 2021.","State":"Pennsylvania","City":"NEW BRIGHTON","Street":"313 5TH AVE","Zip":"15066","Longitude":"-80.3173354124008","Latitude":"40.74029449047134","Dates":null,"Products":""},{"Type":"farmers market","ModifyDate":"Mar 27th, 2023","Image":"default-farmersmarket-4-3.jpg","ListingID":"312597","Name":"New Eastern Market","Description":null,"ContactName":null,"ContactEmail":"tech@yorkwebtech.com","ContactPhone":"717-755-5811","Website":"http:\/\/neweasternmarket.com\/","Facebook":"https:\/\/www.facebook.com\/NewEasternMarket","Twitter":null,"Instagram":null,"Pinterest":null,"Youtube":null,"Blog":null,"Address":"201 Memory Ln., York, PA, 17402","State":"Pennsylvania","City":"York","Street":"201 Memory Ln.","Zip":"17402","Longitude":"-76.68067527253285","Latitude":"39.976534872194634","Dates":null,"Products":""},{"Type":"farmers market","ModifyDate":"Mar 27th, 2023","Image":"default-farmersmarket-4-3.jpg","ListingID":"312598","Name":"New Freedom Farmers' Market","Description":null,"ContactName":null,"ContactEmail":null,"ContactPhone":null,"Website":"http:\/\/www.localharvest.org\/new-freedom-farmers-market-M37527","Facebook":"https:\/\/www.facebook.com\/groups\/NFFarmersMarket","Twitter":null,"Instagram":null,"Pinterest":null,"Youtube":null,"Blog":null,"Address":"150 E. Main St., New Freedom, PA, 17349","State":"Pennsylvania","City":"New Freedom","Street":"150 E. Main St.","Zip":"17349","Longitude":"-76.69683432228283","Latitude":"39.737444819780364","Dates":null,"Products":""},{"Type":"farmers market","ModifyDate":"Mar 27th, 2023","Image":"default-farmersmarket-4-3.jpg","ListingID":"312599","Name":"New Sheffield Farmer's Market","Description":null,"ContactName":null,"ContactEmail":null,"ContactPhone":null,"Website":"http:\/\/beavercountyfarmersmarket.com","Facebook":"http:\/\/www.facebook.com\/pages\/Beaver-County-Farmers-Markets\/164099770332791&fref=","Twitter":null,"Instagram":null,"Pinterest":null,"Youtube":null,"Blog":null,"Address":"2816 Brodhead Road Aliquippa, PA 15001 First United Methodist Church parking lot at 2816 Brodhead Road","State":"Pennsylvania","City":"ALIQUIPPA","Street":"2816 BRODHEAD RD","Zip":"15001","Longitude":"-80.29028860509415","Latitude":"40.617693777481946","Dates":null,"Products":""},{"Type":"farmers market","ModifyDate":"Mar 27th, 2023","Image":"default-farmersmarket-4-3.jpg","ListingID":"312600","Name":"Newtown Square Farmers' Market","Description":null,"ContactName":null,"ContactEmail":"butler@prc.org","ContactPhone":"610-353-1555x230","Website":"http:\/\/www.newtownsquarefarmersmarket.com\/","Facebook":"https:\/\/www.facebook.com\/NewtownSquareFarmersMarket","Twitter":null,"Instagram":null,"Pinterest":null,"Youtube":null,"Blog":null,"Address":"4033 W. Chester Pike, Newtown Square, PA, 19073","State":"Pennsylvania","City":"Newtown Square","Street":"4033 W. Chester Pike","Zip":"19073","Longitude":"-75.41877613438399","Latitude":"39.98449410110247","Dates":null,"Products":""},{"Type":"farmers market","ModifyDate":"Mar 27th, 2023","Image":"default-farmersmarket-4-3.jpg","ListingID":"312601","Name":"Ngozi Lets Get Dirty! Farmers Markets Festivals & Events","Description":null,"ContactName":null,"ContactEmail":null,"ContactPhone":"717-343-6881","Website":null,"Facebook":"http:\/\/www.facebook.com\/#Ngoziinc#Let'sGetDirtyFarmersMarket","Twitter":null,"Instagram":null,"Pinterest":null,"Youtube":null,"Blog":null,"Address":"1227 Berryhill Street and 17 & Hanover Streets Harrisburg, PA 17102-1745","State":"Pennsylvania","City":"HARRISBURG","Street":"1227 BERRYHILL ST","Zip":"17104","Longitude":"-76.86908212341618","Latitude":"40.25830020284378","Dates":null,"Products":""},{"Type":"farmers market","ModifyDate":"Mar 27th, 2023","Image":"default-farmersmarket-4-3.jpg","ListingID":"312602","Name":"Norristown Farmer's Market","Description":null,"ContactName":null,"ContactEmail":null,"ContactPhone":"610-628-2000","Website":null,"Facebook":"http:\/\/www.facebook.com\/Norristown-Farmers-Market-374657516199100\/","Twitter":null,"Instagram":null,"Pinterest":null,"Youtube":null,"Blog":null,"Address":"15 East Main St. Norristown, PA 19401 The market is located on the right-hand side of East Main St. in Norristown between Swede St. and DeKalb St. Street parking is available.","State":"Pennsylvania","City":"NORRISTOWN","Street":"15 E MAIN ST","Zip":"19401","Longitude":"-75.34325132393248","Latitude":"40.11409882445489","Dates":null,"Products":""},{"Type":"farmers market","ModifyDate":"Mar 27th, 2023","Image":"default-farmersmarket-4-3.jpg","ListingID":"312603","Name":"Nuangola Farmer's Market","Description":null,"ContactName":null,"ContactEmail":null,"ContactPhone":null,"Website":null,"Facebook":"http:\/\/www.facebook.com\/FarmersandVendorFoodFestival2016","Twitter":null,"Instagram":null,"Pinterest":null,"Youtube":null,"Blog":null,"Address":"5177 Nuangola Road Nuangola, PA 18707","State":"Pennsylvania","City":"NUANGOLA","Street":"5177 RD","Zip":"18707","Longitude":"-75.97887935726241","Latitude":"41.15528906868269","Dates":null,"Products":""},{"Type":"farmers market","ModifyDate":"Mar 27th, 2023","Image":"default-farmersmarket-4-3.jpg","ListingID":"312604","Name":"Oakmont Farmers' Market","Description":null,"ContactName":null,"ContactEmail":null,"ContactPhone":"215-733-9599","Website":null,"Facebook":null,"Twitter":null,"Instagram":null,"Pinterest":null,"Youtube":null,"Blog":null,"Address":"2419 West Darby Road Havertown, PA 19083","State":"Pennsylvania","City":"Havertown","Street":"2419 West Darby Road","Zip":"19083","Longitude":"-75.3116070230557","Latitude":"39.988690575231836","Dates":null,"Products":""},{"Type":"farmers market","ModifyDate":"Mar 27th, 2023","Image":"default-farmersmarket-4-3.jpg","ListingID":"312605","Name":"Oil City Farmers Market","Description":null,"ContactName":null,"ContactEmail":null,"ContactPhone":"814-677-3152x101","Website":"http:\/\/www.oilcitymainstreet.org","Facebook":"http:\/\/www.facebook.com\/oilcityfarmersmarket","Twitter":null,"Instagram":null,"Pinterest":null,"Youtube":null,"Blog":null,"Address":"2 Central Avenue Oil City, PA 16301 Located on Central Avenue in front of the Oil City Library and Christ Episcopal Church. Parking available both on-street and in nearby lots.","State":"Pennsylvania","City":"OIL CITY","Street":"2 CENTRAL AVE","Zip":"16301","Longitude":"-79.71121197234365","Latitude":"41.429188005657146","Dates":null,"Products":""},{"Type":"farmers market","ModifyDate":"Mar 27th, 2023","Image":"default-farmersmarket-4-3.jpg","ListingID":"312606","Name":"Old Pomfret Farmers' Market","Description":null,"ContactName":null,"ContactEmail":null,"ContactPhone":"717-245-2648","Website":null,"Facebook":null,"Twitter":null,"Instagram":null,"Pinterest":null,"Youtube":null,"Blog":null,"Address":"16 W.High Street (rear) Carlisle, PA 17013","State":"Pennsylvania","City":"CARLISLE","Street":"16 W HIGH ST","Zip":"17013","Longitude":"-77.18924751382453","Latitude":"40.20147244015659","Dates":null,"Products":""},{"Type":"farmers market","ModifyDate":"Mar 27th, 2023","Image":"default-farmersmarket-4-3.jpg","ListingID":"312607","Name":"Olde Town Grove City Farmers' Market","Description":null,"ContactName":null,"ContactEmail":null,"ContactPhone":null,"Website":null,"Facebook":"https:\/\/www.facebook.com\/OTGCFarmMarket","Twitter":null,"Instagram":null,"Pinterest":null,"Youtube":null,"Blog":null,"Address":"118 S. Center St., Grove City, PA, 16127","State":"Pennsylvania","City":"Grove City","Street":"118 S. Center St.","Zip":"16127","Longitude":"-80.08741787619182","Latitude":"41.16080538207177","Dates":null,"Products":""},{"Type":"farmers market","ModifyDate":"Mar 27th, 2023","Image":"default-farmersmarket-4-3.jpg","ListingID":"312608","Name":"Ottsville Farmers' Market","Description":null,"ContactName":null,"ContactEmail":"marketmanager@ottsvillefarmersmarket.com","ContactPhone":"610-847-1300","Website":"http:\/\/ottsvillefarmersmarket.com","Facebook":null,"Twitter":null,"Instagram":null,"Pinterest":null,"Youtube":null,"Blog":null,"Address":"8230 Easton Rd. , Ottsville, PA, 18942","State":"Pennsylvania","City":"Ottsville","Street":"8230 Easton Rd.","Zip":"18942","Longitude":"-75.17262772808209","Latitude":"40.489086390668135","Dates":null,"Products":""},{"Type":"farmers market","ModifyDate":"Mar 27th, 2023","Image":"default-farmersmarket-4-3.jpg","ListingID":"312609","Name":"Oxford Circle Farmers' Market","Description":null,"ContactName":null,"ContactEmail":"contact@thefoodtrust.org","ContactPhone":"215-575-0444","Website":"http:\/\/thefoodtrust.org\/farmers-markets\/market\/oxford-circle","Facebook":null,"Twitter":null,"Instagram":null,"Pinterest":null,"Youtube":null,"Blog":null,"Address":"900 E. Howell St., Oxford Circle Mennonite Church, Philadelphia, PA, 19149","State":"Pennsylvania","City":"Philadelphia","Street":"900 E. Howell St.","Zip":"19149","Longitude":"-75.09119063824615","Latitude":"40.03831434963324","Dates":null,"Products":""},{"Type":"farmers market","ModifyDate":"Mar 27th, 2023","Image":"default-farmersmarket-4-3.jpg","ListingID":"312610","Name":"PA Dutch Farmers' Market of Wyomissing","Description":null,"ContactName":null,"ContactEmail":null,"ContactPhone":"610-374-1916","Website":"http:\/\/farmersmarketofwyomissing.com\/","Facebook":"http:\/\/www.facebook.com\/pages\/Farmers-Market-Of-Wyomissing\/126797320674727","Twitter":null,"Instagram":null,"Pinterest":null,"Youtube":null,"Blog":null,"Address":"845 Woodland Road Wyomissing, PA 19610","State":"Pennsylvania","City":"WYOMISSING","Street":"845 WOODLAND RD","Zip":"19610","Longitude":"-75.96495703207948","Latitude":"40.347882489372445","Dates":null,"Products":""},{"Type":"farmers market","ModifyDate":"Mar 27th, 2023","Image":"default-farmersmarket-4-3.jpg","ListingID":"312611","Name":"Palmyra Farmers Market","Description":null,"ContactName":null,"ContactEmail":null,"ContactPhone":"717-838-8755","Website":null,"Facebook":null,"Twitter":null,"Instagram":null,"Pinterest":null,"Youtube":null,"Blog":null,"Address":"103 north college st palmyra, PA 17078","State":"Pennsylvania","City":"PALMYRA","Street":"103 N COLLEGE ST","Zip":"17078","Longitude":"-76.5980447633556","Latitude":"40.30785231022988","Dates":null,"Products":""},{"Type":"farmers market","ModifyDate":"Mar 27th, 2023","Image":"default-farmersmarket-4-3.jpg","ListingID":"312612","Name":"Palmyra Producers-Only Farmers Market","Description":null,"ContactName":null,"ContactEmail":"MaywoodFarmInc@aol.com","ContactPhone":"717-867-2874","Website":"https:\/\/www.palmyrafarmersmarket.com\/","Facebook":null,"Twitter":null,"Instagram":null,"Pinterest":null,"Youtube":null,"Blog":null,"Address":"325 S Railroad St Palmyra, PA 17078","State":"Pennsylvania","City":"Palmyra","Street":"325 S Railroad St","Zip":"17078","Longitude":"-76.59929254677148","Latitude":"40.31149189025401","Dates":null,"Products":""},{"Type":"farmers market","ModifyDate":"Mar 27th, 2023","Image":"default-farmersmarket-4-3.jpg","ListingID":"312613","Name":"Paulus Farm Market","Description":null,"ContactName":null,"ContactEmail":null,"ContactPhone":"717-697-4330","Website":"http:\/\/www.paulusfarmmarket.com","Facebook":null,"Twitter":null,"Instagram":null,"Pinterest":null,"Youtube":null,"Blog":null,"Address":"1216 South York Street Mechanicsburg, PA 17055","State":"Pennsylvania","City":"MECHANICSBURG","Street":"1216 S YORK ST","Zip":"17055","Longitude":"-77.00426490335737","Latitude":"40.196048414517975","Dates":null,"Products":""},{"Type":"farmers market","ModifyDate":"Mar 27th, 2023","Image":"default-farmersmarket-4-3.jpg","ListingID":"312614","Name":"Penn Street Market","Description":null,"ContactName":null,"ContactEmail":"pennstmarket@redesignreading.org","ContactPhone":"610-683-2236","Website":"http:\/\/www.redesignreading.org\/#!penn-street-market\/ibwdp","Facebook":"https:\/\/www.facebook.com\/Penn-Street-Market-138443376166319","Twitter":null,"Instagram":null,"Pinterest":null,"Youtube":null,"Blog":null,"Address":"445 Penn St., Reading, PA, 19602","State":"Pennsylvania","City":"Reading","Street":"445 Penn St.","Zip":"19602","Longitude":"-75.92894118326521","Latitude":"40.33533878613568","Dates":null,"Products":""},{"Type":"farmers market","ModifyDate":"Mar 27th, 2023","Image":"default-farmersmarket-4-3.jpg","ListingID":"312615","Name":"Pennsylvania Farmers' Open Air Market","Description":null,"ContactName":null,"ContactEmail":"megleason@comcast.net","ContactPhone":"717-364-9226","Website":null,"Facebook":"https:\/\/www.facebook.com\/pages\/PA-Farmers-Open-Air-Market\/148543805204525","Twitter":null,"Instagram":null,"Pinterest":null,"Youtube":null,"Blog":null,"Address":"2300 N. Cameron St., Harrisburg, PA, 17110","State":"Pennsylvania","City":"Harrisburg","Street":"2300 N. Cameron St.","Zip":"17110","Longitude":"-76.88182476562194","Latitude":"40.28639213218813","Dates":null,"Products":""},{"Type":"farmers market","ModifyDate":"Mar 27th, 2023","Image":"default-farmersmarket-4-3.jpg","ListingID":"312616","Name":"Peters Township Farmers' Market","Description":null,"ContactName":null,"ContactEmail":null,"ContactPhone":"724-941-4060","Website":"http:\/\/www.peterstownshipfarmersmarket.org\/","Facebook":"https:\/\/www.facebook.com\/peterstownshipfarmersmarket","Twitter":null,"Instagram":null,"Pinterest":null,"Youtube":null,"Blog":null,"Address":"905 E. McMurray Rd., St. David's Episcopal Church, Venetia, PA, 15367","State":"Pennsylvania","City":"Venetia","Street":"905 E. McMurray Rd.","Zip":"15367","Longitude":"-80.0738075934778","Latitude":"40.29579471047487","Dates":null,"Products":""},{"Type":"farmers market","ModifyDate":"Mar 27th, 2023","Image":"default-farmersmarket-4-3.jpg","ListingID":"312617","Name":"Phoenixville Farmers' Market","Description":null,"ContactName":null,"ContactEmail":"info@phoenixvillefarmersmarket.org","ContactPhone":"484-928-0614","Website":"http:\/\/www.phoenixvillefarmersmarket.org\/","Facebook":"https:\/\/www.facebook.com\/pages\/Phoenixville-Farmers-Market\/212007240376","Twitter":null,"Instagram":null,"Pinterest":null,"Youtube":null,"Blog":null,"Address":"200 Mill St., Phoenixville, PA, 19460","State":"Pennsylvania","City":"Phoenixville","Street":"200 Mill St.","Zip":"19460","Longitude":"-75.51808115412848","Latitude":"40.134655304302605","Dates":null,"Products":""},{"Type":"farmers market","ModifyDate":"Mar 27th, 2023","Image":"default-farmersmarket-4-3.jpg","ListingID":"312618","Name":"Plaza Growers' Market in Allentown","Description":null,"ContactName":null,"ContactEmail":null,"ContactPhone":"610-435-8890","Website":"http:\/\/plazagrowersmarket.com","Facebook":null,"Twitter":null,"Instagram":null,"Pinterest":null,"Youtube":null,"Blog":null,"Address":"821 Hamilton St Allentown, PA 18101","State":"Pennsylvania","City":"ALLENTOWN","Street":"821 HAMILTON MALL","Zip":"18101","Longitude":"-75.4744368916671","Latitude":"40.60147826482366","Dates":null,"Products":""},{"Type":"farmers market","ModifyDate":"Mar 27th, 2023","Image":"default-farmersmarket-4-3.jpg","ListingID":"312619","Name":"Poorman's Island Market","Description":null,"ContactName":null,"ContactEmail":null,"ContactPhone":"570-786-9697","Website":"https:\/\/www.poormansislandmarket.com\/","Facebook":null,"Twitter":null,"Instagram":null,"Pinterest":null,"Youtube":null,"Blog":null,"Address":"1468 Woodward Avenue Lock Haven, PA 17745","State":"Pennsylvania","City":"Lock Haven","Street":"1468 Woodward Avenue","Zip":"17745","Longitude":"-77.38399711665166","Latitude":"41.15755925573316","Dates":null,"Products":""},{"Type":"farmers market","ModifyDate":"Mar 27th, 2023","Image":"default-farmersmarket-4-3.jpg","ListingID":"312620","Name":"Pottstown Farmers' Market","Description":null,"ContactName":null,"ContactEmail":"ben@pottstownfarmersmarket.com","ContactPhone":"610-326-0900","Website":"http:\/\/www.pottstownfarmersmarket.com\/","Facebook":"https:\/\/www.facebook.com\/pages\/Pottstown-Farmers-Market\/122962387777577","Twitter":null,"Instagram":null,"Pinterest":null,"Youtube":null,"Blog":null,"Address":"300 E. High St., Pottstown, PA, 19464","State":"Pennsylvania","City":"Pottstown","Street":"300 E. High St.","Zip":"19464","Longitude":"-75.64747614134833","Latitude":"40.24529404529556","Dates":null,"Products":""},{"Type":"farmers market","ModifyDate":"Mar 27th, 2023","Image":"default-farmersmarket-4-3.jpg","ListingID":"312621","Name":"Quakertown Farmers' Market","Description":null,"ContactName":null,"ContactEmail":"mail@quakertownfarmersmkt.com","ContactPhone":"215-536-4115","Website":"http:\/\/www.quakertownfarmersmkt.com","Facebook":"http:\/\/www.facebook.com\/pages\/Quakertown-PA\/Quakertown-Farmers-Market\/158429183186","Twitter":null,"Instagram":null,"Pinterest":null,"Youtube":null,"Blog":null,"Address":"201 Station Road, Quakertown, PA, 18951","State":"Pennsylvania","City":"Quakertown","Street":"201 Station Road","Zip":"18951","Longitude":"-75.33125820206112","Latitude":"40.433459342133965","Dates":null,"Products":""},{"Type":"farmers market","ModifyDate":"Mar 27th, 2023","Image":"default-farmersmarket-4-3.jpg","ListingID":"312622","Name":"Renningers Farmers' Market","Description":null,"ContactName":null,"ContactEmail":"jim@renningers.com","ContactPhone":"610-683-6848","Website":"http:\/\/www.renningers.net\/index.php\/main-locations\/kutztown\/farmer-s-market","Facebook":"https:\/\/www.facebook.com\/RenningersKutztown","Twitter":null,"Instagram":null,"Pinterest":null,"Youtube":null,"Blog":null,"Address":"740 Noble St., Kutztown, PA, 19530","State":"Pennsylvania","City":"Kutztown","Street":"740 Noble St.","Zip":"19530","Longitude":"-75.76790651104953","Latitude":"40.50311526184653","Dates":null,"Products":""},{"Type":"farmers market","ModifyDate":"Mar 27th, 2023","Image":"default-farmersmarket-4-3.jpg","ListingID":"312623","Name":"Root's Country Market & Auction","Description":null,"ContactName":null,"ContactEmail":"marketmaster@rootsmarket.com","ContactPhone":"717-898-7811","Website":"http:\/\/www.rootsmarket.com","Facebook":"https:\/\/www.facebook.com\/RootsMarket","Twitter":null,"Instagram":null,"Pinterest":null,"Youtube":null,"Blog":null,"Address":"705 Graystone Rd., Manheim, PA, 17545","State":"Pennsylvania","City":"Manheim","Street":"705 Graystone Rd.","Zip":"17545","Longitude":"-76.37932924873328","Latitude":"40.119551199219664","Dates":null,"Products":""},{"Type":"farmers market","ModifyDate":"Mar 27th, 2023","Image":"default-farmersmarket-4-3.jpg","ListingID":"312624","Name":"Ross Farmers' Market","Description":null,"ContactName":null,"ContactEmail":null,"ContactPhone":null,"Website":"http:\/\/www.ross.pa.us\/things-you-can-do","Facebook":null,"Twitter":null,"Instagram":null,"Pinterest":null,"Youtube":null,"Blog":null,"Address":"920 Perry Hwy., St. John's Lutheran Church, Pittsburgh, PA, 15229","State":"Pennsylvania","City":"Pittsburgh","Street":"920 Perry Hwy.","Zip":"15229","Longitude":"-80.035900837223","Latitude":"40.533627793798026","Dates":null,"Products":""},{"Type":"farmers market","ModifyDate":"Mar 27th, 2023","Image":"default-farmersmarket-4-3.jpg","ListingID":"312625","Name":"Saturday Market at Paradise","Description":null,"ContactName":null,"ContactEmail":"paradisemarketpa@hotmail.com","ContactPhone":"717-687-7200","Website":"http:\/\/www.paradisemarketpa.com\/","Facebook":"https:\/\/www.facebook.com\/SaturdayFarmersMarketAtParadise","Twitter":null,"Instagram":null,"Pinterest":null,"Youtube":null,"Blog":null,"Address":"3293 Lincoln Hwy. E., Paradise, PA, 17562","State":"Pennsylvania","City":"Paradise","Street":"3293 Lincoln Hwy. E.","Zip":"17562","Longitude":"-76.10706305815609","Latitude":"40.00526149152388","Dates":null,"Products":""},{"Type":"farmers market","ModifyDate":"Mar 27th, 2023","Image":"default-farmersmarket-4-3.jpg","ListingID":"312626","Name":"Saturday's Market","Description":null,"ContactName":null,"ContactEmail":null,"ContactPhone":null,"Website":null,"Facebook":null,"Twitter":null,"Instagram":null,"Pinterest":null,"Youtube":null,"Blog":null,"Address":"3751 East Harrisburg Pike 3751 East Harrisburg Pike Middletown, PA 17057","State":"Pennsylvania","City":"MIDDLETOWN","Street":"3751 E HARRISBURG PIKE","Zip":"17057","Longitude":"-76.67268020363322","Latitude":"40.182650594015435","Dates":null,"Products":""},{"Type":"farmers market","ModifyDate":"Mar 27th, 2023","Image":"default-farmersmarket-4-3.jpg","ListingID":"312627","Name":"Shillington Farmers Market","Description":null,"ContactName":null,"ContactEmail":null,"ContactPhone":"610-777-7675","Website":null,"Facebook":null,"Twitter":null,"Instagram":null,"Pinterest":null,"Youtube":null,"Blog":null,"Address":"10 S. Summit ave Shillington, PA 19607","State":"Pennsylvania","City":"SHILLINGTON","Street":"10 SUMMIT AVE","Zip":"19607","Longitude":"-75.9546407829122","Latitude":"40.30972217516791","Dates":null,"Products":""},{"Type":"farmers market","ModifyDate":"Mar 27th, 2023","Image":"default-farmersmarket-4-3.jpg","ListingID":"312628","Name":"Sideling Hill Service Plaza Farmers' Market","Description":null,"ContactName":null,"ContactEmail":"samasnyder@pa.gov","ContactPhone":"717-772-1429","Website":null,"Facebook":null,"Twitter":null,"Instagram":null,"Pinterest":null,"Youtube":null,"Blog":null,"Address":"3744 North Hess Rd, Waterfall, PA, 16689","State":"Pennsylvania","City":"Waterfall","Street":"3744 North Hess Rd","Zip":"16689","Longitude":"-78.0901247962939","Latitude":"40.06053686888958","Dates":null,"Products":""},{"Type":"farmers market","ModifyDate":"Mar 27th, 2023","Image":"default-farmersmarket-4-3.jpg","ListingID":"312629","Name":"Simeral Square Farmers Market","Description":null,"ContactName":null,"ContactEmail":null,"ContactPhone":"724-872-0100","Website":"http:\/\/www.dwni.org\/","Facebook":null,"Twitter":null,"Instagram":null,"Pinterest":null,"Youtube":null,"Blog":null,"Address":"101 N. Water St., Simeral Square, West Newton, PA, 15089","State":"Pennsylvania","City":"West Newton","Street":"101 N. Water St","Zip":"15089","Longitude":"-79.76709671072356","Latitude":"40.21172542617245","Dates":null,"Products":""},{"Type":"farmers market","ModifyDate":"Mar 27th, 2023","Image":"default-farmersmarket-4-3.jpg","ListingID":"312630","Name":"Slippery Rock Community Farmers' Market","Description":null,"ContactName":null,"ContactEmail":"SRCFarmersMarket@gmail.com","ContactPhone":"724-374-3276","Website":"http:\/\/www.rockfallsonline.com\/srcfm\/","Facebook":"https:\/\/www.facebook.com\/SRCFM","Twitter":null,"Instagram":null,"Pinterest":null,"Youtube":null,"Blog":null,"Address":"111 Stoughton Beach, Slippery Rock, PA, 16057","State":"Pennsylvania","City":"Slippery Rock","Street":"111 Stoughton Beach","Zip":"16057","Longitude":"-80.03132223072988","Latitude":"41.03794868860481","Dates":null,"Products":""},{"Type":"farmers market","ModifyDate":"Mar 27th, 2023","Image":"default-farmersmarket-4-3.jpg","ListingID":"312631","Name":"Somerset County Farmer's Market","Description":null,"ContactName":null,"ContactEmail":null,"ContactPhone":"814-445-7520","Website":null,"Facebook":null,"Twitter":null,"Instagram":null,"Pinterest":null,"Youtube":null,"Blog":null,"Address":"212 Hilltop Road Friedens, PA 15541","State":"Pennsylvania","City":"Friedens","Street":"212 Hilltop Road","Zip":"15541","Longitude":"-78.98526481776321","Latitude":"40.05258986949435","Dates":null,"Products":""},{"Type":"farmers market","ModifyDate":"Mar 27th, 2023","Image":"default-farmersmarket-4-3.jpg","ListingID":"312632","Name":"Somerset County Farmers' Market Inc.","Description":null,"ContactName":null,"ContactEmail":null,"ContactPhone":"814-279-5620","Website":"http:\/\/somersetcountyfarmersmarket.com","Facebook":"http:\/\/www.facebook.com\/pages\/Somerset-County-Farmers-Market\/139142146101195","Twitter":null,"Instagram":null,"Pinterest":null,"Youtube":null,"Blog":null,"Address":"800 Georgian Place Rear Lot Near Lake Road Somerset, PA 15501","State":"Pennsylvania","City":"SOMERSET","Street":"800 GEORGIAN PLACE DR","Zip":"15501","Longitude":"-79.07505916089164","Latitude":"40.02099677646903","Dates":null,"Products":""},{"Type":"farmers market","ModifyDate":"Mar 27th, 2023","Image":"default-farmersmarket-4-3.jpg","ListingID":"312633","Name":"South Side Farmers' Market","Description":null,"ContactName":null,"ContactEmail":null,"ContactPhone":"570-346-6203","Website":"http:\/\/facebook.com\/southsidefarmersmarket","Facebook":"http:\/\/www.facebook.com\/southsidefarmersmarket","Twitter":null,"Instagram":null,"Pinterest":null,"Youtube":null,"Blog":null,"Address":"509 Cedar Avenue Scranton, PA 18505 Visitors can park on the street or in the People Security Parking lot.","State":"Pennsylvania","City":"SCRANTON","Street":"509 CEDAR AVE","Zip":"18505","Longitude":"-75.66604680867482","Latitude":"41.40106503006951","Dates":null,"Products":""},{"Type":"farmers market","ModifyDate":"Mar 27th, 2023","Image":"default-farmersmarket-4-3.jpg","ListingID":"312634","Name":"Springs Farmers' Market","Description":null,"ContactName":null,"ContactEmail":"email jfb@qcol.net","ContactPhone":"240-310-2086","Website":"http:\/\/www.springspa.org\/farmers-market.php","Facebook":null,"Twitter":null,"Instagram":null,"Pinterest":null,"Youtube":null,"Blog":null,"Address":"1711 Springs Rd., Springs, PA, 15562","State":"Pennsylvania","City":"Springs","Street":"1711 Springs Rd.","Zip":"15562","Longitude":"-79.14766825620296","Latitude":"39.73423815582988","Dates":null,"Products":""},{"Type":"farmers market","ModifyDate":"Mar 27th, 2023","Image":"default-farmersmarket-4-3.jpg","ListingID":"312635","Name":"Strite's Orchard Farm Market and Bakery","Description":null,"ContactName":null,"ContactEmail":null,"ContactPhone":"717-564-3130","Website":"http:\/\/www.stritesorchard.com","Facebook":null,"Twitter":null,"Instagram":null,"Pinterest":null,"Youtube":null,"Blog":null,"Address":"1000 Strites Road Harrisburg, PA 17111","State":"Pennsylvania","City":"HARRISBURG","Street":"1000 STRITES RD","Zip":"17111","Longitude":"-76.76776559940572","Latitude":"40.24937097600803","Dates":null,"Products":""},{"Type":"farmers market","ModifyDate":"Mar 27th, 2023","Image":"default-farmersmarket-4-3.jpg","ListingID":"312636","Name":"Stroudsburg Old Time Farmers' Market","Description":null,"ContactName":null,"ContactEmail":null,"ContactPhone":"570-236-8456","Website":"http:\/\/www.stroudsburgoldtimefarmersmarket.com\/","Facebook":"https:\/\/www.facebook.com\/Stroudsburg-Old-Time-Farmers-Market-848679708545089","Twitter":null,"Instagram":null,"Pinterest":null,"Youtube":null,"Blog":null,"Address":"925 Ann St., Stroudsburg, PA, 18360","State":"Pennsylvania","City":"Stroudsburg","Street":"925 Ann St.","Zip":"18360","Longitude":"-75.19746072723578","Latitude":"40.98310153739176","Dates":null,"Products":""},{"Type":"farmers market","ModifyDate":"Mar 27th, 2023","Image":"default-farmersmarket-4-3.jpg","ListingID":"312637","Name":"Summer Marketplace at Mohegan Sun Arena","Description":null,"ContactName":null,"ContactEmail":null,"ContactPhone":"570-970-7600","Website":"http:\/\/www.mohegansunarenapa.com\/","Facebook":null,"Twitter":null,"Instagram":null,"Pinterest":null,"Youtube":null,"Blog":null,"Address":"255 Highland Park Blvd. Wilkes-Barre , PA 18702","State":"Pennsylvania","City":"WILKES BARRE","Street":"255 HIGHLAND RK BLVD","Zip":"18702","Longitude":"-75.86180216383457","Latitude":"41.23461504158092","Dates":null,"Products":""},{"Type":"farmers market","ModifyDate":"Mar 27th, 2023","Image":"default-farmersmarket-4-3.jpg","ListingID":"312638","Name":"Sunbury Market House","Description":null,"ContactName":null,"ContactEmail":"marketmanager@sunburymarkethouse.com","ContactPhone":"570-286-5801","Website":null,"Facebook":"https:\/\/www.facebook.com\/pages\/Sunbury-Market-House\/276459055787255","Twitter":null,"Instagram":null,"Pinterest":null,"Youtube":null,"Blog":null,"Address":"436 Market St., Sunbury, PA, 17801","State":"Pennsylvania","City":"Sunbury","Street":"436 Market St.","Zip":"17801","Longitude":"-76.79038578457552","Latitude":"40.86098194110476","Dates":null,"Products":""},{"Type":"farmers market","ModifyDate":"Mar 27th, 2023","Image":"default-farmersmarket-4-3.jpg","ListingID":"312639","Name":"Swissvale Farmers' Market","Description":null,"ContactName":null,"ContactEmail":"swissvalefarmersmarket@gmail.com","ContactPhone":null,"Website":null,"Facebook":"https:\/\/www.facebook.com\/SwissvaleFarmersMarket","Twitter":null,"Instagram":null,"Pinterest":null,"Youtube":null,"Blog":null,"Address":"7301 Schoyer Ave., lot behind Dickson School, Pittsburgh, PA, 15218","State":"Pennsylvania","City":"Pittsburgh","Street":"7301 Schoyer Ave","Zip":"15218","Longitude":"-79.8925530568834","Latitude":"40.42325530210068","Dates":null,"Products":""},{"Type":"farmers market","ModifyDate":"Mar 27th, 2023","Image":"default-farmersmarket-4-3.jpg","ListingID":"312640","Name":"The Farmers' Market at Elverson","Description":null,"ContactName":null,"ContactEmail":null,"ContactPhone":null,"Website":null,"Facebook":null,"Twitter":null,"Instagram":null,"Pinterest":null,"Youtube":null,"Blog":null,"Address":"83 West Main Street Elverson, PA 19520","State":"Pennsylvania","City":"ELVERSON","Street":"83 W MAIN ST","Zip":"19520","Longitude":"-75.8391079649285","Latitude":"40.15615653567423","Dates":null,"Products":""},{"Type":"farmers market","ModifyDate":"Mar 27th, 2023","Image":"default-farmersmarket-4-3.jpg","ListingID":"312641","Name":"The Markets at Shrewsbury","Description":null,"ContactName":null,"ContactEmail":"aherbst@marketsatshrewsbury.com","ContactPhone":"717-235-6611","Website":"http:\/\/www.marketsatshrewsbury.com\/","Facebook":"https:\/\/www.facebook.com\/MarketsAtShrewsbury","Twitter":null,"Instagram":null,"Pinterest":null,"Youtube":null,"Blog":null,"Address":"12025 Susquehanna Trl. S., Glen Rock, PA, 17327","State":"Pennsylvania","City":"Glen Rock","Street":"12025 Susquehanna Trl. S.","Zip":"17327","Longitude":"-76.68106582708984","Latitude":"39.805760786441965","Dates":null,"Products":""},{"Type":"farmers market","ModifyDate":"Mar 27th, 2023","Image":"default-farmersmarket-4-3.jpg","ListingID":"312642","Name":"The Minted Market, Grampian's Community Farmers'...","Description":null,"ContactName":null,"ContactEmail":"mintedmarket@yahoo.com","ContactPhone":"814-553-8170","Website":null,"Facebook":"https:\/\/www.facebook.com\/themintedmarket","Twitter":null,"Instagram":null,"Pinterest":null,"Youtube":null,"Blog":null,"Address":"258 Main St., Grampian, PA, 16838","State":"Pennsylvania","City":"Grampian","Street":"258 Main St.","Zip":"16838","Longitude":"-78.61212344275249","Latitude":"40.96521221367252","Dates":null,"Products":""},{"Type":"farmers market","ModifyDate":"Mar 27th, 2023","Image":"default-farmersmarket-4-3.jpg","ListingID":"312643","Name":"Thornton Farmers' Market","Description":null,"ContactName":null,"ContactEmail":null,"ContactPhone":null,"Website":null,"Facebook":"https:\/\/www.facebook.com\/thorntonfarmersmarket","Twitter":null,"Instagram":null,"Pinterest":null,"Youtube":null,"Blog":null,"Address":"330 Glen Mills Rd., Thornton, PA, 19373","State":"Pennsylvania","City":"Thornton","Street":"330 Glen Mills Rd.","Zip":"19373","Longitude":"-75.52602201933111","Latitude":"39.909906607486754","Dates":null,"Products":""},{"Type":"farmers market","ModifyDate":"Mar 27th, 2023","Image":"default-farmersmarket-4-3.jpg","ListingID":"312644","Name":"Trexlertown Farmers' Market","Description":null,"ContactName":null,"ContactEmail":null,"ContactPhone":null,"Website":"http:\/\/www.trexlertownfarmersmarket.com","Facebook":"http:\/\/www.facebook.com\/TrexlertownFarmersMarket","Twitter":null,"Instagram":null,"Pinterest":null,"Youtube":null,"Blog":null,"Address":"1151 Mosser Rd Brienigsville , PA 18031 Located at Valley Preferred Cycling Center (The Velodrome) Rt 222 turn onto Cetronia Rd. 2nd Right onto Mosser Rd. Follow .4 miles to Valley Preferred Cycling C","State":"Pennsylvania","City":"BREINIGSVILLE","Street":"1151 MOSSER RD","Zip":"18031","Longitude":"-75.61200393024923","Latitude":"40.54635778956321","Dates":null,"Products":""},{"Type":"farmers market","ModifyDate":"Mar 27th, 2023","Image":"default-farmersmarket-4-3.jpg","ListingID":"312645","Name":"Tuesday State College Farmers' Market","Description":null,"ContactName":null,"ContactEmail":null,"ContactPhone":"814-238-8037","Website":null,"Facebook":null,"Twitter":null,"Instagram":null,"Pinterest":null,"Youtube":null,"Blog":null,"Address":"108 Locust Ln., State College, PA, 16801","State":"Pennsylvania","City":"State College","Street":"108 Locust Ln.","Zip":"16801","Longitude":"-77.85811379688367","Latitude":"40.796226743521","Dates":null,"Products":""},{"Type":"farmers market","ModifyDate":"Mar 27th, 2023","Image":"default-farmersmarket-4-3.jpg","ListingID":"312646","Name":"Upper Merion Farmers Market","Description":null,"ContactName":null,"ContactEmail":null,"ContactPhone":"610-265-1071","Website":"http:\/\/www.uppermerionfarmersmarket.org","Facebook":null,"Twitter":null,"Instagram":null,"Pinterest":null,"Youtube":null,"Blog":null,"Address":"175 West Valley Forge Road King of Prussia, PA 19406","State":"Pennsylvania","City":"KING OF PRUSSIA","Street":"175 W VALLEY FORGE RD","Zip":"19406","Longitude":"-75.3727487924036","Latitude":"40.10263099736602","Dates":null,"Products":""},{"Type":"farmers market","ModifyDate":"Mar 27th, 2023","Image":"default-farmersmarket-4-3.jpg","ListingID":"312647","Name":"Vandergrift Farmers' Market","Description":null,"ContactName":null,"ContactEmail":"vandergriftfarmersmarket@hotmail.com","ContactPhone":null,"Website":"http:\/\/vandergriftfarmersmarket.weebly.com\/","Facebook":"https:\/\/www.facebook.com\/Vandergrift-Farmers-Market-361559240578803","Twitter":null,"Instagram":null,"Pinterest":null,"Youtube":null,"Blog":null,"Address":"147 Farragut Ave., Vandergrift, PA, 15690","State":"Pennsylvania","City":"Vandergrift","Street":"147 Farragut Ave.","Zip":"15690","Longitude":"-79.56296024170025","Latitude":"40.60358170158633","Dates":null,"Products":""},{"Type":"farmers market","ModifyDate":"Mar 27th, 2023","Image":"default-farmersmarket-4-3.jpg","ListingID":"312648","Name":"Village Craft Country Peddlers & Market","Description":null,"ContactName":null,"ContactEmail":null,"ContactPhone":"717-249-7515","Website":"http:\/\/villagecraft.webs.com","Facebook":null,"Twitter":null,"Instagram":null,"Pinterest":null,"Youtube":null,"Blog":null,"Address":"1446 Holly Pike Carlisle, PA 17015","State":"Pennsylvania","City":"CARLISLE","Street":"1446 HOLLY PIKE","Zip":"17015","Longitude":"-77.19366957424718","Latitude":"40.16848189883573","Dates":null,"Products":""},{"Type":"farmers market","ModifyDate":"Mar 27th, 2023","Image":"default-farmersmarket-4-3.jpg","ListingID":"312649","Name":"Waynesburg Farmers' Market","Description":null,"ContactName":null,"ContactEmail":"msm@waynesburgpa.org","ContactPhone":"724-627-8119","Website":"http:\/\/www.waynesburgpa.org\/Events\/farmers.html?from=FarmersMarketOnline","Facebook":null,"Twitter":null,"Instagram":null,"Pinterest":null,"Youtube":null,"Blog":null,"Address":"10 E. High St., Waynesburg, PA, 15370","State":"Pennsylvania","City":"Waynesburg","Street":"10 E. High St.","Zip":"15370","Longitude":"-80.18623975683437","Latitude":"39.89643468297976","Dates":null,"Products":""},{"Type":"farmers market","ModifyDate":"Mar 27th, 2023","Image":"default-farmersmarket-4-3.jpg","ListingID":"312650","Name":"West Erie Plaza Farmers Market","Description":null,"ContactName":null,"ContactEmail":null,"ContactPhone":null,"Website":null,"Facebook":null,"Twitter":null,"Instagram":null,"Pinterest":null,"Youtube":null,"Blog":null,"Address":"823 West 12th Street Erie, PA 16501","State":"Pennsylvania","City":"ERIE","Street":"823 W 12TH ST","Zip":"16501","Longitude":"-80.09862318467833","Latitude":"42.11706990449852","Dates":null,"Products":""},{"Type":"farmers market","ModifyDate":"Mar 27th, 2023","Image":"default-farmersmarket-4-3.jpg","ListingID":"312651","Name":"West Grove Farmers Market","Description":null,"ContactName":null,"ContactEmail":null,"ContactPhone":"610-932-5468","Website":null,"Facebook":null,"Twitter":null,"Instagram":null,"Pinterest":null,"Youtube":null,"Blog":null,"Address":"294 West Harmony Road West Grove, PA 19390","State":"Pennsylvania","City":"WEST GROVE","Street":"294 W HARMONY RD","Zip":"19390","Longitude":"-75.83179994297801","Latitude":"39.82438585467565","Dates":null,"Products":""},{"Type":"farmers market","ModifyDate":"Mar 27th, 2023","Image":"default-farmersmarket-4-3.jpg","ListingID":"312652","Name":"West Reading Farmers' Market","Description":null,"ContactName":null,"ContactEmail":"chefrrk@verizon.net","ContactPhone":null,"Website":"http:\/\/www.lovewestreading.org\/events\/west-reading-farmers-market.html","Facebook":"https:\/\/www.facebook.com\/WestReadingFarmersMarket","Twitter":null,"Instagram":null,"Pinterest":null,"Youtube":null,"Blog":null,"Address":"538 Penn Ave., West Reading, PA, 19611","State":"Pennsylvania","City":"West Reading","Street":"538 Penn Ave.","Zip":"19611","Longitude":"-75.94847767517824","Latitude":"40.335714307128015","Dates":null,"Products":""},{"Type":"farmers market","ModifyDate":"Mar 27th, 2023","Image":"default-farmersmarket-4-3.jpg","ListingID":"312653","Name":"West Shore Farmers' Market","Description":null,"ContactName":null,"ContactEmail":null,"ContactPhone":"717-737-9881","Website":"http:\/\/www.westshorefarmersmarket.com","Facebook":"https:\/\/www.facebook.com\/pages\/West-Shore-Farmers-Market\/344148348490","Twitter":null,"Instagram":null,"Pinterest":null,"Youtube":null,"Blog":null,"Address":"900 Market St., Lemoyne, PA, 17043","State":"Pennsylvania","City":"Lemoyne","Street":"900 Market St.","Zip":"17043","Longitude":"-76.9036233116204","Latitude":"40.24328211419498","Dates":null,"Products":""},{"Type":"farmers market","ModifyDate":"Mar 27th, 2023","Image":"default-farmersmarket-4-3.jpg","ListingID":"312654","Name":"Whitehall Farmers' Market","Description":null,"ContactName":null,"ContactEmail":null,"ContactPhone":null,"Website":"http:\/\/www.whitehallboro.org\/recreation\/recreation-calendars.html","Facebook":"https:\/\/www.facebook.com\/Whitehall-Borough-Recreation-127445887289112","Twitter":null,"Instagram":null,"Pinterest":null,"Youtube":null,"Blog":null,"Address":"5301 Grove Rd., Caste Village Shopping Center, Pittsburgh, PA, 15236","State":"Pennsylvania","City":"Pittsburgh","Street":"5301 Grove Rd.","Zip":"15236","Longitude":"-80.00213837794048","Latitude":"40.35807908101515","Dates":null,"Products":""},{"Type":"farmers market","ModifyDate":"Mar 27th, 2023","Image":"default-farmersmarket-4-3.jpg","ListingID":"312655","Name":"Wilkinsburg Thursday Open Market","Description":null,"ContactName":null,"ContactEmail":"info@wilkinsburgchamber.com","ContactPhone":null,"Website":"http:\/\/wtom.wilkinsburgchamber.com\/","Facebook":"https:\/\/www.facebook.com\/WilkinsburgThursdayOpenMarket","Twitter":null,"Instagram":null,"Pinterest":null,"Youtube":null,"Blog":null,"Address":"733 Ross Ave., South Avenue Methodist Church parking lot, Wilkinsburg, PA, 15221","State":"Pennsylvania","City":"Wilkinsburg","Street":"733 Ross Ave.","Zip":"15221","Longitude":"-79.88385944625999","Latitude":"40.442439472744184","Dates":null,"Products":""},{"Type":"farmers market","ModifyDate":"Mar 27th, 2023","Image":"default-farmersmarket-4-3.jpg","ListingID":"312656","Name":"Williamsport Growers' Market","Description":null,"ContactName":null,"ContactEmail":"jbwilliams@stepcorp.org","ContactPhone":"570-601-9546","Website":"http:\/\/williamsportgrowersmarket.com\/","Facebook":"https:\/\/www.facebook.com\/williamsportgrowersmarket","Twitter":null,"Instagram":null,"Pinterest":null,"Youtube":null,"Blog":null,"Address":"249 Little League Blvd., Williamsport, PA, 17701","State":"Pennsylvania","City":"Williamsport","Street":"249 Little League Blvd.","Zip":"17701","Longitude":"-77.00590142502229","Latitude":"41.243162371729845","Dates":null,"Products":""},{"Type":"farmers market","ModifyDate":"Mar 27th, 2023","Image":"default-farmersmarket-4-3.jpg","ListingID":"312657","Name":"Yoga Nature's Organic Farmers' Market","Description":null,"ContactName":null,"ContactEmail":"info@yoganaturelife.com","ContactPhone":"717-695-7101","Website":"http:\/\/www.yoganaturelife.com\/market","Facebook":"https:\/\/www.facebook.com\/yoganaturelife","Twitter":null,"Instagram":null,"Pinterest":null,"Youtube":null,"Blog":null,"Address":"4400 Linglestown Rd., Harrisburg, PA, 17112","State":"Pennsylvania","City":"Harrisburg","Street":"4400 Linglestown Rd.","Zip":"17112","Longitude":"-76.82005842199045","Latitude":"40.33655462653559","Dates":null,"Products":""},{"Type":"farmers market","ModifyDate":"May 14th, 2020","Image":"default-farmersmarket-4-3.jpg","ListingID":"301096","Name":"Indiana County Farmers Market","Description":null,"ContactName":"Darlene Livingston","ContactEmail":"indianafarmmarket@gmail.com","ContactPhone":"7242869671","Website":"https:\/\/indianafarmmarket.blogspot.com\/","Facebook":"https:\/\/www.facebook.com\/indianafarmmarket\/","Twitter":null,"Instagram":null,"Pinterest":null,"Youtube":null,"Blog":null,"Address":"8th & Church St., Indiana, Pennsylvania 15701","State":"Pennsylvania","City":"Indiana","Street":"8th & Church St.","Zip":"15701","Longitude":"-79.155021","Latitude":"40.621852","Dates":"June to October","Products":"Fresh fruits, Fresh vegetables, Baked goods, Canned or preserved fruits\/vegetables, Cut flowers, Eggs, Fresh\/dried herbs, Grains\/flour, Honey, Maple products, Poultry\/fowl meat and products, Red\/other non-poultry meat and products, Soap\/body care products"},{"Type":"farmers market","ModifyDate":"May 15th, 2020","Image":"default-farmersmarket-4-3.jpg","ListingID":"301099","Name":"Wednesday, Indiana County Farmers' Market","Description":null,"ContactName":"Darlene Livingston","ContactEmail":"indianafarmmarket@gmail.com","ContactPhone":"7242869671","Website":"https:\/\/indianafarmmarket.blogspot.com\/","Facebook":"https:\/\/www.facebook.com\/indianafarmmarket\/","Twitter":null,"Instagram":null,"Pinterest":null,"Youtube":null,"Blog":null,"Address":"Wayne Avenue & Hospital Rd, Indiana, Pennsylvania 15701","State":"Pennsylvania","City":"Indiana","Street":"Wayne Avenue & Hospital Rd","Zip":"15701","Longitude":"-79.159344","Latitude":"40.610507","Dates":"June to October","Products":"Fresh fruits, Fresh vegetables, Baked goods, Canned or preserved fruits\/vegetables, Eggs, Honey, Maple products, Poultry\/fowl meat and products, Soap\/body care products"},{"Type":"farmers market","ModifyDate":"May 20th, 2020","Image":"default-farmersmarket-4-3.jpg","ListingID":"301102","Name":"Slippery Rock Farmers Market","Description":null,"ContactName":"Becky Lubold","ContactEmail":"srcfarmersmarket@gmail.com","ContactPhone":"814-330-2550","Website":"https:\/\/www.srfarmers.market\/","Facebook":"https:\/\/www.facebook.com\/SRCFM\/","Twitter":null,"Instagram":null,"Pinterest":null,"Youtube":null,"Blog":null,"Address":"Gateway Park, 100 Midway Street, Slippery Rock, Pennsylvania 16057","State":"Pennsylvania","City":"Slippery Rock","Street":"Gateway Park, 100 Midway Street","Zip":"16057","Longitude":"-80.050842","Latitude":"41.062533","Dates":"June to October","Products":"Fresh fruits, Fresh vegetables, Baked goods, Bedding plants, Canned or preserved fruits\/vegetables, Coffee\/tea, Crafts\/woodworking items, Cut flowers, Eggs, Fresh\/dried herbs, Honey, Juices\/non-alcoholic ciders, Mushrooms, Pet food, Poultry\/fowl meat and products, Prepared foods, Red\/other non-poultry meat and products, Soap\/body care products, Wild harvested forest products, Wine, spirits, beer, hard cider"},{"Type":"farmers market","ModifyDate":"Nov 19th, 2020","Image":"default-farmersmarket-4-3.jpg","ListingID":"301355","Name":"KSQ Farmers Market","Description":null,"ContactName":"Ros Fenton","ContactEmail":"ksqfarmersmarket@gmail.com","ContactPhone":"610-444-8188","Website":"ksqfarmersmarket.com","Facebook":"facebook.com\/ksqfarmersmarket","Twitter":null,"Instagram":null,"Pinterest":null,"Youtube":null,"Blog":null,"Address":"401 Birch St, Kennett Square, Pennsylvania 19348","State":"Pennsylvania","City":"Kennett Square","Street":"401 Birch St","Zip":"19348","Longitude":"-75.705331","Latitude":"39.842787","Dates":"November to December","Products":"Fresh vegetables, Baked goods, Canned or preserved fruits\/vegetables, Coffee\/tea, Dairy products., Eggs, Grains\/flour, Honey, Maple products, Mushrooms, Poultry\/fowl meat and products, Prepared foods, Red\/other non-poultry meat and products, Soap\/body care products, Wine, spirits, beer, hard cider"},{"Type":"on-farm market","ModifyDate":"Apr 10th, 2022","Image":"onfarmmarket_701412_10201_20220410225050.png","ListingID":"701412","Name":"Old Time Farm","Description":"Grass-fed beef and pastured poultry from endangered heritage breed cattle, chickens & turkeys.\nFarm is closed to visitors.\nOrder online and pick up at the Bloomfield Farmers Market in Pittsburgh or choose home delivery.\nSmall scale birth-to-harvest operation.","ContactName":"Shelly Oswald","ContactEmail":"OldTimeFlavor@gmail.com","ContactPhone":"724-316-0148","Website":"www.OldTime.Farm","Facebook":"https:\/\/www.facebook.com\/Shelly.OldTimeFarm\/","Twitter":"","Instagram":"","Pinterest":"","Youtube":"","Blog":"","Address":"1919 Harrisville Rd, Stoneboro, Pennsylvania 16153","State":"Pennsylvania","City":"Stoneboro","Street":"1919 Harrisville Rd","Zip":"16153","Longitude":"-80.046348","Latitude":"41.289557","Dates":null,"Products":""},{"Type":"on-farm market","ModifyDate":"Apr 6th, 2015","Image":"default-onfarmmarket-4-3.jpg","ListingID":"700900","Name":"Bialecki Farms","Description":null,"ContactName":"Stanley Biaecki","ContactEmail":"Stanb888@gmail.com","ContactPhone":"570 727 2775","Website":null,"Facebook":"https:\/\/www.facebook.com\/homesteadinghobnobbery","Twitter":null,"Instagram":null,"Pinterest":null,"Youtube":null,"Blog":null,"Address":"3299 Wrighter Lake Rd, Thompson, Pennsylvania 18465","State":"Pennsylvania","City":"Thompson","Street":"3299 Wrighter Lake Rd","Zip":"18465","Longitude":"-75.428190","Latitude":"41.851223","Dates":null,"Products":""},{"Type":"on-farm market","ModifyDate":"Aug 10th, 2014","Image":"default-onfarmmarket-4-3.jpg","ListingID":"700367","Name":"Foxtail Farmstead LLC","Description":null,"ContactName":"Greg & Teri Eberhart","ContactEmail":"eberhart@foxtailfarmstead.com","ContactPhone":"814-624-2410","Website":"www.foxtailfarmstead.com","Facebook":null,"Twitter":null,"Instagram":null,"Pinterest":null,"Youtube":null,"Blog":null,"Address":"1927 Cumberland Road, Bedford, Pennsylvania 15522","State":"Pennsylvania","City":"Bedford","Street":"1927 Cumberland Road","Zip":"15522","Longitude":"-78.550945","Latitude":"39.9776974","Dates":null,"Products":""},{"Type":"on-farm market","ModifyDate":"Aug 13th, 2014","Image":"default-onfarmmarket-4-3.jpg","ListingID":"700036","Name":"Simmons Farm","Description":null,"ContactName":"Scot Simmons","ContactEmail":"market@simmonsfarm.com","ContactPhone":"724-941-1490","Website":null,"Facebook":"https:\/\/www.facebook.com\/SimmonsFarm","Twitter":null,"Instagram":null,"Pinterest":null,"Youtube":null,"Blog":null,"Address":"170 Simmons Road, McMurray, Pennsylvania 15317","State":"Pennsylvania","City":"McMurray","Street":"170 Simmons Road","Zip":"15317","Longitude":"-80.083087","Latitude":"40.2682","Dates":null,"Products":""},{"Type":"on-farm market","ModifyDate":"Aug 13th, 2014","Image":"default-onfarmmarket-4-3.jpg","ListingID":"700121","Name":"Jamboree Farm","Description":null,"ContactName":"Todd Fasnacht","ContactEmail":"jamboreefarm@gmail.com","ContactPhone":"724-995-8490","Website":"http:\/\/jamboreefarm.blogspot.com\/","Facebook":"https:\/\/www.facebook.com\/jamboreefarm","Twitter":"https:\/\/twitter.com\/JamboreeFarm","Instagram":null,"Pinterest":null,"Youtube":null,"Blog":"http:\/\/jamboreefarm.blogspot.com\/","Address":"270 Wilpen Rd, Ligonier, Pennsylvania 15658","State":"Pennsylvania","City":"Ligonier","Street":"270 Wilpen Rd","Zip":"15658","Longitude":"-79.203738","Latitude":"40.275947","Dates":null,"Products":""},{"Type":"on-farm market","ModifyDate":"Aug 13th, 2014","Image":"default-onfarmmarket-4-3.jpg","ListingID":"700269","Name":"McConnell's Christmas Tree Farm","Description":null,"ContactName":"Richard McConnell","ContactEmail":"mcconnellsnursery@yahoo.com","ContactPhone":"7247302569","Website":"www.mcconnellsnursery.com","Facebook":"https:\/\/www.facebook.com\/pages\/McConnells-Christmas-Tree-Farm\/136507896405104?ref=br_tf","Twitter":null,"Instagram":null,"Pinterest":null,"Youtube":null,"Blog":null,"Address":"836 Cleland Mill Road, New Castle, Pennsylvania 16102","State":"Pennsylvania","City":"New Castle","Street":"836 Cleland Mill Road","Zip":"16102","Longitude":"-80.407753","Latitude":"40.956053","Dates":null,"Products":""},{"Type":"on-farm market","ModifyDate":"Aug 14th, 2014","Image":"default-onfarmmarket-4-3.jpg","ListingID":"700839","Name":"Blue Moon Acres: Certified Organic Farm and Market","Description":null,"ContactName":"Natalie Rockwell","ContactEmail":"nrockwell@bluemoonacres.net","ContactPhone":"215-794-3093","Website":"http:\/\/bluemoonacres.com\/contact-us\/","Facebook":"https:\/\/www.facebook.com\/BlueMoonAcresFarm","Twitter":"https:\/\/twitter.com\/bmacres","Instagram":null,"Pinterest":null,"Youtube":null,"Blog":"http:\/\/bluemoonacres.com\/category\/news\/","Address":"2287 Durham Road, Buckingham, Pennsylvania 18912","State":"Pennsylvania","City":"Buckingham","Street":"2287 Durham Road","Zip":"18912","Longitude":"-75.052641","Latitude":"40.318708","Dates":null,"Products":""},{"Type":"on-farm market","ModifyDate":"Aug 15th, 2018","Image":"default-onfarmmarket-4-3.jpg","ListingID":"701459","Name":"Hardler Farms","Description":null,"ContactName":"Mike ,Tami","ContactEmail":"hardlerfarm@yahoo.com","ContactPhone":"570-251-7937","Website":null,"Facebook":"Hardlerfarms@facebook","Twitter":null,"Instagram":null,"Pinterest":null,"Youtube":null,"Blog":null,"Address":"11 Hardler Farm Rd, Honesdale, Pennsylvania 18431","State":"Pennsylvania","City":"Honesdale","Street":"11 Hardler Farm Rd","Zip":"18431","Longitude":"-75.259646","Latitude":"41.697583","Dates":null,"Products":""},{"Type":"on-farm market","ModifyDate":"Aug 20th, 2020","Image":"default-onfarmmarket-4-3.jpg","ListingID":"701552","Name":"Cherish Creamery LLC","Description":null,"ContactName":"Paula Keswick","ContactEmail":"paulakeswick@yahoo.com","ContactPhone":"574-298-2022","Website":"cherishcreamery.com","Facebook":"cherish creamery","Twitter":null,"Instagram":null,"Pinterest":null,"Youtube":null,"Blog":null,"Address":", 2771 Paradise Rd, Pennsylvania 15841","State":"Pennsylvania","City":"2771 Paradise Rd","Street":null,"Zip":"15841","Longitude":"-78.831249","Latitude":"41.059349","Dates":null,"Products":""},{"Type":"on-farm market","ModifyDate":"Aug 22nd, 2014","Image":"default-onfarmmarket-4-3.jpg","ListingID":"700881","Name":"Lowden Farm LLC","Description":null,"ContactName":"David Lowden","ContactEmail":"lowden_d@hotmail.com","ContactPhone":"724-239-5233","Website":null,"Facebook":null,"Twitter":null,"Instagram":null,"Pinterest":null,"Youtube":null,"Blog":null,"Address":"136 California Drive, Coal Center, Pennsylvania 15423","State":"Pennsylvania","City":"Coal Center","Street":"136 California Drive","Zip":"15423","Longitude":"-79.980474","Latitude":"40.1059950","Dates":null,"Products":""},{"Type":"on-farm market","ModifyDate":"Aug 23rd, 2021","Image":"default-onfarmmarket-4-3.jpg","ListingID":"701610","Name":"Kepner's Produce","Description":null,"ContactName":"Nathan Kepner","ContactEmail":"kepper34@yahoo.com","ContactPhone":"7243763652","Website":null,"Facebook":"https:\/\/www.facebook.com\/KepnersProduce","Twitter":null,"Instagram":null,"Pinterest":null,"Youtube":null,"Blog":null,"Address":"3755 Sandy Lake Rd, Sandy Lake, Pennsylvania 16145","State":"Pennsylvania","City":"Sandy Lake","Street":"3755 Sandy Lake Rd","Zip":"16145","Longitude":"-80.071675","Latitude":"41.377985","Dates":null,"Products":""},{"Type":"on-farm market","ModifyDate":"Aug 25th, 2014","Image":"default-onfarmmarket-4-3.jpg","ListingID":"700923","Name":"Greener Acres Farm","Description":null,"ContactName":"Cathie Dibert","ContactEmail":"greeneracresfarm@atlanticbb.net","ContactPhone":"greeneracresfarm@atl","Website":null,"Facebook":"https:\/\/www.facebook.com\/greeneracresfarm","Twitter":null,"Instagram":null,"Pinterest":null,"Youtube":null,"Blog":null,"Address":"747 Buttermilk Hollow Rd, Claysburg, Pennsylvania 16625","State":"Pennsylvania","City":"Claysburg","Street":"747 Buttermilk Hollow Rd","Zip":"16625","Longitude":"-78.488254","Latitude":"40.303651","Dates":null,"Products":""},{"Type":"on-farm market","ModifyDate":"Aug 25th, 2014","Image":"default-onfarmmarket-4-3.jpg","ListingID":"700936","Name":"Meadow Mountain Farm","Description":null,"ContactName":"Neal McNutt","ContactEmail":"neal@meadowmountainfarm.com","ContactPhone":"610.693.5604","Website":"www.meadowmountainfarm.com","Facebook":"https:\/\/www.facebook.com\/pages\/Meadow-Mountain-Farm\/158613630836462?v=wall","Twitter":null,"Instagram":null,"Pinterest":null,"Youtube":null,"Blog":null,"Address":"691 Furnace St., Robesonia, Pennsylvania 19551","State":"Pennsylvania","City":"Robesonia","Street":"691 Furnace St.","Zip":"19551","Longitude":"-76.157888","Latitude":"40.333923","Dates":null,"Products":""},{"Type":"on-farm market","ModifyDate":"Aug 28th, 2014","Image":"default-onfarmmarket-4-3.jpg","ListingID":"700978","Name":"Hilliards Fruit Farm","Description":null,"ContactName":"Bruce Hilliard","ContactEmail":"brucehilliard@rocketmail.com","ContactPhone":"5702330507","Website":null,"Facebook":null,"Twitter":null,"Instagram":null,"Pinterest":null,"Youtube":null,"Blog":null,"Address":"217 Rock Glen Rd., Sugarloaf, Pennsylvania 18249","State":"Pennsylvania","City":"Sugarloaf","Street":"217 Rock Glen Rd.","Zip":"18249","Longitude":"-76.084909","Latitude":"40.986051","Dates":null,"Products":""},{"Type":"on-farm market","ModifyDate":"Aug 29th, 2014","Image":"default-onfarmmarket-4-3.jpg","ListingID":"700984","Name":"Hartman's Oz Farm","Description":null,"ContactName":"Julia Delpino","ContactEmail":"delpinoj@yahoo.com","ContactPhone":"717-344-6277","Website":null,"Facebook":null,"Twitter":null,"Instagram":null,"Pinterest":null,"Youtube":null,"Blog":null,"Address":"962 Martin Road, Needmore, Pennsylvania 17238","State":"Pennsylvania","City":"Needmore","Street":"962 Martin Road","Zip":"17238","Longitude":"-78.127732","Latitude":"39.843541","Dates":null,"Products":""},{"Type":"on-farm market","ModifyDate":"Aug 29th, 2014","Image":"default-onfarmmarket-4-3.jpg","ListingID":"700985","Name":"Solebury Orchards","Description":null,"ContactName":"Brian Smith","ContactEmail":"mail@soleburyorchards.com","ContactPhone":"215-297-8079","Website":"soleburyorchards.com","Facebook":"www.facebook.com\/soleburyorchards","Twitter":"twitter.com\/SoleburyOrch","Instagram":null,"Pinterest":null,"Youtube":null,"Blog":null,"Address":"3325 Creamery Road, New Hope, Pennsylvania 18938","State":"Pennsylvania","City":"New Hope","Street":"3325 Creamery Road","Zip":"18938","Longitude":"-75.025891","Latitude":"40.3846846","Dates":null,"Products":""},{"Type":"on-farm market","ModifyDate":"Aug 31st, 2014","Image":"default-onfarmmarket-4-3.jpg","ListingID":"700999","Name":"Foxy Farms","Description":null,"ContactName":"Anna Wagner","ContactEmail":"ranger_jer@hotmail.com","ContactPhone":"570-934-1191","Website":"http:\/\/www.localharvest.org\/foxy-farms-M38482","Facebook":null,"Twitter":null,"Instagram":null,"Pinterest":null,"Youtube":null,"Blog":null,"Address":"3147 Griffis Hill Road, Montrose, Pennsylvania 18801","State":"Pennsylvania","City":"Montrose","Street":"3147 Griffis Hill Road","Zip":"18801","Longitude":"-75.995723","Latitude":"41.841607","Dates":null,"Products":""},{"Type":"on-farm market","ModifyDate":"Aug 6th, 2014","Image":"default-onfarmmarket-4-3.jpg","ListingID":"700619","Name":"Normans Orchard","Description":null,"ContactName":"jeffrey norman","ContactEmail":"normansorchard@gmail.com","ContactPhone":"724-224-9491","Website":"www.normansorchard.com","Facebook":null,"Twitter":null,"Instagram":null,"Pinterest":null,"Youtube":null,"Blog":null,"Address":"2318 Butler Logan Road Frazer Township, Tarentum, Pennsylvania 15084","State":"Pennsylvania","City":"Tarentum","Street":"2318 Butler Logan Road Frazer Township","Zip":"15084","Longitude":"-79.803454","Latitude":"40.587205","Dates":null,"Products":""},{"Type":"on-farm market","ModifyDate":"Aug 6th, 2014","Image":"default-onfarmmarket-4-3.jpg","ListingID":"700813","Name":"Rohrbach's Farm Market","Description":null,"ContactName":"Denise Bosworth","ContactEmail":"rohrbachs.farm.market@gmail.com","ContactPhone":"570-356-7654","Website":"rohrbachsfarm.net","Facebook":"https:\/\/www.facebook.com\/pages\/Rohrbachs-Farm-Market-Bakery-and-Gift-Shop\/63601237131?ref=hl&ref_type=bookmark","Twitter":null,"Instagram":null,"Pinterest":null,"Youtube":null,"Blog":null,"Address":"240 Southern Drive, Catawissa, Pennsylvania 17820","State":"Pennsylvania","City":"Catawissa","Street":"240 Southern Drive","Zip":"17820","Longitude":"-76.459363","Latitude":"40.9299950","Dates":null,"Products":""},{"Type":"on-farm market","ModifyDate":"Aug 7th, 2014","Image":"default-onfarmmarket-4-3.jpg","ListingID":"700819","Name":"Path of Light Farm","Description":null,"ContactName":"Jay Kuzminsky","ContactEmail":"pathoflight@comcast.net","ContactPhone":"240-401-6787","Website":null,"Facebook":"https:\/\/www.facebook.com\/pages\/Path-of-Light-Farm\/","Twitter":null,"Instagram":null,"Pinterest":null,"Youtube":null,"Blog":null,"Address":"225 Laidig Road, Harrisonville, Pennsylvania 17228","State":"Pennsylvania","City":"Harrisonville","Street":"225 Laidig Road","Zip":"17228","Longitude":"-78.094771","Latitude":"40.037076","Dates":null,"Products":""},{"Type":"on-farm market","ModifyDate":"Dec 10th, 2020","Image":"default-onfarmmarket-4-3.jpg","ListingID":"701570","Name":"Chapel Ford Farm","Description":null,"ContactName":"Alexander Bates","ContactEmail":"chapelfordalex@gmail.com","ContactPhone":"7039695595","Website":null,"Facebook":"https:\/\/www.facebook.com\/chapelfordfarms","Twitter":null,"Instagram":null,"Pinterest":null,"Youtube":null,"Blog":null,"Address":"2345 Taneytown Road, Gettysburg, Pennsylvania 17325","State":"Pennsylvania","City":"Gettysburg","Street":"2345 Taneytown Road","Zip":"17325","Longitude":"-77.230185","Latitude":"39.754261","Dates":null,"Products":""},{"Type":"on-farm market","ModifyDate":"Dec 29th, 2014","Image":"default-onfarmmarket-4-3.jpg","ListingID":"701184","Name":"Gilbert Hill Farm","Description":null,"ContactName":"Peggy Gilbert","ContactEmail":"egglady814@verizon.net","ContactPhone":"814-375-0864","Website":null,"Facebook":null,"Twitter":null,"Instagram":null,"Pinterest":null,"Youtube":null,"Blog":null,"Address":"1395 Clear Run Road, DuBois, Pennsylvania 15801","State":"Pennsylvania","City":"DuBois","Street":"1395 Clear Run Road","Zip":"15801","Longitude":"-78.742389","Latitude":"41.1530840","Dates":null,"Products":""},{"Type":"on-farm market","ModifyDate":"Feb 14th, 2021","Image":"default-onfarmmarket-4-3.jpg","ListingID":"701583","Name":"Redrange Farm","Description":null,"ContactName":"Rogers Clawson","ContactEmail":"redrangefarm@yahoo.com","ContactPhone":"724-912-1533","Website":"https:\/\/www.redrangefarm.com\/","Facebook":"https:\/\/www.facebook.com\/redrangefarm","Twitter":null,"Instagram":null,"Pinterest":null,"Youtube":null,"Blog":null,"Address":"604 Footedale Rd, New Salem , Pennsylvania 15468","State":"Pennsylvania","City":"New Salem","Street":"604 Footedale Rd","Zip":"15468","Longitude":"-79.836409","Latitude":"39.916362","Dates":null,"Products":""},{"Type":"on-farm market","ModifyDate":"Feb 4th, 2015","Image":"default-onfarmmarket-4-3.jpg","ListingID":"701176","Name":"TLM Hillside Farm","Description":null,"ContactName":"Tony Shetter","ContactEmail":"TLMHillsideFarm@yahoo.com","ContactPhone":"469-554-8873","Website":"http:\/\/www.tlmhillsidefarm.com\/","Facebook":null,"Twitter":"https:\/\/twitter.com\/TLMHillsideFarm","Instagram":null,"Pinterest":null,"Youtube":null,"Blog":null,"Address":"14066 Wayne Hwy, Waynesboro, Pennsylvania 17268","State":"Pennsylvania","City":"Waynesboro","Street":"14066 Wayne Hwy","Zip":"17268","Longitude":"-77.595770","Latitude":"39.739070","Dates":null,"Products":""},{"Type":"on-farm market","ModifyDate":"Jan 13th, 2017","Image":"default-onfarmmarket-4-3.jpg","ListingID":"701383","Name":"Phoenix Farms","Description":null,"ContactName":"Guin","ContactEmail":"thephoenixfarms@gmail.com","ContactPhone":"2152087325","Website":"www.phoenixfarms.us","Facebook":"http:\/\/facebook.com\/thephoenixfarm","Twitter":null,"Instagram":null,"Pinterest":null,"Youtube":null,"Blog":null,"Address":"150 Trenton Ave, Hulmeville borough, Pennsylvania 19047","State":"Pennsylvania","City":"Hulmeville borough","Street":"150 Trenton Ave","Zip":"19047","Longitude":"-74.906944","Latitude":"40.143277","Dates":null,"Products":""},{"Type":"on-farm market","ModifyDate":"Jan 26th, 2021","Image":"default-onfarmmarket-4-3.jpg","ListingID":"701577","Name":"Humming Hills Farm, LLC","Description":null,"ContactName":"Judy Henderson","ContactEmail":"judyh@humminghillsfarm.com","ContactPhone":"4845091339","Website":"https:\/\/humminghillsfarm.com","Facebook":"https:\/\/facebook.com\/humminghillsfarm.com","Twitter":null,"Instagram":null,"Pinterest":null,"Youtube":null,"Blog":null,"Address":"50 Lake Rd, Hamburg, Pennsylvania 19526","State":"Pennsylvania","City":"Hamburg","Street":"50 Lake Rd","Zip":"19526","Longitude":"-75.887804","Latitude":"40.498031","Dates":null,"Products":""},{"Type":"on-farm market","ModifyDate":"Jan 27th, 2022","Image":"default-onfarmmarket-4-3.jpg","ListingID":"701630","Name":"Nev & Nise Produce Greenhouse LLC","Description":null,"ContactName":"Denise Frey","ContactEmail":"nevandniseproduce@ptd.net","ContactPhone":"15707780596","Website":null,"Facebook":"Nev & Nise Produce Greenhouse LLC","Twitter":null,"Instagram":null,"Pinterest":null,"Youtube":null,"Blog":null,"Address":"445 stewart creek road, Lehighton, Pennsylvania 18235","State":"Pennsylvania","City":"Lehighton","Street":"445 stewart creek road","Zip":"18235","Longitude":"-75.776928","Latitude":"40.829530","Dates":null,"Products":""},{"Type":"on-farm market","ModifyDate":"Jan 28th, 2015","Image":"default-onfarmmarket-4-3.jpg","ListingID":"701200","Name":"Brenckle's Organic Farm & Greenhouse","Description":null,"ContactName":"Jennifer Brenckle","ContactEmail":"brencklec@yahoo.com","ContactPhone":"724-453-6773","Website":"http:\/\/www.brencklesfarm.com\/","Facebook":"https:\/\/www.facebook.com\/BrencklesOrganicFarm","Twitter":null,"Instagram":null,"Pinterest":null,"Youtube":null,"Blog":"http:\/\/www.brencklesfarm.com\/blog","Address":"768 Glen Eden Rd., Zelienople, Pennsylvania 16063","State":"Pennsylvania","City":"Zelienople","Street":"768 Glen Eden Rd.","Zip":"16063","Longitude":"-80.153536","Latitude":"40.7249880","Dates":null,"Products":""},{"Type":"on-farm market","ModifyDate":"Jan 30th, 2015","Image":"default-onfarmmarket-4-3.jpg","ListingID":"701201","Name":"Creekside Farm Market LLC","Description":null,"ContactName":"Josh Heller","ContactEmail":"josh@hellersmarket.com","ContactPhone":"717-940-5440","Website":"http:\/\/www.thecreeksidemarket.com","Facebook":"https:\/\/www.facebook.com\/CreeksideFarmMarket","Twitter":null,"Instagram":null,"Pinterest":null,"Youtube":null,"Blog":null,"Address":"1436 Mount Joy Rd., Manheim, Pennsylvania 17545","State":"Pennsylvania","City":"Manheim","Street":"1436 Mount Joy Rd.","Zip":"17545","Longitude":"-76.427558","Latitude":"40.138632","Dates":null,"Products":""},{"Type":"on-farm market","ModifyDate":"Jan 31st, 2015","Image":"default-onfarmmarket-4-3.jpg","ListingID":"701202","Name":"Valley Road Farm","Description":null,"ContactName":"Lou Anne Bachert","ContactEmail":"labachert@gmail.com","ContactPhone":"570-578-3047","Website":"Http:\/\/valleyroadfarm.com","Facebook":"Valley road farm tamaqua","Twitter":null,"Instagram":null,"Pinterest":null,"Youtube":null,"Blog":null,"Address":"880 Valley Rd , Tamaqua, Pennsylvania 18252","State":"Pennsylvania","City":"Tamaqua","Street":"880 Valley Rd","Zip":"18252","Longitude":"-76.013023","Latitude":"40.755474","Dates":null,"Products":""},{"Type":"on-farm market","ModifyDate":"Jul 10th, 2019","Image":"default-onfarmmarket-4-3.jpg","ListingID":"701487","Name":"Weatherbury Farm","Description":null,"ContactName":"Marcy Tudor","ContactEmail":"info@weatherburyfarm.com","ContactPhone":"724.587.3763","Website":"http:\/\/weatherburyfarm.com\/","Facebook":"https:\/\/www.facebook.com\/WeatherburyFarm\/","Twitter":null,"Instagram":null,"Pinterest":null,"Youtube":null,"Blog":null,"Address":"1061 Sugar Run Road, Avella, Pennsylvania 15312","State":"Pennsylvania","City":"Avella","Street":"1061 Sugar Run Road","Zip":"15312","Longitude":"-80.469051","Latitude":"40.253648","Dates":null,"Products":""},{"Type":"on-farm market","ModifyDate":"Jul 26th, 2014","Image":"default-onfarmmarket-4-3.jpg","ListingID":"700143","Name":"Enon Valley Garlic","Description":null,"ContactName":"Rosemary Stidmon","ContactEmail":"EnonValleyGarlic@gmail.com","ContactPhone":"724-336-0501","Website":"www.EnonValleyGarlic.com","Facebook":"https:\/\/www.facebook.com\/enonvallleygarlic","Twitter":null,"Instagram":null,"Pinterest":null,"Youtube":null,"Blog":null,"Address":"214 Little Beaver Rd, Enon Valley, Pennsylvania 16120","State":"Pennsylvania","City":"Enon Valley","Street":"214 Little Beaver Rd","Zip":"16120","Longitude":"-80.490268","Latitude":"40.844265","Dates":null,"Products":""},{"Type":"on-farm market","ModifyDate":"Jul 26th, 2014","Image":"default-onfarmmarket-4-3.jpg","ListingID":"700197","Name":"Windy Hill Farm","Description":null,"ContactName":"Sherry Trunzo","ContactEmail":"windyhillfarms@windstream.net","ContactPhone":"814-328-5346","Website":"www.windyhillfarmnaturals.com","Facebook":null,"Twitter":null,"Instagram":null,"Pinterest":null,"Youtube":null,"Blog":null,"Address":"10445 Route 28 North, Brockway, Pennsylvania 15824","State":"Pennsylvania","City":"Brockway","Street":"10445 Route 28 North","Zip":"15824","Longitude":"-78.902435","Latitude":"41.232380","Dates":null,"Products":""},{"Type":"on-farm market","ModifyDate":"Jul 27th, 2014","Image":"default-onfarmmarket-4-3.jpg","ListingID":"700029","Name":"Stryker Farm","Description":null,"ContactName":"Nolan Thevenet","ContactEmail":"info@strykerfarm.com","ContactPhone":"570-269-2995","Website":"www.strykerfarm.com","Facebook":"https:\/\/www.facebook.com\/strykerfarm","Twitter":"https:\/\/twitter.com\/strykerfarm","Instagram":null,"Pinterest":null,"Youtube":null,"Blog":null,"Address":"3045 Mountain Road, Saylorsburg, Pennsylvania 18353","State":"Pennsylvania","City":"Saylorsburg","Street":"3045 Mountain Road","Zip":"18353","Longitude":"-75.328785","Latitude":"40.8608203","Dates":null,"Products":""},{"Type":"on-farm market","ModifyDate":"Jul 27th, 2014","Image":"default-onfarmmarket-4-3.jpg","ListingID":"700422","Name":"Yellow Hill Farm","Description":null,"ContactName":"Craig Bishop","ContactEmail":"info@YellowHillBerries.com","ContactPhone":"(717) 677-8188","Website":"www.yellowhillfarm.com","Facebook":"www.facebook.com\/YellowHillFarmBerries","Twitter":null,"Instagram":null,"Pinterest":null,"Youtube":null,"Blog":null,"Address":"670 Yellow Hill Road, Biglerville, Pennsylvania 17307","State":"Pennsylvania","City":"Biglerville","Street":"670 Yellow Hill Road","Zip":"17307","Longitude":"-77.264554","Latitude":"39.939328","Dates":null,"Products":""},{"Type":"on-farm market","ModifyDate":"Jul 27th, 2014","Image":"default-onfarmmarket-4-3.jpg","ListingID":"700470","Name":"Tom Styer Farm  & Market","Description":null,"ContactName":"THOMAS STYER","ContactEmail":"Styerfarm@windstream.net","ContactPhone":"570-546-5861","Website":null,"Facebook":null,"Twitter":null,"Instagram":null,"Pinterest":null,"Youtube":null,"Blog":null,"Address":"215 Shady Lane, Muncy, Pennsylvania 17756","State":"Pennsylvania","City":"Muncy","Street":"215 Shady Lane","Zip":"17756","Longitude":"-76.775489","Latitude":"41.212668","Dates":null,"Products":""},{"Type":"on-farm market","ModifyDate":"Jul 27th, 2014","Image":"default-onfarmmarket-4-3.jpg","ListingID":"700788","Name":"Soergel Orchards","Description":null,"ContactName":null,"ContactEmail":"quality@soergels.com","ContactPhone":"724-935-1743","Website":"www.soergels.com","Facebook":null,"Twitter":null,"Instagram":null,"Pinterest":null,"Youtube":null,"Blog":null,"Address":"2573 Brandt School Road, Wexford, Pennsylvania 15237","State":"Pennsylvania","City":"Wexford","Street":"2573 Brandt School Road","Zip":"15237","Longitude":"-80.092730","Latitude":"40.613911","Dates":null,"Products":""},{"Type":"on-farm market","ModifyDate":"Jul 28th, 2014","Image":"default-onfarmmarket-4-3.jpg","ListingID":"700107","Name":"Manoff Market Gardens","Description":null,"ContactName":"Amy Manoff","ContactEmail":"info@MANOFFMARKETGARDENS.COM","ContactPhone":"215-297-8220","Website":"www.manoffmarketgardens.com","Facebook":"https:\/\/www.facebook.com\/manoffmarketgardens","Twitter":null,"Instagram":null,"Pinterest":null,"Youtube":null,"Blog":"www.manoffmarketgardens.blogspot.com","Address":"3157 Comfort Road, Solebury, Pennsylvania 18963","State":"Pennsylvania","City":"Solebury","Street":"3157 Comfort Road","Zip":"18963","Longitude":"-75.006565","Latitude":"40.395989","Dates":null,"Products":""},{"Type":"on-farm market","ModifyDate":"Jul 28th, 2014","Image":"default-onfarmmarket-4-3.jpg","ListingID":"700219","Name":"Beccari's Farm Market","Description":null,"ContactName":"Pete Beccari","ContactEmail":"support@beccaris.com","ContactPhone":"412-221-8768","Website":"beccaris.com","Facebook":"www.facebook\/beccaris","Twitter":null,"Instagram":null,"Pinterest":null,"Youtube":null,"Blog":null,"Address":"5095 Thoms Run Road, Oakdale, Pennsylvania 15071","State":"Pennsylvania","City":"Oakdale","Street":"5095 Thoms Run Road","Zip":"15071","Longitude":"-80.133093","Latitude":"40.3739713","Dates":null,"Products":""},{"Type":"on-farm market","ModifyDate":"Jul 28th, 2014","Image":"default-onfarmmarket-4-3.jpg","ListingID":"700796","Name":"Flinchbaughs Orchard and Farm Market","Description":null,"ContactName":"Julie Flinchbaugh","ContactEmail":"enjoy@flinchbaughsorchard.com","ContactPhone":"717-252-2540","Website":"http:\/\/www.flinchbaughsorchard.com","Facebook":"https:\/\/www.facebook.com\/FlinchbaughsOrchard","Twitter":"https:\/\/twitter.com\/FlinchsOrchard","Instagram":null,"Pinterest":null,"Youtube":null,"Blog":null,"Address":"110 Ducktown Road, York, Pennsylvania 17347","State":"Pennsylvania","City":"York","Street":"110 Ducktown Road","Zip":"17347","Longitude":"-76.580711","Latitude":"40.008422","Dates":null,"Products":""},{"Type":"on-farm market","ModifyDate":"Jul 30th, 2014","Image":"default-onfarmmarket-4-3.jpg","ListingID":"700302","Name":"Stramba Farm Alpacas & More","Description":null,"ContactName":"Roger Stramba","ContactEmail":"info@strambafarmalpacas.com","ContactPhone":"724-752-4146","Website":null,"Facebook":null,"Twitter":null,"Instagram":null,"Pinterest":null,"Youtube":null,"Blog":null,"Address":"2331 Chewton Wurtemburg Rd, Wampum, Pennsylvania 16157","State":"Pennsylvania","City":"Wampum","Street":"2331 Chewton Wurtemburg Rd","Zip":"16157","Longitude":"-80.290508","Latitude":"40.885714","Dates":null,"Products":""},{"Type":"on-farm market","ModifyDate":"Jul 31st, 2014","Image":"default-onfarmmarket-4-3.jpg","ListingID":"700312","Name":"Mount Pleasant Herbary","Description":null,"ContactName":"Gudrun Feigl","ContactEmail":"info@mountpleasantherbary.com","ContactPhone":"570-448-3094","Website":"www.mountpleasantherbary.com","Facebook":"https:\/\/www.facebook.com\/MountPleasantHerbary","Twitter":null,"Instagram":null,"Pinterest":null,"Youtube":null,"Blog":null,"Address":"31 Riverdale Road, Forest City, Pennsylvania 18421","State":"Pennsylvania","City":"Forest City","Street":"31 Riverdale Road","Zip":"18421","Longitude":"-75.394530","Latitude":"41.694289","Dates":null,"Products":""},{"Type":"on-farm market","ModifyDate":"Jul 31st, 2014","Image":"default-onfarmmarket-4-3.jpg","ListingID":"700466","Name":"Swartz's Pumpkin Patch","Description":null,"ContactName":"Chris Swartz","ContactEmail":"swartzspumpkinpatch@gmail.com","ContactPhone":"717-677-0831","Website":"www.swartzspumpkinpatch.com","Facebook":"https:\/\/www.facebook.com\/pages\/Swartzs-Pumpkin-Patch-in-Arendtsville-PA\/278268028879283","Twitter":null,"Instagram":null,"Pinterest":null,"Youtube":null,"Blog":"www.swartzspumpkinpatch.blogspot.com","Address":"232 North High Street in Arendtsville, Biglerville, Pennsylvania 17307","State":"Pennsylvania","City":"Biglerville","Street":"232 North High Street in Arendtsville","Zip":"17307","Longitude":"-77.302631","Latitude":"39.926690","Dates":null,"Products":""},{"Type":"on-farm market","ModifyDate":"Jun 21st, 2017","Image":"default-onfarmmarket-4-3.jpg","ListingID":"701416","Name":"Mazur's Greenhouse and Farm","Description":null,"ContactName":"Jerry Mazur","ContactEmail":"Mazursgreenhouse@msn.com","ContactPhone":"412-298-1672","Website":null,"Facebook":"Mazur\\'s Greenhouse and Farm","Twitter":null,"Instagram":null,"Pinterest":null,"Youtube":null,"Blog":null,"Address":"329 BenVenue Rd, Zelienople, Pennsylvania 16123","State":"Pennsylvania","City":"Zelienople","Street":"329 BenVenue Rd","Zip":"16123","Longitude":"-80.157104","Latitude":"40.786906","Dates":null,"Products":""},{"Type":"on-farm market","ModifyDate":"Jun 8th, 2016","Image":"default-onfarmmarket-4-3.jpg","ListingID":"701341","Name":"Maple Glen Farm","Description":null,"ContactName":"Mary Kay Hilyer","ContactEmail":"mary_kay9@yahoo.com","ContactPhone":"814-837-6459","Website":null,"Facebook":"Maple Glen Farm","Twitter":null,"Instagram":null,"Pinterest":null,"Youtube":null,"Blog":null,"Address":"543 Jo Jo Rd, Kane, Pennsylvania 16735","State":"Pennsylvania","City":"Kane","Street":"543 Jo Jo Rd","Zip":"16735","Longitude":"-78.837090","Latitude":"41.643853","Dates":null,"Products":""},{"Type":"on-farm market","ModifyDate":"Mar 17th, 2017","Image":"default-onfarmmarket-4-3.jpg","ListingID":"701397","Name":"Serenity Hills Farms","Description":null,"ContactName":"Brent Nice","ContactEmail":"brent.nice89@gmail.com","ContactPhone":"717-919-8449","Website":null,"Facebook":"https:\/\/www.facebook.com\/frmrfrd\/","Twitter":null,"Instagram":null,"Pinterest":null,"Youtube":null,"Blog":null,"Address":"429 Happy Hollow Road, Mifflintown, Pennsylvania 17059","State":"Pennsylvania","City":"Mifflintown","Street":"429 Happy Hollow Road","Zip":"17059","Longitude":"-77.350194","Latitude":"40.590023","Dates":null,"Products":""},{"Type":"on-farm market","ModifyDate":"Mar 23rd, 2015","Image":"default-onfarmmarket-4-3.jpg","ListingID":"700383","Name":"Twin Brook Farms","Description":null,"ContactName":"Cassie Schweighofer","ContactEmail":"cms346@cornell.edu","ContactPhone":"570-224-4381","Website":"http:\/\/www.twinbrookfarmsandlivestock.com","Facebook":"https:\/\/www.facebook.com\/TwinBrookFarms","Twitter":null,"Instagram":null,"Pinterest":null,"Youtube":null,"Blog":null,"Address":"678 Cochecton Tpke, Tyler Hill, Pennsylvania 18469","State":"Pennsylvania","City":"Tyler Hill","Street":"678 Cochecton Tpke","Zip":"18469","Longitude":"-75.168551","Latitude":"41.698768","Dates":null,"Products":""},{"Type":"on-farm market","ModifyDate":"Mar 23rd, 2016","Image":"default-onfarmmarket-4-3.jpg","ListingID":"701321","Name":"Triple B Farms","Description":null,"ContactName":"Suzanne C Beinlich","ContactEmail":"info@triplebfarms.com","ContactPhone":"724.258.3557","Website":"http:\/\/www.triplebfarms.com\/","Facebook":"https:\/\/www.facebook.com\/TripleBFarmsFreshLocalFoodandFun\/?ref=hl","Twitter":"https:\/\/twitter.com\/TripleBFarmsFUN","Instagram":null,"Pinterest":null,"Youtube":null,"Blog":null,"Address":"823 Berry Lane, Monongahela , Pennsylvania 15063","State":"Pennsylvania","City":"Monongahela","Street":"823 Berry Lane","Zip":"15063","Longitude":"-79.946589","Latitude":"40.2276750","Dates":null,"Products":""},{"Type":"on-farm market","ModifyDate":"Mar 24th, 2015","Image":"default-onfarmmarket-4-3.jpg","ListingID":"700328","Name":"Brookfield Maple Products","Description":null,"ContactName":"Bud Bowers","ContactEmail":"info@brookfieldmapleproducts.com","ContactPhone":"814-367-5284","Website":"www.brookfieldmapleproducts.com","Facebook":"https:\/\/www.facebook.com\/pages\/Brookfield-Maple-Products\/322566231113004","Twitter":null,"Instagram":null,"Pinterest":null,"Youtube":null,"Blog":null,"Address":"111 Plank Road, Westfield, Pennsylvania 16950","State":"Pennsylvania","City":"Westfield","Street":"111 Plank Road","Zip":"16950","Longitude":"-77.594692","Latitude":"41.955620","Dates":null,"Products":""},{"Type":"on-farm market","ModifyDate":"Mar 25th, 2020","Image":"default-onfarmmarket-4-3.jpg","ListingID":"701511","Name":"Myer Hill Chicken","Description":null,"ContactName":"Elizabeth Boone","ContactEmail":"ejboone76@gmail.com","ContactPhone":"7175724805","Website":"https:\/\/www.myerhillchicken.com\/","Facebook":null,"Twitter":null,"Instagram":null,"Pinterest":null,"Youtube":null,"Blog":null,"Address":"429 Strasburg Road, Paradise, Pennsylvania 17562","State":"Pennsylvania","City":"Paradise","Street":"429 Strasburg Road","Zip":"17562","Longitude":"-76.122298","Latitude":"40.00623","Dates":null,"Products":""},{"Type":"on-farm market","ModifyDate":"Mar 27th, 2015","Image":"default-onfarmmarket-4-3.jpg","ListingID":"701233","Name":"Scholl Orchards","Description":null,"ContactName":"Ben or Martha Scholl","ContactEmail":"info@schollorchards.com","ContactPhone":"n\/a, please email or","Website":"http:\/\/schollorchards.com\/","Facebook":"www.facebook.com\/schollorchardsPA","Twitter":null,"Instagram":null,"Pinterest":null,"Youtube":null,"Blog":null,"Address":"3057 Center Street, Bethlehem, Pennsylvania 18017","State":"Pennsylvania","City":"Bethlehem","Street":"3057 Center Street","Zip":"18017","Longitude":"-75.378204","Latitude":"40.656316","Dates":null,"Products":""},{"Type":"on-farm market","ModifyDate":"Mar 27th, 2015","Image":"default-onfarmmarket-4-3.jpg","ListingID":"701234","Name":"Blue Slate Farm","Description":null,"ContactName":"Jason Mesiarik","ContactEmail":"jmesiarik@verizon.net","ContactPhone":"484-343-0949","Website":null,"Facebook":"https:\/\/www.facebook.com\/blueslatefarm","Twitter":"@blueslatefarm","Instagram":null,"Pinterest":null,"Youtube":null,"Blog":null,"Address":"3669 Coventryville Road, East Nantmeal, Pennsylvania 19465","State":"Pennsylvania","City":"East Nantmeal","Street":"3669 Coventryville Road","Zip":"19465","Longitude":"-75.692628","Latitude":"40.160960","Dates":null,"Products":""},{"Type":"on-farm market","ModifyDate":"Mar 4th, 2021","Image":"default-onfarmmarket-4-3.jpg","ListingID":"701591","Name":"Redd Hott Cattle Co.","Description":null,"ContactName":"Charles P. Hottle","ContactEmail":"reddhottcattleco@gmail.com","ContactPhone":"7173725761","Website":null,"Facebook":"https:\/\/www.facebook.com\/reddhottcattleco\/","Twitter":null,"Instagram":null,"Pinterest":null,"Youtube":null,"Blog":null,"Address":"17800 Dry Run Road South, Dry Run, Pennsylvania 17220","State":"Pennsylvania","City":"Dry Run","Street":"17800 Dry Run Road South","Zip":"17220","Longitude":"-77.749344","Latitude":"40.155559","Dates":null,"Products":""},{"Type":"on-farm market","ModifyDate":"Mar 6th, 2020","Image":"default-onfarmmarket-4-3.jpg","ListingID":"701507","Name":"Mazurs Greenhouse and Farm","Description":null,"ContactName":"Jerry Mazur","ContactEmail":"Mazursgreenhouse@msn.com","ContactPhone":"412-296-1972","Website":null,"Facebook":"https:\/\/www.facebook.com\/Mazurs-Greenhouse-and-Farm-225721554196893\/","Twitter":null,"Instagram":null,"Pinterest":null,"Youtube":null,"Blog":null,"Address":"329 BenVenue Rd, Zelienople , Pennsylvania 16123","State":"Pennsylvania","City":"Zelienople","Street":"329 BenVenue Rd","Zip":"16123","Longitude":"-80.156903","Latitude":"40.787197","Dates":null,"Products":""},{"Type":"on-farm market","ModifyDate":"Nov 1st, 2014","Image":"default-onfarmmarket-4-3.jpg","ListingID":"701159","Name":"Flint Hill Farm Educational Center, Inc","Description":null,"ContactName":"Kathleen Fields","ContactEmail":"kathy@flinthill-farm.org","ContactPhone":"610-838-2928","Website":"www.flinthillfarm.org","Facebook":"FlintHillFarmEducationalCenter, Inc.","Twitter":null,"Instagram":null,"Pinterest":null,"Youtube":null,"Blog":null,"Address":"1922 Flint Hill Road , Coopersburg, Pennsylvania 18036","State":"Pennsylvania","City":"Coopersburg","Street":"1922 Flint Hill Road","Zip":"18036","Longitude":"-75.349214","Latitude":"40.530732","Dates":null,"Products":""},{"Type":"on-farm market","ModifyDate":"Oct 26th, 2016","Image":"default-onfarmmarket-4-3.jpg","ListingID":"701373","Name":"Four Sisters Farm","Description":null,"ContactName":"Jason Mesiarik","ContactEmail":"4sistersfarmpa@gmail.com","ContactPhone":"4843430949","Website":"http:\/\/www.foursisters.farm","Facebook":"https:\/\/www.facebook.com\/FourSistersFarmPA\/","Twitter":"https:\/\/twitter.com\/4SistersFarm","Instagram":null,"Pinterest":null,"Youtube":null,"Blog":null,"Address":"3669 Coventryville Road, Pottstown, Pennsylvania 19465","State":"Pennsylvania","City":"Pottstown","Street":"3669 Coventryville Road","Zip":"19465","Longitude":"-75.692445","Latitude":"40.161075","Dates":null,"Products":""},{"Type":"on-farm market","ModifyDate":"Oct 28th, 2015","Image":"default-onfarmmarket-4-3.jpg","ListingID":"701302","Name":"Running Bear Farm Stand","Description":null,"ContactName":"Clifford A. Bruszewski","ContactEmail":"runningbearfarm@yahoo.com","ContactPhone":"5702973701","Website":null,"Facebook":"https:\/\/www.facebook.com\/Running-Bear-Farm-245849665535840\/","Twitter":null,"Instagram":null,"Pinterest":null,"Youtube":null,"Blog":null,"Address":"848 Wallace Rd, Troy, Pennsylvania 16947","State":"Pennsylvania","City":"Troy","Street":"848 Wallace Rd","Zip":"16947","Longitude":"-76.670417","Latitude":"41.769243","Dates":null,"Products":""},{"Type":"on-farm market","ModifyDate":"Oct 6th, 2014","Image":"default-onfarmmarket-4-3.jpg","ListingID":"701126","Name":"Yesterdays Favorites Farm","Description":null,"ContactName":"Kim Mullen","ContactEmail":"yesterday@innernet.net","ContactPhone":"717-658-2501","Website":"www.yesterdaysfavoritesfarm.com","Facebook":"https:\/\/www.facebook.com\/yesterdaysfavorites","Twitter":null,"Instagram":null,"Pinterest":null,"Youtube":null,"Blog":null,"Address":"9327 Gap Rd, Waynesboro, Pennsylvania 17268","State":"Pennsylvania","City":"Waynesboro","Street":"9327 Gap Rd","Zip":"17268","Longitude":"-77.537243","Latitude":"39.783349","Dates":null,"Products":""},{"Type":"on-farm market","ModifyDate":"Sep 12th, 2014","Image":"default-onfarmmarket-4-3.jpg","ListingID":"701059","Name":"Many Springs Farm","Description":null,"ContactName":"David & Elizabeth Wilson","ContactEmail":"ewtracker@zoominternet.net","ContactPhone":"724-924-2045","Website":null,"Facebook":null,"Twitter":null,"Instagram":null,"Pinterest":null,"Youtube":null,"Blog":null,"Address":"171 Many Springs Farm Road, Portersville, Pennsylvania 16051","State":"Pennsylvania","City":"Portersville","Street":"171 Many Springs Farm Road","Zip":"16051","Longitude":"-80.188447","Latitude":"40.9541520","Dates":null,"Products":""},{"Type":"on-farm market","ModifyDate":"Sep 12th, 2014","Image":"default-onfarmmarket-4-3.jpg","ListingID":"701061","Name":"Hill Creek Farm","Description":null,"ContactName":"Dorene Pasekoff","ContactEmail":"info@hillcreekfarmpa.com","ContactPhone":"610-506-3372","Website":"http:\/\/www.hillcreekfarmpa.com","Facebook":"https:\/\/www.facebook.com\/pages\/Hill-Creek-Farm\/145650775611864?ref=bookmarks","Twitter":null,"Instagram":null,"Pinterest":null,"Youtube":null,"Blog":"http:\/\/www.hillcreekfarmpa.com\/blog","Address":"75 Creamery Road, Pottstown, Pennsylvania 19465","State":"Pennsylvania","City":"Pottstown","Street":"75 Creamery Road","Zip":"19465","Longitude":"-75.607324","Latitude":"40.1896470","Dates":null,"Products":""},{"Type":"on-farm market","ModifyDate":"Sep 12th, 2014","Image":"default-onfarmmarket-4-3.jpg","ListingID":"701062","Name":"Gauker Farms","Description":null,"ContactName":"Jodi Gauker","ContactEmail":"gaukerfarms@gmail.com","ContactPhone":"724-454-3674","Website":"www.gaukerfarms.com","Facebook":"www.facebook.com\/gaukerfarms","Twitter":null,"Instagram":null,"Pinterest":null,"Youtube":null,"Blog":null,"Address":"846 Fleetwood Lyons Rd, Fleetwood, Pennsylvania 19522","State":"Pennsylvania","City":"Fleetwood","Street":"846 Fleetwood Lyons Rd","Zip":"19522","Longitude":"-75.797004","Latitude":"40.4716450","Dates":null,"Products":""},{"Type":"on-farm market","ModifyDate":"Sep 13th, 2014","Image":"default-onfarmmarket-4-3.jpg","ListingID":"701067","Name":"small valley milling","Description":null,"ContactName":"Joel or Elaine  Steigman","ContactEmail":"steigman@epix.net","ContactPhone":"717-362-9850","Website":"small valley milling.com","Facebook":null,"Twitter":null,"Instagram":null,"Pinterest":null,"Youtube":null,"Blog":null,"Address":"917 small valley road, halifax, Pennsylvania 17032","State":"Pennsylvania","City":"halifax","Street":"917 small valley road","Zip":"17032","Longitude":"-76.806737","Latitude":"40.496228","Dates":null,"Products":""},{"Type":"on-farm market","ModifyDate":"Sep 15th, 2014","Image":"default-onfarmmarket-4-3.jpg","ListingID":"701071","Name":"Acorn Hollow Farm","Description":null,"ContactName":"Jan McClure","ContactEmail":"janmcclure@email.com","ContactPhone":"7247836966","Website":"www.acornhollowfarm.com","Facebook":"Acorn Hollow Farm","Twitter":null,"Instagram":null,"Pinterest":null,"Youtube":null,"Blog":null,"Address":"310 Kunkle Rd, Kittanning borough, Pennsylvania 16201","State":"Pennsylvania","City":"Kittanning borough","Street":"310 Kunkle Rd","Zip":"16201","Longitude":"-79.379299","Latitude":"40.774383","Dates":null,"Products":""},{"Type":"on-farm market","ModifyDate":"Sep 15th, 2014","Image":"default-onfarmmarket-4-3.jpg","ListingID":"701074","Name":"Wholesome Dairy Farms","Description":null,"ContactName":"Mark Lopez","ContactEmail":"healthycows@yahoo.com","ContactPhone":"6106210508","Website":"http:\/\/www.wholesomedairyfarms.com\/","Facebook":"http:\/\/www.facebook.com\/pages\/Wholesome-Dairy-Farms\/77319243038","Twitter":"https:\/\/twitter.com\/WholesomeDairy","Instagram":null,"Pinterest":null,"Youtube":null,"Blog":null,"Address":"181 Camp Road, Douglassville, Pennsylvania 19518","State":"Pennsylvania","City":"Douglassville","Street":"181 Camp Road","Zip":"19518","Longitude":"-75.739851","Latitude":"40.332461","Dates":null,"Products":""},{"Type":"on-farm market","ModifyDate":"Sep 15th, 2014","Image":"default-onfarmmarket-4-3.jpg","ListingID":"701076","Name":"Fairman Farm","Description":null,"ContactName":"David Fairman","ContactEmail":"skipfairman@yahoo.com","ContactPhone":"610-759-7829 or 610-","Website":"www.fairmanfarm.com","Facebook":null,"Twitter":null,"Instagram":null,"Pinterest":null,"Youtube":null,"Blog":null,"Address":"Snoopy Barn At 515 Knauss Rd., Nazareth, Pennsylvania 18064","State":"Pennsylvania","City":"Nazareth","Street":"Snoopy Barn At 515 Knauss Rd.","Zip":"18064","Longitude":"-75.350858","Latitude":"40.760277","Dates":null,"Products":""},{"Type":"on-farm market","ModifyDate":"Sep 24th, 2014","Image":"default-onfarmmarket-4-3.jpg","ListingID":"701096","Name":"Yeehaw Farm Store and Local Foods Co Op","Description":null,"ContactName":"Judi F. Radel","ContactEmail":"yeehawfarm@yahoo.com","ContactPhone":"(717) 834-9667","Website":"www.yeehawfarms.com","Facebook":"https:\/\/www.facebook.com\/pages\/Yeehaw-Farm\/179809875371755","Twitter":null,"Instagram":null,"Pinterest":null,"Youtube":null,"Blog":null,"Address":"1600 State Road, Duncannon, Pennsylvania 17020","State":"Pennsylvania","City":"Duncannon","Street":"1600 State Road","Zip":"17020","Longitude":"-76.989257","Latitude":"40.3557289","Dates":null,"Products":""},{"Type":"on-farm market","ModifyDate":"Sep 26th, 2014","Image":"default-onfarmmarket-4-3.jpg","ListingID":"701102","Name":"Hulings Blueberries and Farm Market","Description":null,"ContactName":"Rick Hall","ContactEmail":"brenrickstables@aol.com","ContactPhone":"814-450-6107","Website":"hulingsblueberries.com","Facebook":"Hulings Blueberries","Twitter":null,"Instagram":null,"Pinterest":null,"Youtube":null,"Blog":null,"Address":"5095 old state rd, Edinboro, Pennsylvania 16412","State":"Pennsylvania","City":"Edinboro","Street":"5095 old state rd","Zip":"16412","Longitude":"-80.130026","Latitude":"41.932811","Dates":null,"Products":""},{"Type":"on-farm market","ModifyDate":"Sep 2nd, 2014","Image":"default-onfarmmarket-4-3.jpg","ListingID":"701004","Name":"Riverview Farms","Description":null,"ContactName":"David and Marjorie Manning","ContactEmail":"riverviewfarms@verizon.net","ContactPhone":"814-484-7202","Website":"http:\/\/www.riverviewfarmspa.com","Facebook":null,"Twitter":null,"Instagram":null,"Pinterest":null,"Youtube":null,"Blog":null,"Address":"47 Jefferson St., Tidioute, Pennsylvania 16351","State":"Pennsylvania","City":"Tidioute","Street":"47 Jefferson St.","Zip":"16351","Longitude":"-79.395038","Latitude":"41.6849289","Dates":null,"Products":""},{"Type":"on-farm market","ModifyDate":"Sep 2nd, 2014","Image":"default-onfarmmarket-4-3.jpg","ListingID":"701009","Name":"Kistaco Farm Market","Description":null,"ContactName":"Suzanne Boyce","ContactEmail":"kistaco@comcast.net","ContactPhone":"724-478-4361","Website":"http:\/\/kistacofarm.com\/","Facebook":"https:\/\/www.facebook.com\/pages\/Kistaco-Farm\/151290458223231?fref=ts","Twitter":null,"Instagram":null,"Pinterest":null,"Youtube":null,"Blog":"http:\/\/kistacofarm.wordpress.com\/","Address":"3403 N. Balsiger Road, Apollo borough, Pennsylvania 15613","State":"Pennsylvania","City":"Apollo borough","Street":"3403 N. Balsiger Road","Zip":"15613","Longitude":"-79.503008","Latitude":"40.603351","Dates":null,"Products":""},{"Type":"on-farm market","ModifyDate":"Sep 30th, 2014","Image":"default-onfarmmarket-4-3.jpg","ListingID":"700096","Name":"Mondjack Apiaries","Description":null,"ContactName":"Bill Mondjack","ContactEmail":"billzbeez@mondjackapiaries.com","ContactPhone":"610-264-0494","Website":"www.Mondjackapiaries.com","Facebook":"https:\/\/www.facebook.com\/Mondjackapiaries","Twitter":null,"Instagram":null,"Pinterest":null,"Youtube":null,"Blog":null,"Address":"2236 N. 1st Ave., Whitehall, Pennsylvania 18052","State":"Pennsylvania","City":"Whitehall","Street":"2236 N. 1st Ave.","Zip":"18052","Longitude":"-75.478814","Latitude":"40.6495300","Dates":null,"Products":""},{"Type":"on-farm market","ModifyDate":"Sep 30th, 2014","Image":"default-onfarmmarket-4-3.jpg","ListingID":"700306","Name":"Owens Farm","Description":null,"ContactName":"Caroline and David Owens","ContactEmail":"info@owensfarm.com","ContactPhone":"570-286-5309","Website":"www.owensfarm.com","Facebook":"www.facebook.com\/pages\/Owens-Farm\/168876806466611","Twitter":null,"Instagram":null,"Pinterest":null,"Youtube":null,"Blog":null,"Address":"2611 Mile Post Rd., Sunbury, Pennsylvania 17801","State":"Pennsylvania","City":"Sunbury","Street":"2611 Mile Post Rd.","Zip":"17801","Longitude":"-76.704561","Latitude":"40.909558","Dates":null,"Products":""},{"Type":"on-farm market","ModifyDate":"Sep 3rd, 2014","Image":"default-onfarmmarket-4-3.jpg","ListingID":"701015","Name":"Firefly Farm PA","Description":null,"ContactName":"Kelly Przylepa","ContactEmail":"fireflyfarmpa@me.com","ContactPhone":"717-227-1705","Website":null,"Facebook":"https:\/\/www.facebook.com\/pages\/Firefly-Farm-PA\/117241838301654","Twitter":null,"Instagram":null,"Pinterest":null,"Youtube":null,"Blog":null,"Address":"5537 Wool Mill Road, Glenville, Pennsylvania 17329","State":"Pennsylvania","City":"Glenville","Street":"5537 Wool Mill Road","Zip":"17329","Longitude":"-76.841368","Latitude":"39.7516830","Dates":null,"Products":""},{"Type":"on-farm market","ModifyDate":"Sep 5th, 2014","Image":"default-onfarmmarket-4-3.jpg","ListingID":"701025","Name":"Glenn Troyer Farms","Description":null,"ContactName":"Ellery Troyer","ContactEmail":"etroyer@ymail.com","ContactPhone":"814.796.2641","Website":"www.glenntroyerfarms.com","Facebook":"troyersstrawberryacres","Twitter":null,"Instagram":null,"Pinterest":null,"Youtube":null,"Blog":null,"Address":"13021 Flatts Rd., Waterford, Pennsylvania 16441","State":"Pennsylvania","City":"Waterford","Street":"13021 Flatts Rd.","Zip":"16441","Longitude":"-79.971958","Latitude":"41.9219327","Dates":null,"Products":""}]