[{"Type":"farmers market","ModifyDate":"Jan 14th, 2021","Image":"default-farmersmarket-4-3.jpg","ListingID":"300221","Name":"Espanola Farmers Market","Description":null,"ContactName":"Sabra Moore","ContactEmail":"sabramoore25@windstream.net","ContactPhone":"(505)685-4842","Website":"www.espanolafarmersmarket.org","Facebook":null,"Twitter":null,"Instagram":null,"Pinterest":null,"Youtube":null,"Blog":null,"Address":"1105 N.Railroad  Avenue, Espanola, New Mexico 87532","State":"New Mexico","City":"Espanola","Street":"1105 N.Railroad  Avenue","Zip":"87532","Longitude":"-106.06580","Latitude":"36.003598","Dates":"June to October","Products":"Fresh fruits, Fresh vegetables, Baked goods, Bedding plants, Canned or preserved fruits\/vegetables, Cut flowers, Dry beans, Eggs, Fresh\/dried herbs, Honey, Nuts, Poultry\/fowl meat and products, Prepared foods, Red\/other non-poultry meat and products, Soap\/body care products, Wild harvested forest products"},{"Type":"farmers market","ModifyDate":"Jan 26th, 2021","Image":"default-farmersmarket-4-3.jpg","ListingID":"300184","Name":"Los Ranchos Growers' Market","Description":null,"ContactName":"COLENE MONTOYA","ContactEmail":"MONTOYA4664@HOTMAIL.COM","ContactPhone":"505-610-9591","Website":null,"Facebook":"https:\/\/www.facebook.com\/LosRanchosNM","Twitter":null,"Instagram":null,"Pinterest":null,"Youtube":null,"Blog":null,"Address":"City Hall, 6718 Rio Grande Blvd. NW, Los Ranchos, New Mexico 87107","State":"New Mexico","City":"Los Ranchos","Street":"City Hall, 6718 Rio Grande Blvd. NW","Zip":"87107","Longitude":"-106.65491","Latitude":"35.158683","Dates":"May to November","Products":"Fresh fruits, Fresh vegetables, Baked goods, Bedding plants, Canned or preserved fruits\/vegetables, Coffee\/tea, Crafts\/woodworking items, Cut flowers, Dairy products., Dry beans, Eggs, Fish\/seafood, Fresh\/dried herbs, Honey, Juices\/non-alcoholic ciders, Nursery stock, Nuts, Pet food, Prepared foods, Red\/other non-poultry meat and products, Wild harvested forest products"},{"Type":"farmers market","ModifyDate":"Jun 22nd, 2020","Image":"default-farmersmarket-4-3.jpg","ListingID":"301140","Name":"the Farm Market","Description":null,"ContactName":"Cindy Yarmal","ContactEmail":"cindyy14@gmail.com","ContactPhone":"5757430224","Website":null,"Facebook":"the Farm Market","Twitter":null,"Instagram":null,"Pinterest":null,"Youtube":null,"Blog":null,"Address":"Main St, Hillsboro , New Mexico 88042","State":"New Mexico","City":"Hillsboro","Street":"Main St","Zip":"88042","Longitude":"-107.56910","Latitude":"32.920178","Dates":"March to December","Products":"Fresh fruits, Fresh vegetables, Baked goods, Canned or preserved fruits\/vegetables, Coffee\/tea, Crafts\/woodworking items, Cut flowers, Eggs, Fresh\/dried herbs"},{"Type":"farmers market","ModifyDate":"Jun 8th, 2023","Image":"farmersmarket_301576_11025_20230608192737.png","ListingID":"301576","Name":"Rail Yards Market","Description":null,"ContactName":null,"ContactEmail":"railyardsmarket@gmail.com","ContactPhone":"5056001109","Website":"www.railyardsmarket.org","Facebook":"https:\/\/www.facebook.com\/RailYardsMarket\/","Twitter":null,"Instagram":null,"Pinterest":null,"Youtube":null,"Blog":null,"Address":"777 1st street SW, Albuquerque, New Mexico 87102","State":"New Mexico","City":"Albuquerque","Street":"777 1st street SW","Zip":"87102","Longitude":"-106.64902","Latitude":"35.075615","Dates":"May to October","Products":"Fresh fruits, Fresh vegetables, Baked goods, Bedding plants, Canned or preserved fruits\/vegetables, Coffee\/tea, Crafts\/woodworking items, Cut flowers, Dairy products., Dry beans, Eggs, Fresh\/dried herbs, Grains\/flour, Honey, Juices\/non-alcoholic ciders, Mushrooms, Nursery stock, Nuts, Pet food, Poultry\/fowl meat and products, Prepared foods, Red\/other non-poultry meat and products, Soap\/body care products, Wild harvested forest products"},{"Type":"farmers market","ModifyDate":"Mar 27th, 2023","Image":"default-farmersmarket-4-3.jpg","ListingID":"311741","Name":"Alamogordo Alameda Park Farmers' Market","Description":null,"ContactName":null,"ContactEmail":"alamedaparkfarmersmarket@gmail.com","ContactPhone":"575-682-3323","Website":"http:\/\/www.localharvest.org\/alamogordo-alameda-park-farmers-market-market-in-the-park-M37997","Facebook":"https:\/\/www.facebook.com\/AlamedaParkFarmersMkt","Twitter":null,"Instagram":null,"Pinterest":null,"Youtube":null,"Blog":null,"Address":"1987 White Sands Blvd., Alamogordo, NM, 88310","State":"New Mexico","City":"Alamogordo","Street":"1987 White Sands Blvd.","Zip":"88310","Longitude":"-105.96061334732086","Latitude":"32.91319215559267","Dates":null,"Products":""},{"Type":"farmers market","ModifyDate":"Mar 27th, 2023","Image":"default-farmersmarket-4-3.jpg","ListingID":"311742","Name":"Alamogordo Farmers' Market (in Alameda Park)","Description":null,"ContactName":null,"ContactEmail":null,"ContactPhone":"575-446-9450","Website":null,"Facebook":"http:\/\/www.facebook.com\/AlamogordoFarmersMarket","Twitter":null,"Instagram":null,"Pinterest":null,"Youtube":null,"Blog":null,"Address":"(next to the Toy Train Depot) 1991 White Sands Blvd. Alamogordo, NM 88310 Parking Lot, Bathrooms, Grassy Field, Shade Trees","State":"New Mexico","City":"ALAMOGORDO","Street":"1991 N WHITE SANDS BLVD","Zip":"88310","Longitude":"-105.96061395290752","Latitude":"32.913245447219346","Dates":null,"Products":""},{"Type":"farmers market","ModifyDate":"Mar 27th, 2023","Image":"default-farmersmarket-4-3.jpg","ListingID":"311743","Name":"Ardovino's Desert Crossing Farmers' Market","Description":null,"ContactName":null,"ContactEmail":"farmersmarket@ardovinos.com","ContactPhone":"575-589-0653","Website":"http:\/\/www.ardovinos.com\/farmersmarket.html","Facebook":"https:\/\/www.facebook.com\/FarmersMarketAtADC","Twitter":null,"Instagram":null,"Pinterest":null,"Youtube":null,"Blog":null,"Address":"1 Ardovinos Dr., Ardovino's Desert Crossing, Sunland Park, NM, 88063","State":"New Mexico","City":"Sunland Park","Street":"1 Ardovinos Dr.","Zip":"88063","Longitude":"-106.5572067747616","Latitude":"31.792199385926477","Dates":null,"Products":""},{"Type":"farmers market","ModifyDate":"Mar 27th, 2023","Image":"default-farmersmarket-4-3.jpg","ListingID":"311744","Name":"Belen Farmer's Market","Description":null,"ContactName":null,"ContactEmail":null,"ContactPhone":"505-401-4390","Website":null,"Facebook":null,"Twitter":null,"Instagram":null,"Pinterest":null,"Youtube":null,"Blog":null,"Address":"300 North 4th Street (Anna Becker Park) Belen, NM 87002","State":"New Mexico","City":"BELEN","Street":"300 N 4TH ST","Zip":"87002","Longitude":"-106.77148537953732","Latitude":"34.661584750892295","Dates":null,"Products":""},{"Type":"farmers market","ModifyDate":"Mar 27th, 2023","Image":"default-farmersmarket-4-3.jpg","ListingID":"311745","Name":"Bosque Farms Growers' Market","Description":null,"ContactName":null,"ContactEmail":"George@qwestoffice.net","ContactPhone":"505-869-9409","Website":null,"Facebook":null,"Twitter":null,"Instagram":null,"Pinterest":null,"Youtube":null,"Blog":null,"Address":"1090 N. Bosque Lp., Bosque Farms, NM, 87068","State":"New Mexico","City":"Bosque Farms","Street":"1090 N. Bosque Lp.","Zip":"87068","Longitude":"-106.70435070374297","Latitude":"34.86261602701682","Dates":null,"Products":""},{"Type":"farmers market","ModifyDate":"Mar 27th, 2023","Image":"default-farmersmarket-4-3.jpg","ListingID":"311746","Name":"Carlsbad Downtown Farmers' Market","Description":null,"ContactName":null,"ContactEmail":"amelvin@carlsbadmainstreet.org","ContactPhone":"575-628-3768","Website":null,"Facebook":"https:\/\/www.facebook.com\/CarlsbadDowntownFarmersMarket","Twitter":null,"Instagram":null,"Pinterest":null,"Youtube":null,"Blog":null,"Address":"102 N. Canal St., Carlsbad, NM, 88220","State":"New Mexico","City":"Carlsbad","Street":"102 N. Canal St.","Zip":"88220","Longitude":"-104.22891000559515","Latitude":"32.42044673414513","Dates":null,"Products":""},{"Type":"farmers market","ModifyDate":"Mar 27th, 2023","Image":"default-farmersmarket-4-3.jpg","ListingID":"311747","Name":"Cedar Crest Farmers' Market","Description":null,"ContactName":null,"ContactEmail":"ret1577@msn.com","ContactPhone":"505-269-1577","Website":null,"Facebook":null,"Twitter":null,"Instagram":null,"Pinterest":null,"Youtube":null,"Blog":null,"Address":"12224 N. Hwy. 14, Cedar Crest Center, Cedar Crest, NM, 87008","State":"New Mexico","City":"Cedar Crest","Street":"12224 N. Hwy. 14","Zip":"87008","Longitude":"-106.36436608552386","Latitude":"35.13841900476749","Dates":null,"Products":""},{"Type":"farmers market","ModifyDate":"Mar 27th, 2023","Image":"default-farmersmarket-4-3.jpg","ListingID":"311748","Name":"Dixon Farmers' Market","Description":null,"ContactName":null,"ContactEmail":"mulchman@cybermesa.com","ContactPhone":"505-579-9199","Website":"http:\/\/www.dixonfarmersmarket.com\/","Facebook":"https:\/\/www.facebook.com\/DixonFarmersMarket","Twitter":null,"Instagram":null,"Pinterest":null,"Youtube":null,"Blog":null,"Address":"215 Hwy. 75, Dixon, NM, 87527","State":"New Mexico","City":"Dixon","Street":"215 Hwy. 75","Zip":"87527","Longitude":"-105.88738628113848","Latitude":"36.1977093682037","Dates":null,"Products":""},{"Type":"farmers market","ModifyDate":"Mar 27th, 2023","Image":"default-farmersmarket-4-3.jpg","ListingID":"311749","Name":"Edgewood Farmers' Market","Description":null,"ContactName":null,"ContactEmail":"ret1577@msn.com","ContactPhone":"505-269-1577","Website":null,"Facebook":null,"Twitter":null,"Instagram":null,"Pinterest":null,"Youtube":null,"Blog":null,"Address":"8 Marietta Ct., Tractor Supply Company, Edgewood, NM, 87015","State":"New Mexico","City":"Edgewood","Street":"8 Marietta Ct.","Zip":"87015","Longitude":"-106.20059804693923","Latitude":"35.065068511837836","Dates":null,"Products":""},{"Type":"farmers market","ModifyDate":"Mar 27th, 2023","Image":"default-farmersmarket-4-3.jpg","ListingID":"311750","Name":"Farmers and Crafts Market of Las Cruces","Description":null,"ContactName":null,"ContactEmail":null,"ContactPhone":"575-201-3853","Website":"http:\/\/www.FCMLC.org","Facebook":"http:\/\/www.facebook.com\/LasCrucesMarket","Twitter":null,"Instagram":null,"Pinterest":null,"Youtube":null,"Blog":null,"Address":"125 N. Main St Las Cruces, NM 88004","State":"New Mexico","City":"LAS CRUCES","Street":"125 MAIN ST","Zip":"88001","Longitude":"-106.77891781125209","Latitude":"32.3109329309612","Dates":null,"Products":""},{"Type":"farmers market","ModifyDate":"Mar 27th, 2023","Image":"default-farmersmarket-4-3.jpg","ListingID":"311751","Name":"Farmers' Market of Otero County","Description":null,"ContactName":null,"ContactEmail":null,"ContactPhone":null,"Website":null,"Facebook":"http:\/\/www.facebook.com\/AlamogordoOteroCountyFarmersProduceCraftMarket","Twitter":null,"Instagram":null,"Pinterest":null,"Youtube":null,"Blog":null,"Address":"2900 N White Sands Tractor Supply Alamogordo, NM 88310 Look for the big yellow sign","State":"New Mexico","City":"ALAMOGORDO","Street":"2900 N WHITE SANDS BLVD","Zip":"88310","Longitude":"-105.96154787055922","Latitude":"32.9288004947532","Dates":null,"Products":""},{"Type":"farmers market","ModifyDate":"Mar 27th, 2023","Image":"default-farmersmarket-4-3.jpg","ListingID":"311752","Name":"First Street Market","Description":null,"ContactName":null,"ContactEmail":"randigeo@bacavalley.com","ContactPhone":"575-445-8224","Website":null,"Facebook":null,"Twitter":null,"Instagram":null,"Pinterest":null,"Youtube":null,"Blog":null,"Address":"100 S. 1st St., Raton, NM, 87740","State":"New Mexico","City":"Raton","Street":"100 S. 1st St.","Zip":"87740","Longitude":"-104.43817921031332","Latitude":"36.90199878121187","Dates":null,"Products":""},{"Type":"farmers market","ModifyDate":"Mar 27th, 2023","Image":"default-farmersmarket-4-3.jpg","ListingID":"311753","Name":"Fort Sumner Farmers' Market","Description":null,"ContactName":null,"ContactEmail":null,"ContactPhone":"575-512-5517","Website":null,"Facebook":null,"Twitter":null,"Instagram":null,"Pinterest":null,"Youtube":null,"Blog":null,"Address":"25851 US Hwy. 60, Fort Sumner, NM, 88119","State":"New Mexico","City":"Fort Sumner","Street":"25851 US Hwy. 60","Zip":"88119","Longitude":"-104.22312441288315","Latitude":"34.46453121184926","Dates":null,"Products":""},{"Type":"farmers market","ModifyDate":"Mar 27th, 2023","Image":"default-farmersmarket-4-3.jpg","ListingID":"311754","Name":"Gallup Farmers' Market","Description":null,"ContactName":null,"ContactEmail":"gallupfarmersmarket@yahoo.com","ContactPhone":"505-713-2333","Website":null,"Facebook":null,"Twitter":null,"Instagram":null,"Pinterest":null,"Youtube":null,"Blog":null,"Address":"221 Coal Ave., Downtown walkway off Coal Ave., Gallup, NM, 87301","State":"New Mexico","City":"Gallup","Street":"221 Coal Ave.","Zip":"87301","Longitude":"-108.74282694679738","Latitude":"35.527146212628125","Dates":null,"Products":""},{"Type":"farmers market","ModifyDate":"Mar 27th, 2023","Image":"default-farmersmarket-4-3.jpg","ListingID":"311755","Name":"Hidalgo Farmers' Market and Mercado","Description":null,"ContactName":null,"ContactEmail":"hidalgospirit@yahoo.com","ContactPhone":"520-507-0455","Website":null,"Facebook":"https:\/\/www.facebook.com\/hidalgofarmersmarketandmercado","Twitter":null,"Instagram":null,"Pinterest":null,"Youtube":null,"Blog":null,"Address":"701 N. Main St., Lordsburg, NM, 88045","State":"New Mexico","City":"Lordsburg","Street":"701 N. Main St.","Zip":"88045","Longitude":"-108.70261709294368","Latitude":"32.35831346353758","Dates":null,"Products":""},{"Type":"farmers market","ModifyDate":"Mar 27th, 2023","Image":"default-farmersmarket-4-3.jpg","ListingID":"311756","Name":"Hobbs Farmers' Market","Description":null,"ContactName":null,"ContactEmail":"hobbsfarmersmarket@gmail.com","ContactPhone":"575-263-5603","Website":null,"Facebook":"https:\/\/www.facebook.com\/HobbsFarmersMarket","Twitter":null,"Instagram":null,"Pinterest":null,"Youtube":null,"Blog":null,"Address":"4314 N. Grimes St., Del Norte Park, Hobbs, NM, 88240","State":"New Mexico","City":"Hobbs","Street":"4314 N. Grimes St.","Zip":"88240","Longitude":"-103.14489068759484","Latitude":"32.74674888823087","Dates":null,"Products":""},{"Type":"farmers market","ModifyDate":"Mar 27th, 2023","Image":"default-farmersmarket-4-3.jpg","ListingID":"311757","Name":"Jemez Springs Community Farmers' Market","Description":null,"ContactName":null,"ContactEmail":"farmersmarket@jemezsustainable.org","ContactPhone":"575-834-0044","Website":null,"Facebook":"https:\/\/www.facebook.com\/Jemez-Springs-Community-Farmers-Market-198144530229692","Twitter":null,"Instagram":null,"Pinterest":null,"Youtube":null,"Blog":null,"Address":"30 Jemez Springs Plz., Jemez Springs, NM, 87025","State":"New Mexico","City":"Jemez Springs","Street":"30 Jemez Springs Plz.","Zip":"87025","Longitude":"-106.69067691090777","Latitude":"35.771958038222834","Dates":null,"Products":""},{"Type":"farmers market","ModifyDate":"Mar 27th, 2023","Image":"default-farmersmarket-4-3.jpg","ListingID":"311758","Name":"Lake Arthur Farmers' Market","Description":null,"ContactName":null,"ContactEmail":null,"ContactPhone":null,"Website":null,"Facebook":null,"Twitter":null,"Instagram":null,"Pinterest":null,"Youtube":null,"Blog":null,"Address":"700 5th St., Lake Arthur, NM, 88253","State":"New Mexico","City":"Lake Arthur","Street":"700 5th St.","Zip":"88253","Longitude":"-104.36198798751737","Latitude":"32.998151367812355","Dates":null,"Products":""},{"Type":"farmers market","ModifyDate":"Mar 27th, 2023","Image":"default-farmersmarket-4-3.jpg","ListingID":"311759","Name":"Las Cruces Farmers' & Craft Market","Description":null,"ContactName":null,"ContactEmail":"duane.mosley@gmail.com","ContactPhone":"575-541-2288","Website":"http:\/\/www.fcmlc.org\/","Facebook":"https:\/\/www.facebook.com\/LasCrucesMarket","Twitter":null,"Instagram":null,"Pinterest":null,"Youtube":null,"Blog":null,"Address":"125 N. Main, Downtown Mall, Las Cruces, NM, 88001","State":"New Mexico","City":"Las Cruces","Street":"125 N. Main","Zip":"88001","Longitude":"-106.77891781125209","Latitude":"32.3109329309612","Dates":null,"Products":""},{"Type":"farmers market","ModifyDate":"Mar 27th, 2023","Image":"default-farmersmarket-4-3.jpg","ListingID":"311760","Name":"Lovington Downtown Farmers' Market","Description":null,"ContactName":null,"ContactEmail":"mtnrd2@live.com","ContactPhone":"575-396-4635","Website":null,"Facebook":"https:\/\/www.facebook.com\/lovingtonfarmersmarket","Twitter":null,"Instagram":null,"Pinterest":null,"Youtube":null,"Blog":null,"Address":"100 N. Main Ave., Lovington, NM, 88260","State":"New Mexico","City":"Lovington","Street":"100 N. Main Ave.","Zip":"88260","Longitude":"-103.34858576153486","Latitude":"32.94818736368436","Dates":null,"Products":""},{"Type":"farmers market","ModifyDate":"Mar 27th, 2023","Image":"default-farmersmarket-4-3.jpg","ListingID":"311761","Name":"Main Street Farmers' Market","Description":null,"ContactName":null,"ContactEmail":"grantsmainstreet@qwestoffice.net","ContactPhone":"505-285-3542","Website":"http:\/\/www.future-foundations.com\/#!farmers-market\/ccjp","Facebook":"https:\/\/www.facebook.com\/grantsmainstreetfarmersmarket","Twitter":null,"Instagram":null,"Pinterest":null,"Youtube":null,"Blog":null,"Address":"608 W. Santa Fe Ave., Grants, NM, 87020","State":"New Mexico","City":"Grants","Street":"608 W. Santa Fe Ave.","Zip":"87020","Longitude":"-107.85441173965005","Latitude":"35.15285392383855","Dates":null,"Products":""},{"Type":"farmers market","ModifyDate":"Mar 27th, 2023","Image":"default-farmersmarket-4-3.jpg","ListingID":"311762","Name":"Mayhill Farmers' Market","Description":null,"ContactName":null,"ContactEmail":"rob@theriver.com","ContactPhone":"575-687-2343","Website":null,"Facebook":"https:\/\/www.facebook.com\/Mayhill-Farmers-Market-1504646309791360","Twitter":null,"Instagram":null,"Pinterest":null,"Youtube":null,"Blog":null,"Address":"3510 US Hwy. 82, Mayhill, NM, 88339","State":"New Mexico","City":"Mayhill","Street":"3510 US Hwy. 82","Zip":"88339","Longitude":"-105.47727539435263","Latitude":"32.89308458194902","Dates":null,"Products":""},{"Type":"farmers market","ModifyDate":"Mar 27th, 2023","Image":"default-farmersmarket-4-3.jpg","ListingID":"311763","Name":"Mile-Hi Farmers' Market","Description":null,"ContactName":null,"ContactEmail":"milehimarketabq@gmail.com","ContactPhone":"313-327-9934","Website":null,"Facebook":"https:\/\/www.facebook.com\/sanpedromilehifarmersmarket","Twitter":null,"Instagram":null,"Pinterest":null,"Youtube":null,"Blog":null,"Address":"2000 Alvarado Dr. NE, Albuquerque, NM, 87110","State":"New Mexico","City":"Albuquerque","Street":"2000 Alvarado Dr. NE","Zip":"87110","Longitude":"-106.58196140275176","Latitude":"35.098441150301376","Dates":null,"Products":""},{"Type":"farmers market","ModifyDate":"Mar 27th, 2023","Image":"default-farmersmarket-4-3.jpg","ListingID":"311764","Name":"Mimbres Valley Farmers' Market","Description":null,"ContactName":null,"ContactEmail":"mimbresblackhawk@gmail.com","ContactPhone":"575-313-3020","Website":null,"Facebook":null,"Twitter":null,"Instagram":null,"Pinterest":null,"Youtube":null,"Blog":null,"Address":"2739 Hwy. 35, San Lorenzo, NM, 88041","State":"New Mexico","City":"San Lorenzo","Street":"2739 Hwy. 35","Zip":"88041","Longitude":"-107.93530179734519","Latitude":"32.81613661907271","Dates":null,"Products":""},{"Type":"farmers market","ModifyDate":"Mar 27th, 2023","Image":"default-farmersmarket-4-3.jpg","ListingID":"311765","Name":"Rascal Fair\/White Oaks Community Market","Description":null,"ContactName":null,"ContactEmail":null,"ContactPhone":null,"Website":null,"Facebook":"http:\/\/www.facebook.com\/Rascal-Fair-White-Oaks-Farmers-Market\/234248450006102","Twitter":null,"Instagram":null,"Pinterest":null,"Youtube":null,"Blog":null,"Address":"965 White Oaks Avenue White Oaks, NM 88301","State":"New Mexico","City":"WHITE OAKS","Street":"965 RD","Zip":"88301","Longitude":"-105.73341285147622","Latitude":"33.75080480949243","Dates":null,"Products":""},{"Type":"farmers market","ModifyDate":"Mar 27th, 2023","Image":"default-farmersmarket-4-3.jpg","ListingID":"311766","Name":"San Felipe Farmers' Market","Description":null,"ContactName":null,"ContactEmail":null,"ContactPhone":"505-771-7200x157","Website":null,"Facebook":null,"Twitter":null,"Instagram":null,"Pinterest":null,"Youtube":null,"Blog":null,"Address":"25 Hagen Rd., Algodones, NM, 87001","State":"New Mexico","City":"Algodones","Street":"25 Hagen Rd.","Zip":"87001","Longitude":"-106.43994043497895","Latitude":"35.43944472230642","Dates":null,"Products":""},{"Type":"farmers market","ModifyDate":"Mar 27th, 2023","Image":"default-farmersmarket-4-3.jpg","ListingID":"311767","Name":"Silver City Farmers' Market","Description":null,"ContactName":null,"ContactEmail":"ilvercityfarmersmarket@gmail.com","ContactPhone":"575-654-4104","Website":"http:\/\/silvercityfarmersmarket.blogspot.com\/","Facebook":null,"Twitter":null,"Instagram":null,"Pinterest":null,"Youtube":null,"Blog":null,"Address":"614 N Bullard St., Silver City, NM, 88602","State":"New Mexico","City":"Silver City","Street":"614 N Bullard St.","Zip":"88602","Longitude":"-108.2761022434278","Latitude":"32.77260895916898","Dates":null,"Products":""},{"Type":"farmers market","ModifyDate":"Mar 27th, 2023","Image":"default-farmersmarket-4-3.jpg","ListingID":"311768","Name":"South Valley Growers' Market","Description":null,"ContactName":null,"ContactEmail":"RKReinert@aol.com","ContactPhone":"505-877-4044","Website":null,"Facebook":"https:\/\/www.facebook.com\/SouthValleyGrowersMarket","Twitter":null,"Instagram":null,"Pinterest":null,"Youtube":null,"Blog":null,"Address":"3907 Isleta Blvd. SW, Albuquerque, NM, 87105","State":"New Mexico","City":"Albuquerque","Street":"3907 Isleta Blvd. SW","Zip":"87105","Longitude":"-106.68347052217821","Latitude":"35.01906781419321","Dates":null,"Products":""},{"Type":"farmers market","ModifyDate":"Mar 27th, 2023","Image":"default-farmersmarket-4-3.jpg","ListingID":"311769","Name":"Timberon Farmers' Market","Description":null,"ContactName":null,"ContactEmail":"timberonfarmersmarket@gmail.com","ContactPhone":"575-446-4321","Website":null,"Facebook":"https:\/\/www.facebook.com\/TimberonFarmersMarket","Twitter":null,"Instagram":null,"Pinterest":null,"Youtube":null,"Blog":null,"Address":"1 Bobwhite Cir., Cloudcroft, NM, 88350","State":"New Mexico","City":"Cloudcroft","Street":"1 Bobwhite Cir.","Zip":"88350","Longitude":"-105.69121047083384","Latitude":"32.640547478918045","Dates":null,"Products":""},{"Type":"farmers market","ModifyDate":"Mar 27th, 2023","Image":"default-farmersmarket-4-3.jpg","ListingID":"311770","Name":"Tri-County Farmers' Market","Description":null,"ContactName":null,"ContactEmail":"cdwood@cybermesa.com","ContactPhone":"505-426-1468","Website":"http:\/\/tricountyfarmersmarketlvnm.com\/","Facebook":"https:\/\/www.facebook.com\/lasvegasnmfarmersmarket","Twitter":null,"Instagram":null,"Pinterest":null,"Youtube":null,"Blog":null,"Address":"510 University Ave., Las Vegas, NM, 87701","State":"New Mexico","City":"Las Vegas","Street":"510 University Ave.","Zip":"87701","Longitude":"-105.21475954352819","Latitude":"35.596343789245765","Dates":null,"Products":""},{"Type":"farmers market","ModifyDate":"Mar 27th, 2023","Image":"default-farmersmarket-4-3.jpg","ListingID":"311771","Name":"Village of Los Ranchos Growers Market","Description":null,"ContactName":null,"ContactEmail":null,"ContactPhone":"505-890-2799","Website":"http:\/\/www.meetatthemarket.com","Facebook":null,"Twitter":null,"Instagram":null,"Pinterest":null,"Youtube":null,"Blog":null,"Address":"6718 Rio Grande Boulevard, Northwest Albuquerque, NM 87114","State":"New Mexico","City":"ALBUQUERQUE","Street":"6718 RIO GRANDE BLVD NW","Zip":"87107","Longitude":"-106.65512357415032","Latitude":"35.15898217974483","Dates":null,"Products":""},{"Type":"farmers market","ModifyDate":"Sep 17th, 2020","Image":"default-farmersmarket-4-3.jpg","ListingID":"300585","Name":"Silver City Farmers' Market Downtown","Description":null,"ContactName":"Andrea Warner","ContactEmail":"silvercityfarmersmarket@gmail.com","ContactPhone":"575-313-2923","Website":"www.silvercityfamersmarket.info","Facebook":"www.facebook.com\/silvercityfarmersmarket\/","Twitter":null,"Instagram":null,"Pinterest":null,"Youtube":"www.youtube.com\/channel\/UCTxVmxGRNXyVphALQ9b4KiA","Blog":null,"Address":"901 N Pope ST, Silver City, New Mexico 88061","State":"New Mexico","City":"Silver City","Street":"901 N Pope ST","Zip":"88061","Longitude":"-108.27618","Latitude":"32.774517","Dates":"Year-round","Products":"Fresh fruits, Fresh vegetables, Baked goods, Bedding plants, Canned or preserved fruits\/vegetables, Crafts\/woodworking items, Cut flowers, Dairy products., Eggs, Fresh\/dried herbs, Honey, Juices\/non-alcoholic ciders, Nursery stock, Nuts, Prepared foods, Red\/other non-poultry meat and products, Soap\/body care products"},{"Type":"farmers market","ModifyDate":"Sep 17th, 2020","Image":"default-farmersmarket-4-3.jpg","ListingID":"301341","Name":"Silver City Farmers' Market Midweek Market","Description":null,"ContactName":"Andrea Warner","ContactEmail":"silvercityfarmersmarket@gmail.com","ContactPhone":"575-313-2923","Website":"https:\/\/www.silvercityfarmersmarket.info\/","Facebook":"https:\/\/www.facebook.com\/silvercityfarmersmarket","Twitter":null,"Instagram":null,"Pinterest":null,"Youtube":null,"Blog":null,"Address":"3025 Highway 180 E, Silver City, NM 88061, Silver City, New Mexico 88061","State":"New Mexico","City":"Silver City","Street":"3025 Highway 180 E","Zip":"88061","Longitude":"-108.24248","Latitude":"32.787733","Dates":"May to October","Products":"Fresh fruits, Fresh vegetables, Baked goods, Canned or preserved fruits\/vegetables, Eggs, Fresh\/dried herbs, Honey, Nuts, Red\/other non-poultry meat and products"},{"Type":"on-farm market","ModifyDate":"Aug 23rd, 2014","Image":"default-onfarmmarket-4-3.jpg","ListingID":"700906","Name":"Potter's Ranch","Description":null,"ContactName":"Rob Shepler","ContactEmail":"rob@theriver.com","ContactPhone":"575-687-2343","Website":null,"Facebook":"https:\/\/www.facebook.com\/pages\/Potters-Ranch\/241999489144780?ref=bookmarks","Twitter":null,"Instagram":null,"Pinterest":null,"Youtube":null,"Blog":"http:\/\/pottersranch.wordpress.com\/","Address":"3757 US Hwy 82 , Mayhill, New Mexico 88339","State":"New Mexico","City":"Mayhill","Street":"3757 US Hwy 82","Zip":"88339","Longitude":"-105.44965","Latitude":"32.916604","Dates":null,"Products":""},{"Type":"on-farm market","ModifyDate":"Aug 27th, 2014","Image":"default-onfarmmarket-4-3.jpg","ListingID":"700012","Name":"Wagner Farms","Description":null,"ContactName":"Roxanne Wagner","ContactEmail":"roxanne@wagnerfarmscorrales.com","ContactPhone":"208-888-6161","Website":"www.wagnerfarmscorrales.com","Facebook":"https:\/\/www.facebook.com\/Wagnerfarms?ref=hl","Twitter":null,"Instagram":null,"Pinterest":null,"Youtube":null,"Blog":null,"Address":"5000 Corrales rd., Corrales, New Mexico 83646","State":"New Mexico","City":"Corrales","Street":"5000 Corrales rd.","Zip":"83646","Longitude":"-106.61141","Latitude":"35.2317680","Dates":null,"Products":""},{"Type":"on-farm market","ModifyDate":"Jan 27th, 2018","Image":"default-onfarmmarket-4-3.jpg","ListingID":"701440","Name":"The Fruit Basket","Description":null,"ContactName":"Eddie Velarde","ContactEmail":"ranchodesantafe6@gmail.com","ContactPhone":"5058522310","Website":null,"Facebook":null,"Twitter":null,"Instagram":null,"Pinterest":null,"Youtube":null,"Blog":null,"Address":"Highway 68, 1413, box 4, VELARDE, New Mexico 87582","State":"New Mexico","City":"VELARDE","Street":"Highway 68, 1413, box 4","Zip":"87582","Longitude":"-105.96974","Latitude":"36.165529","Dates":null,"Products":""},{"Type":"on-farm market","ModifyDate":"Jul 26th, 2014","Image":"default-onfarmmarket-4-3.jpg","ListingID":"700199","Name":"Windrush Alpacas","Description":null,"ContactName":"Rosemary Metcalf","ContactEmail":"windrush@plateautel.net","ContactPhone":"575-683-5177","Website":"www.windrushalpacas.com","Facebook":"https:\/\/www.facebook.com\/WindrushAlpacas","Twitter":"https:\/\/twitter.com\/WindrushAlpacas","Instagram":null,"Pinterest":null,"Youtube":null,"Blog":"http:\/\/alpacalady.wordpress.com\/","Address":"770 Curry Road M, Clovis, New Mexico 88101","State":"New Mexico","City":"Clovis","Street":"770 Curry Road M","Zip":"88101","Longitude":"-103.24983","Latitude":"34.374628","Dates":null,"Products":""},{"Type":"on-farm market","ModifyDate":"Jul 29th, 2014","Image":"default-onfarmmarket-4-3.jpg","ListingID":"700236","Name":"Dunhill Ranch All-Natural Grass-Fed Lamb","Description":null,"ContactName":"Pete Ditmars","ContactEmail":"sales@dunhillranch.com","ContactPhone":"575-854-2847","Website":"www.dunhillranch.com","Facebook":null,"Twitter":null,"Instagram":null,"Pinterest":null,"Youtube":null,"Blog":null,"Address":"Mile 1, Forest Rd 234, Magdalena, New Mexico 87825","State":"New Mexico","City":"Magdalena","Street":"Mile 1, Forest Rd 234","Zip":"87825","Longitude":"-107.28748","Latitude":"34.012144","Dates":null,"Products":""},{"Type":"on-farm market","ModifyDate":"Jul 9th, 2020","Image":"default-onfarmmarket-4-3.jpg","ListingID":"701536","Name":"Beck & Bulow","Description":null,"ContactName":"Chris David","ContactEmail":"support@beckandbulow.com","ContactPhone":"8006748426","Website":"https:\/\/www.beckandbulow.com","Facebook":"https:\/\/www.facebook.com\/beckandbulow\/","Twitter":"https:\/\/twitter.com\/beckandbulow","Instagram":null,"Pinterest":null,"Youtube":null,"Blog":"https:\/\/www.beckandbulow.com\/blog\/","Address":"1336 Jorgensen Lane, Unit #1, Santa Fe, New Mexico 87507","State":"New Mexico","City":"Santa Fe","Street":"1336 Jorgensen Lane, Unit #1","Zip":"87507","Longitude":"-105.93403","Latitude":"35.52727","Dates":null,"Products":""},{"Type":"on-farm market","ModifyDate":"Mar 2nd, 2022","Image":"default-onfarmmarket-4-3.jpg","ListingID":"701641","Name":"Bomvida Farms","Description":null,"ContactName":"Christopher Whitson","ContactEmail":"farm@bomvida.com","ContactPhone":"505-585-4137","Website":"http:\/\/bomvida.com","Facebook":"https:\/\/www.facebook.com\/BomvidaFarms","Twitter":"https:\/\/twitter.com\/bomvidafarms","Instagram":null,"Pinterest":null,"Youtube":null,"Blog":null,"Address":"23 Winery Rd, Bosque, New Mexico 87006","State":"New Mexico","City":"Bosque","Street":"23 Winery Rd","Zip":"87006","Longitude":"-106.80763","Latitude":"34.522685","Dates":null,"Products":""},{"Type":"on-farm market","ModifyDate":"Sep 3rd, 2014","Image":"default-onfarmmarket-4-3.jpg","ListingID":"701017","Name":"J&L Gardens","Description":null,"ContactName":"Lee Goodwin","ContactEmail":"goodwin@operamail.com","ContactPhone":"(505) 753-7713","Website":"http:\/\/www.jandlgardens.com","Facebook":"www.facebook.com\/pages\/J-L-Gardens\/253306811388712","Twitter":null,"Instagram":null,"Pinterest":null,"Youtube":null,"Blog":"http:\/\/www.jandlgardens.com\/wordpress","Address":", Espanola, New Mexico","State":"New Mexico","City":"Espanola","Street":null,"Zip":null,"Longitude":"-106.06580","Latitude":"36.003598","Dates":null,"Products":""}]