[{"Type":"on-farm market","ModifyDate":"Aug 23rd, 2014","Image":"default-onfarmmarket-4-3.jpg","ListingID":"700906","Name":"Potter's Ranch","Description":null,"ContactName":"Rob Shepler","ContactEmail":"rob@theriver.com","ContactPhone":"575-687-2343","Website":null,"Facebook":"https:\/\/www.facebook.com\/pages\/Potters-Ranch\/241999489144780?ref=bookmarks","Twitter":null,"Instagram":null,"Pinterest":null,"Youtube":null,"Blog":"http:\/\/pottersranch.wordpress.com\/","Address":"3757 US Hwy 82 , Mayhill, New Mexico 88339","State":"New Mexico","City":"Mayhill","Street":"3757 US Hwy 82","Zip":"88339","Longitude":"-105.44965","Latitude":"32.916604","Dates":null,"Products":""},{"Type":"on-farm market","ModifyDate":"Aug 27th, 2014","Image":"default-onfarmmarket-4-3.jpg","ListingID":"700012","Name":"Wagner Farms","Description":null,"ContactName":"Roxanne Wagner","ContactEmail":"roxanne@wagnerfarmscorrales.com","ContactPhone":"208-888-6161","Website":"www.wagnerfarmscorrales.com","Facebook":"https:\/\/www.facebook.com\/Wagnerfarms?ref=hl","Twitter":null,"Instagram":null,"Pinterest":null,"Youtube":null,"Blog":null,"Address":"5000 Corrales rd., Corrales, New Mexico 83646","State":"New Mexico","City":"Corrales","Street":"5000 Corrales rd.","Zip":"83646","Longitude":"-106.61141","Latitude":"35.2317680","Dates":null,"Products":""},{"Type":"on-farm market","ModifyDate":"Jan 27th, 2018","Image":"default-onfarmmarket-4-3.jpg","ListingID":"701440","Name":"The Fruit Basket","Description":null,"ContactName":"Eddie Velarde","ContactEmail":"ranchodesantafe6@gmail.com","ContactPhone":"5058522310","Website":null,"Facebook":null,"Twitter":null,"Instagram":null,"Pinterest":null,"Youtube":null,"Blog":null,"Address":"Highway 68, 1413, box 4, VELARDE, New Mexico 87582","State":"New Mexico","City":"VELARDE","Street":"Highway 68, 1413, box 4","Zip":"87582","Longitude":"-105.96974","Latitude":"36.165529","Dates":null,"Products":""},{"Type":"on-farm market","ModifyDate":"Jul 26th, 2014","Image":"default-onfarmmarket-4-3.jpg","ListingID":"700199","Name":"Windrush Alpacas","Description":null,"ContactName":"Rosemary Metcalf","ContactEmail":"windrush@plateautel.net","ContactPhone":"575-683-5177","Website":"www.windrushalpacas.com","Facebook":"https:\/\/www.facebook.com\/WindrushAlpacas","Twitter":"https:\/\/twitter.com\/WindrushAlpacas","Instagram":null,"Pinterest":null,"Youtube":null,"Blog":"http:\/\/alpacalady.wordpress.com\/","Address":"770 Curry Road M, Clovis, New Mexico 88101","State":"New Mexico","City":"Clovis","Street":"770 Curry Road M","Zip":"88101","Longitude":"-103.24983","Latitude":"34.374628","Dates":null,"Products":""},{"Type":"on-farm market","ModifyDate":"Jul 29th, 2014","Image":"default-onfarmmarket-4-3.jpg","ListingID":"700236","Name":"Dunhill Ranch All-Natural Grass-Fed Lamb","Description":null,"ContactName":"Pete Ditmars","ContactEmail":"sales@dunhillranch.com","ContactPhone":"575-854-2847","Website":"www.dunhillranch.com","Facebook":null,"Twitter":null,"Instagram":null,"Pinterest":null,"Youtube":null,"Blog":null,"Address":"Mile 1, Forest Rd 234, Magdalena, New Mexico 87825","State":"New Mexico","City":"Magdalena","Street":"Mile 1, Forest Rd 234","Zip":"87825","Longitude":"-107.28748","Latitude":"34.012144","Dates":null,"Products":""},{"Type":"on-farm market","ModifyDate":"Jul 9th, 2020","Image":"default-onfarmmarket-4-3.jpg","ListingID":"701536","Name":"Beck & Bulow","Description":null,"ContactName":"Chris David","ContactEmail":"support@beckandbulow.com","ContactPhone":"8006748426","Website":"https:\/\/www.beckandbulow.com","Facebook":"https:\/\/www.facebook.com\/beckandbulow\/","Twitter":"https:\/\/twitter.com\/beckandbulow","Instagram":null,"Pinterest":null,"Youtube":null,"Blog":"https:\/\/www.beckandbulow.com\/blog\/","Address":"1336 Jorgensen Lane, Unit #1, Santa Fe, New Mexico 87507","State":"New Mexico","City":"Santa Fe","Street":"1336 Jorgensen Lane, Unit #1","Zip":"87507","Longitude":"-105.93403","Latitude":"35.52727","Dates":null,"Products":""},{"Type":"on-farm market","ModifyDate":"Mar 2nd, 2022","Image":"default-onfarmmarket-4-3.jpg","ListingID":"701641","Name":"Bomvida Farms","Description":null,"ContactName":"Christopher Whitson","ContactEmail":"farm@bomvida.com","ContactPhone":"505-585-4137","Website":"http:\/\/bomvida.com","Facebook":"https:\/\/www.facebook.com\/BomvidaFarms","Twitter":"https:\/\/twitter.com\/bomvidafarms","Instagram":null,"Pinterest":null,"Youtube":null,"Blog":null,"Address":"23 Winery Rd, Bosque, New Mexico 87006","State":"New Mexico","City":"Bosque","Street":"23 Winery Rd","Zip":"87006","Longitude":"-106.80763","Latitude":"34.522685","Dates":null,"Products":""},{"Type":"on-farm market","ModifyDate":"Sep 3rd, 2014","Image":"default-onfarmmarket-4-3.jpg","ListingID":"701017","Name":"J&L Gardens","Description":null,"ContactName":"Lee Goodwin","ContactEmail":"goodwin@operamail.com","ContactPhone":"(505) 753-7713","Website":"http:\/\/www.jandlgardens.com","Facebook":"www.facebook.com\/pages\/J-L-Gardens\/253306811388712","Twitter":null,"Instagram":null,"Pinterest":null,"Youtube":null,"Blog":"http:\/\/www.jandlgardens.com\/wordpress","Address":", Espanola, New Mexico","State":"New Mexico","City":"Espanola","Street":null,"Zip":null,"Longitude":"-106.06580","Latitude":"36.003598","Dates":null,"Products":""}]