[{"type":"farm","street":"6405 109th Avenue","city":"South Haven","state":"MI","zip":"49090","longitude":"-86.169217","latitude":"42.483804","name":"A.W. Overhiser Orchards","website":"www.overhiserorchards.com","facebook":"www.facebook.com/OverhiserOrchards","twitter":"","tags":"baked-goods canned preserved coffee tea cut-flowers eggs fresh-fruits fresh-vegetables honey juices ciders maple-products nuts poultry fowl soap body-care"},{"type":"farm","street":"69676 Cr376 (40th Ave)","city":"Hartford","state":"MI","zip":"49057","longitude":"-86.220746","latitude":"42.257492","name":"Adams Farms","website":"www.facebook.com/Adams.Blueberry.Farms","facebook":"https://www.facebook.com/Adams.Blueberry.Farms","twitter":"","tags":"fresh-fruits maple-products"},{"type":"farm","street":"7964 Daus Rd.","city":"Cass City","state":"MI","zip":"48726","longitude":"-83.118298","latitude":"43.645862","name":"Battel's Sugar Bush and Heritage Farm","website":"www.battelsyrup.weebly.com","facebook":"https://www.facebook.com/battelsyrup","twitter":"","tags":"maple-products"},{"type":"farm","street":"849 N. Aurelius Road","city":"Mason","state":"MI","zip":"48854","longitude":"-84.5267180","latitude":"42.6017140","name":"Beery Farms of Michigan LLC","website":"","facebook":"","twitter":"","tags":"red-meat non-poultry-meat"},{"type":"farm","street":"10844 E Revold Road","city":"Suttons Bay","state":"MI","zip":"49682","longitude":"-85.637741","latitude":"44.940501","name":"Black Star Farms","website":"www.blackstarfarms.com","facebook":"","twitter":"","tags":"baked-goods coffee tea prepared-foods wine spirits beer hard-cider"},{"type":"farm","street":"13240 Blueberry Lane","city":"Otter Lake","state":"MI","zip":"48464","longitude":"-83.4703358","latitude":"43.1983610","name":"Blueberry Lane Farms","website":"www.blueberrylanefarms.com","facebook":"Blueberry Lane Farms","twitter":"","tags":"baked-goods canned preserved coffee tea honey juices ciders maple-products prepared-foods"},{"type":"farm","street":"71269 Bauman Rd","city":"Sturgis ","state":"MI","zip":"49091","longitude":"-85.3379395","latitude":"41.7610830","name":"Borderline Farm","website":"http://borderline.farm","facebook":"https://www.facebook.com/BorderlineFarm.MI","twitter":"","tags":"baked-goods canned preserved crafts woodworking eggs fresh-fruits fresh-vegetables honey wild-harvested forest-products"},{"type":"farm","street":"6300 Rea Rd","city":"Dundee","state":"MI","zip":"48131","longitude":"-83.722228","latitude":"41.986419","name":"BP Farms","website":"","facebook":"http://www.facebook.com/BPFarmsLLC/","twitter":"","tags":"eggs fresh-vegetables grains flour poultry fowl red-meat non-poultry-meat"},{"type":"farm","street":"5885 Lake George Rd","city":"Dryden","state":"MI","zip":"48428","longitude":"-83.181137","latitude":"42.890544","name":"Brandywine Farm Nursery","website":"brandywinefarmnursery.com","facebook":"https://www.facebook.com/BrandywineFarmNursery","twitter":"","tags":"bedding plants cut-flowers eggs herbs fresh-vegetables honey nursery-stock poultry fowl"},{"type":"farm","street":"2883 Wilder Road","city":"Metamora","state":"MI","zip":"48083","longitude":"-83.2413567","latitude":"42.9761288","name":"BRASS RING BEEF","website":"www.parksshowcattle.com","facebook":"https://www.facebook.com/brassringbeef","twitter":"","tags":""},{"type":"farm","street":"17505 Roosevelt Rd","city":"Hemlock","state":"MI","zip":"48626","longitude":"-84.259970","latitude":"43.361975","name":"Brenskes Blueberries","website":"","facebook":"https://www.facebook.com/pages/Brenskes-Blueberry-Farm/386802954774918?sk=timeline","twitter":"","tags":"fresh-fruits"},{"type":"farm","street":"7845 Bordman Road","city":"Almont","state":"MI","zip":"48003","longitude":"-83.029178","latitude":"42.890456","name":"Brookwood Fruit Farm","website":"www.brookwoodfruitfarm.com","facebook":"http://www.facebook.com/pages/Brookwood-Fruit-Farm/109942475759366","twitter":"","tags":"fresh-fruits honey"},{"type":"farm","street":"3441 South Morton Road","city":"Ludington","state":"MI","zip":"49431","longitude":"-86.358937","latitude":"43.891499","name":"Christofferson Farms","website":"","facebook":"","twitter":"","tags":"fresh-fruits honey"},{"type":"farm","street":"3000 Brown Lane","city":"Highland","state":"MI","zip":"48357","longitude":"-83.662443","latitude":"42.661046","name":"Clor's Greenhouse","website":"","facebook":"","twitter":"","tags":"fresh-vegetables"},{"type":"farm","street":"2724 N Lewis Rd","city":"Coleman","state":"MI","zip":"48618","longitude":"-84.566845","latitude":"43.690128","name":"Coon's Berry Farm","website":"www.coonsberryfarm.com","facebook":"","twitter":"","tags":"fresh-fruits"},{"type":"farm","street":"4160 US131 South","city":"Petoskey","state":"MI","zip":"49770","longitude":"-84.966729","latitude":"45.317777","name":"Coveyou Scenic Farm Market","website":"coveyouscenicfarm.com","facebook":"https://www.facebook.com/pages/Coveyou-Scenic-Farm-Market/362874771540","twitter":"","tags":"bedding plants canned preserved coffee tea crafts woodworking cut-flowers dry beans herbs fresh-fruits fresh-vegetables grains flour honey juices ciders maple-products nuts prepared-foods"},{"type":"farm","street":"6500 Rollenhagen Rd","city":"Ravenna","state":"MI","zip":"49451","longitude":"-85.994367","latitude":"43.134669","name":"Creswick Farms","website":"www.CreswickFarms.com","facebook":"https://www.facebook.com/CreswickFarms","twitter":"","tags":"eggs pet-food poultry fowl red-meat non-poultry-meat"},{"type":"farm","street":"14475 Quincy Street","city":"Holland","state":"MI","zip":"49424","longitude":"-86.1396032","latitude":"42.8411303","name":"deBerry Shack","website":"","facebook":"www.facebook.com/deBerryShack","twitter":"","tags":"crafts woodworking cut-flowers herbs fresh-fruits fresh-vegetables"},{"type":"farm","street":"13078 Windy Hollow","city":"Brighton Township","state":"MI","zip":"48380","longitude":"-83.691015","latitude":"42.533793","name":"Destiny Farm- FarmStand","website":"","facebook":"","twitter":"","tags":"bedding plants dry beans herbs fresh-vegetables honey poultry fowl"},{"type":"farm","street":"6967 109th Avenue","city":"South Haven","state":"MI","zip":"49090","longitude":"-86.2247478","latitude":"42.4838629","name":"Dutch Farm Market","website":"","facebook":"https://www.facebook.com/pages/Dutch-Farm-Market/270598596340448","twitter":"","tags":"baked-goods canned preserved coffee tea crafts woodworking cut-flowers dairy products eggs herbs fresh-fruits fresh-vegetables honey juices ciders maple-products"},{"type":"farm","street":"302 Thumb Lake Rd","city":"Vanderbilt","state":"MI","zip":"49795","longitude":"-84.680748","latitude":"45.186933","name":"English Orchards & Family Farm","website":"","facebook":"","twitter":"","tags":"baked-goods crafts woodworking cut-flowers eggs herbs fresh-fruits fresh-vegetables honey juices ciders mushrooms poultry fowl red-meat non-poultry-meat soap body-care"},{"type":"farm","street":"1824 66th St.","city":"Fennville","state":"MI","zip":"49408","longitude":"-86.1892542","latitude":"42.5511441","name":"Evergreen Lane Farm & Creamery","website":"www.evergreenlanefarm.com","facebook":"www.Facebook.com/EvergreenLaneArtisanCheese","twitter":"","tags":"dairy products fresh-fruits"},{"type":"farm","street":"4295 Moyer Road","city":"Williamston","state":"MI","zip":"48895","longitude":"-84.2000890","latitude":"42.7082229","name":"FlowerEssence of Blue Barn Farm","website":"","facebook":"https://www.facebook.com/FlowerEssenceLlcAndBlueBarnFarmMarket?ref=hl","twitter":"","tags":""},{"type":"farm","street":"8249 Deans Hill Road","city":"Berrien Center","state":"MI","zip":"49102","longitude":"-86.258689","latitude":"41.957279","name":"Frank Farms","website":"www.frankfarms.com","facebook":"https://www.facebook.com/pages/Frank-Farms/321419985624","twitter":"","tags":"fresh-fruits fresh-vegetables honey"},{"type":"farm","street":"Friesian Lane","city":"Lakeview","state":"MI","zip":"48850","longitude":"-85.253005","latitude":"43.349196","name":"Fresh Whole Rabbit","website":"www.catalayarabbitry.weebly.com","facebook":"https://www.facebook.com/catalayasrabbitry","twitter":"","tags":"baked-goods canned preserved eggs herbs fresh-vegetables pet-food poultry fowl soap body-care"},{"type":"farm","street":"3728 S. Morey Road","city":"Lake City","state":"MI","zip":"49651","longitude":"-85.2150385","latitude":"44.2847493","name":"Friends Farm","website":"friendsministry.net","facebook":"https://www.facebook.com/FriendsMinistryLC","twitter":"","tags":"fresh-fruits fresh-vegetables"},{"type":"farm","street":"2073 S M 65","city":"Whittemore","state":"MI","zip":"48770","longitude":"-83.802520","latitude":"44.216309","name":"Frontier Farms","website":"michiganfrontierfarms.com","facebook":"","twitter":"","tags":"baked-goods canned preserved coffee tea cut-flowers eggs herbs fresh-fruits fresh-vegetables soap body-care"},{"type":"farm","street":"3452 Friday Rd.","city":"Coloma","state":"MI","zip":"49038","longitude":"-86.3064067","latitude":"42.1744010","name":"Fruit Acres Farm Market & U-Pick","website":"fruitacresfarms.com","facebook":"https://www.facebook.com/fruitacres/","twitter":"","tags":"baked-goods canned preserved cut-flowers fresh-fruits fresh-vegetables honey juices ciders"},{"type":"farm","street":"11966 Fruit Ridge Ave.","city":"Kent City","state":"MI","zip":"49330","longitude":"-85.769231","latitude":"43.183267","name":"Fruit Ridge Hayrides LLC","website":"www.fruitridgehayrides.com","facebook":"https://www.facebook.com/fruitridge.hayrides","twitter":"","tags":"fresh-fruits fresh-vegetables juices ciders prepared-foods"},{"type":"farm","street":"5696 W Townline Rd","city":"Pickford","state":"MI","zip":"49774","longitude":"-84.4816159","latitude":"46.1582650","name":"Galloway's Red Clay Ranch","website":"","facebook":"Galloway's Red Clay Ranch","twitter":"","tags":"baked-goods cut-flowers eggs herbs fresh-vegetables honey maple-products red-meat non-poultry-meat wild-harvested forest-products"},{"type":"farm","street":"431 S Littlefield Rd","city":"Mount Pleasant","state":"MI","zip":"48858","longitude":"-84.948278","latitude":"43.633948","name":"GCC Organics","website":"gccorganics.com","facebook":"https://www.facebook.com/gcc.organics","twitter":"","tags":"canned preserved dry beans eggs fresh-fruits fresh-vegetables grains flour poultry fowl red-meat non-poultry-meat"},{"type":"farm","street":"11901 South Greenville Rd","city":"Greenville","state":"MI","zip":"48838","longitude":"-85.2630340","latitude":"43.1209267","name":"Good Land Growers","website":"Http://www.goodlandgrowers.com","facebook":"https://www.facebook.com/GoodLandGrowers","twitter":"","tags":"canned preserved fresh-fruits honey"},{"type":"farm","street":"8416 Gale Rd","city":"Goodrich","state":"MI","zip":"48438","longitude":"-83.534492","latitude":"42.906654","name":"Goodrich Acres","website":"","facebook":"","twitter":"","tags":"eggs"},{"type":"farm","street":"3654 E. Weidman Rd.","city":"Rosebush","state":"MI","zip":"48878","longitude":"-84.773415","latitude":"43.683767","name":"Graham's Organics","website":"grahamsorganics.com","facebook":"","twitter":"","tags":"dairy products eggs poultry fowl red-meat non-poultry-meat"},{"type":"farm","street":"10724 Grange Ave NE","city":"Rockford","state":"MI","zip":"49341","longitude":"-85.625363","latitude":"43.159966","name":"Grange Fruit Farm","website":"grangefruit.com","facebook":"Grange Fruit Farm","twitter":"","tags":"fresh-fruits"},{"type":"farm","street":"11299 Grand River Avenue","city":"Brighton","state":"MI","zip":"48116","longitude":"-83.7271648","latitude":"42.5159990","name":"Green Oak Farmers and Community Market","website":"www.facebook.com/GreenOakMarket","facebook":"www.facebook.com/GreenOakMarket","twitter":"","tags":"baked-goods bedding plants canned preserved coffee tea crafts woodworking cut-flowers dairy products eggs herbs fresh-fruits fresh-vegetables honey juices ciders maple-products nuts poultry fowl prepared-foods red-meat non-poultry-meat soap body-care"},{"type":"farm","street":"9800 Youngs Rd.","city":"Quincy","state":"MI","zip":"49082","longitude":"-84.8045536","latitude":"41.9123800","name":"Greener Grass Farms","website":"www.greenergrassfarms.com","facebook":"","twitter":"","tags":"eggs honey maple-products poultry fowl red-meat non-poultry-meat"},{"type":"farm","street":"1425 N. State Rd. (M-66) at the corner of Dildine","city":"Ionia","state":"MI","zip":"48846","longitude":"-85.075274","latitude":"43.008938","name":"Hanulcik Farm Market","website":"www.farm-grown.com","facebook":"","twitter":"","tags":"fresh-fruits fresh-vegetables"},{"type":"farm","street":"10423 Vergennes St","city":"Lowell","state":"MI","zip":"49331","longitude":"-85.410060","latitude":"42.958307","name":"Happy Buddha Farm, LLC","website":"www.happybuddhafarm.com","facebook":"facebook.com/happybuddhafarm","twitter":"","tags":"cut-flowers dry beans fresh-fruits fresh-vegetables maple-products"},{"type":"farm","street":"12751 E Baseline Rd","city":"Hickory Corners ","state":"MI","zip":"49060","longitude":"-85.382163","latitude":"42.419918","name":"Hickory Corners Homestead","website":"www.hickorycornershomestead.com","facebook":"www.facebook.com/HickoryCornersHomestead","twitter":"","tags":"eggs herbs fresh-vegetables grains flour honey maple-products soap body-care wild-harvested forest-products"},{"type":"farm","street":"175 Olsen Rd","city":"Gwinn ","state":"MI","zip":"49841","longitude":"-87.398745","latitude":"46.405359","name":"Homestead Honey Farm","website":"","facebook":"https://www.facebook.com/HomesteadHoneyFarm","twitter":"","tags":"honey"},{"type":"farm","street":"","city":"Clare","state":"MI","zip":"48617","longitude":"-84.768971","latitude":"43.851510","name":"Honor Box Produce by Crawford Farms","website":"http://www.MichiganFarmFreshProduce.com","facebook":"https://www.facebook.com/MichiganFarmMarket","twitter":"","tags":"baked-goods canned preserved crafts woodworking cut-flowers dairy products eggs herbs fresh-fruits fresh-vegetables honey maple-products"},{"type":"farm","street":"N8536 Pelkey Rd K 3","city":"Stephenson","state":"MI","zip":"49887","longitude":"-87.547894","latitude":"45.421889","name":"Immerfrost Farm","website":"ImmerfrostFarm.com","facebook":"http://goo.gl/qlvwg","twitter":"https://www.twitter.com/ImmerfrostFarm","tags":"bedding plants cut-flowers herbs fresh-fruits fresh-vegetables"},{"type":"farm","street":"2060 Bladwin Road","city":"Lapeer","state":"MI","zip":"48446","longitude":"-83.340607","latitude":"42.997927","name":"Ives Organics","website":"","facebook":"www.Facebook.com/IvesOrganics ","twitter":"","tags":"fresh-fruits"},{"type":"farm","street":"4680 Fitzpatrick Rd","city":"Hillsdale","state":"MI","zip":"49242","longitude":"-84.701342","latitude":"41.944006","name":"K's Acres - A North Sand Lake Fruit and Berry Farm","website":"K's Acres@facebook.com ","facebook":"https://www.facebook.com/pages/Ks-Acres-Orchard-A-North-Sand-lake-Fruit-and-Berry-farm/147653817831","twitter":"","tags":"bedding plants canned preserved fresh-fruits fresh-vegetables nursery-stock"},{"type":"farm","street":"16682 Schwark Rd","city":"Three Oaks","state":"MI","zip":"49128","longitude":"-86.6295918","latitude":"41.8138326","name":"Kaminski Farms Meats","website":"www.kaminskifarmsmeats.com","facebook":"https://www.facebook.com/KaminskiFarmsMeatsKaminski","twitter":"","tags":"honey poultry fowl red-meat non-poultry-meat"},{"type":"farm","street":"4781 Powell Road","city":"Kewadin","state":"MI","zip":"49648","longitude":"-85.332570","latitude":"44.961640","name":"Kastanu Farm","website":"kastanufarm@aol.com","facebook":"","twitter":"","tags":"nuts"},{"type":"farm","street":"130 Hastings Ct","city":"Bangor ","state":"MI","zip":"49013","longitude":"-86.106671","latitude":"42.321930","name":"Kitipi Farm, llc","website":"","facebook":"Kitipi Farm, llc","twitter":"","tags":"crafts woodworking fresh-vegetables wild-harvested forest-products"},{"type":"farm","street":"11466 W Carson City Rd.","city":"Greenville","state":"MI","zip":"48838","longitude":"-85.297866","latitude":"43.177077","name":"Klackle Orchards","website":"www.klackleorchards.com","facebook":"www.facebook.com/klackleorchards","twitter":"www.twitter.com/klackleorchards","tags":"baked-goods canned preserved coffee tea dairy products fresh-fruits fresh-vegetables honey juices ciders maple-products prepared-foods soap body-care"},{"type":"farm","street":"1067 Somer Road","city":"Lyons","state":"MI","zip":"48851","longitude":"-84.980334","latitude":"42.972623","name":"KlineKrest Certified Organic Produce","website":"http://www.klinekrestcertifiedorganicproduce.com/","facebook":"","twitter":"","tags":"baked-goods canned preserved cut-flowers herbs fresh-fruits fresh-vegetables juices ciders nuts wild-harvested forest-products"},{"type":"farm","street":"16530 Hall Rd","city":"Casnovia","state":"MI","zip":"49318","longitude":"-85.8366985","latitude":"43.2494138","name":"L& L Bull","website":"llbull","facebook":"L&LBull ","twitter":"","tags":"eggs fresh-fruits fresh-vegetables"},{"type":"farm","street":"1219 Morris Dr. (lower level, rear)","city":"Niles","state":"MI","zip":"49120","longitude":"-86.301255","latitude":"41.839746","name":"Lavender Hill Farm of Niles, MI LLC","website":"www.thelavenderhill.com","facebook":"https://www.facebook.com/thelavenderhill","twitter":"","tags":"cut-flowers honey nursery-stock soap body-care"},{"type":"farm","street":"4180 W. M-20 (stony Lake Road)","city":"New Era","state":"MI","zip":"49446","longitude":"-86.388669","latitude":"43.558496","name":"Lewis Farm Market & Petting Farm","website":"http://lewisfarmmarket.com/","facebook":"https://www.facebook.com/LewisFarmMarket","twitter":"","tags":"baked-goods canned preserved crafts woodworking dairy products fresh-fruits fresh-vegetables juices ciders maple-products prepared-foods"},{"type":"farm","street":"2290 E Madison Rd","city":"St. Louis","state":"MI","zip":"48880","longitude":"-84.565644","latitude":"43.422010","name":"Madison Road Produce, LLC","website":"http://www.madisonroadproduce.com","facebook":"http://www.facebook.com/madisonroadproduce","twitter":"","tags":"fresh-fruits fresh-vegetables"},{"type":"farm","street":"","city":"sidney","state":"MI","zip":"","longitude":"-85.193087","latitude":"43.257295","name":"Maia Organics","website":"","facebook":"","twitter":"","tags":"baked-goods bedding plants cut-flowers eggs herbs fresh-vegetables soap body-care"},{"type":"farm","street":"1460 W Wardlow Rd","city":"Highland","state":"MI","zip":"48357","longitude":"-83.6356530","latitude":"42.6555660","name":"Maria & David Huff Farm Products","website":"","facebook":"https://m.facebook.com/profile.php?id=222802057812310&ref=bookmark","twitter":"","tags":"eggs fresh-vegetables poultry fowl red-meat non-poultry-meat wild-harvested forest-products"},{"type":"farm","street":"22460 Garfield Road","city":"Northville","state":"MI","zip":"48167","longitude":"-83.5318160","latitude":"42.4511380","name":"Michigan Flower Farm","website":"http://michiganflowerfarm.com/flowers/index.php?main_page=","facebook":"","twitter":"","tags":"cut-flowers"},{"type":"farm","street":"1048 Sarah Dr.","city":"Pinckney","state":"MI","zip":"48169","longitude":"-83.9208522","latitude":"42.4257150","name":"Michigan Garlic Farm","website":"www.michigangarlicfarm.com","facebook":"michigan garlic","twitter":"","tags":""},{"type":"farm","street":"3404 Mitchell Road","city":"Holly","state":"MI","zip":"48442","longitude":"-83.630219","latitude":"42.849441","name":"Mitchell Farm","website":"www.mitchellfarm.biz","facebook":"","twitter":"","tags":"bedding plants"},{"type":"farm","street":"0-9265 Kenowa Ave SW","city":"Grand Rapids","state":"MI","zip":"49534","longitude":"-85.7839190","latitude":"42.9371423","name":"Moelker Orchards & Farm Market LLC","website":"www.moelkerorchards.com","facebook":"www.Facebook.com/MoelkerOrchards","twitter":"","tags":"baked-goods canned preserved coffee tea dairy products fresh-fruits fresh-vegetables honey juices ciders maple-products"},{"type":"farm","street":"5790 N. Omena Rise","city":"Omena","state":"MI","zip":"49674","longitude":"-85.600037","latitude":"45.069524","name":"New Mission Organics","website":"http://www.newmissionorganics.com/","facebook":"https://www.facebook.com/MI.Hop.Alliance","twitter":"https://www.twitter.com/michiganhops","tags":""},{"type":"farm","street":"3151 Niles Avenue (M63)","city":"Saint Joseph","state":"MI","zip":"49085","longitude":"-86.459915","latitude":"42.060280","name":"Nye's Apple Barn and Farms","website":"www.nyesapplebarn.com","facebook":"www.facebook.com/NyesAppleBarn","twitter":"","tags":"baked-goods canned preserved fresh-fruits fresh-vegetables honey juices ciders maple-products"},{"type":"farm","street":"4980 South 52nd Avenue","city":"New Era","state":"MI","zip":"49446","longitude":"-86.4275015","latitude":"43.5553953","name":"Oceana Winery & Vineyard","website":"www.oceanawinery.com","facebook":"https://www.facebook.com/pages/Oceana-Winery-Vineyard/180943698619727","twitter":"","tags":"wine spirits beer hard-cider"},{"type":"farm","street":"130 Orchard Trail","city":"Quincy","state":"MI","zip":"49082","longitude":"-84.912234","latitude":"41.890472","name":"Orchard Beach Farm","website":"www.farmermaps.com","facebook":"","twitter":"","tags":"fresh-fruits"},{"type":"farm","street":"6110 Robertson Rd","city":"Middleville","state":"MI","zip":"49333","longitude":"-85.4274459","latitude":"42.7417363","name":"Origins Hobby Farm","website":"Www.orriginshobbyfarm.com","facebook":"https://www.facebook.com/originshobbyfarm","twitter":"https://www.twitter.com/originshf","tags":"bedding plants canned preserved eggs herbs fresh-fruits fresh-vegetables honey poultry fowl soap body-care wild-harvested forest-products"},{"type":"farm","street":"3909 S Summerton Road","city":"Mt. Pleasant","state":"MI","zip":"48858","longitude":"-84.719181","latitude":"43.571437","name":"Papaxe2x80x99s Pumpkin Patch","website":"papaspumpkinpatch@yahoo.com","facebook":"","twitter":"","tags":"baked-goods bedding plants canned preserved coffee tea fresh-fruits fresh-vegetables honey juices ciders"},{"type":"farm","street":"3409 E Vernor","city":"Detroit","state":"MI","zip":"48207","longitude":"-83.102237","latitude":"42.383037","name":"Peace Tree Parks","website":"www.PeaceTreeParks.org","facebook":"https://www.facebook.com/peacetreeparks/","twitter":"","tags":"canned preserved fresh-vegetables"},{"type":"farm","street":"3565 Elder Rd.","city":"Carp Lake","state":"MI","zip":"49718","longitude":"-84.843103","latitude":"45.709447","name":"Peaceful Produce","website":"","facebook":"Peaceful Produce","twitter":"","tags":"baked-goods bedding plants canned preserved coffee tea crafts woodworking cut-flowers eggs fish seafood herbs fresh-fruits fresh-vegetables mushrooms prepared-foods red-meat non-poultry-meat soap body-care wild-harvested forest-products"},{"type":"farm","street":"11854 Peacock Road","city":"Laingsburg","state":"MI","zip":"48848","longitude":"-84.369377","latitude":"42.844666","name":"Peacock Road Family Farm","website":"www.peacockrff.com","facebook":"www.facebook.com/peacockroadtreefarm","twitter":"","tags":""},{"type":"farm","street":"5408 W. Grand River Rd.","city":"Lansing","state":"MI","zip":"48906","longitude":"-84.628209","latitude":"42.777257","name":"Peckham Farms","website":"http://www.peckham.org/Business-Operations/Peckham-Farms.aspx/","facebook":"https://www.facebook.com/Peckham.Farms","twitter":"","tags":"bedding plants cut-flowers fresh-fruits fresh-vegetables"},{"type":"farm","street":"1174 W Gratiot County Line Rd","city":"Saint Johns","state":"MI","zip":"48879","longitude":"-84.622316","latitude":"43.117405","name":"Phillips Orchards & Cider Mill","website":"www.phillipsorchards.com","facebook":"https://www.facebook.com/PhillipsOrchards","twitter":"https://twitter.com/phillipsorchard","tags":"baked-goods canned preserved crafts woodworking fresh-fruits honey juices ciders maple-products soap body-care"},{"type":"farm","street":"3824 E. Napier Ave.","city":"Benton Harbor","state":"MI","zip":"49022","longitude":"-86.3656372","latitude":"42.0906298","name":"Piggott's Farm Market & Bakery","website":"www.piggottsfarmmarket.com","facebook":"https://www.facebook.com/piggottsfarmmarketbakery","twitter":"https://twitter.com/piggottsproduce","tags":"baked-goods bedding plants canned preserved coffee tea cut-flowers dairy products eggs herbs fresh-fruits fresh-vegetables honey juices ciders maple-products"},{"type":"farm","street":"5859 124th Ave.","city":"Fennville","state":"MI","zip":"49408","longitude":"-86.1198859","latitude":"42.5942229","name":"Pleasant Hill Farm","website":"http://www.pleasanthillblueberryfarm.com/","facebook":"https://www.facebook.com/pages/Pleasant-Hill-Farm/82478554686?ref=hl","twitter":"","tags":"eggs fresh-fruits honey maple-products"},{"type":"farm","street":"2398 Vandermark Rd","city":"Bellaire","state":"MI","zip":"49615","longitude":"-85.2418749","latitude":"44.9987500","name":"Raven's Roost Farm","website":"","facebook":"https://www.facebook.com/pages/Ravens-Roost-Farm/244514162293833","twitter":"","tags":"maple-products poultry fowl red-meat non-poultry-meat"},{"type":"farm","street":"44 72nd Street","city":"South Haven","state":"MI","zip":"49090","longitude":"-86.2460946","latitude":"42.4254424","name":"Riverbend Farms","website":"greatberries.net","facebook":"","twitter":"","tags":"canned preserved fresh-fruits maple-products nuts"},{"type":"farm","street":"301 Nelson Road","city":"Iron River","state":"MI","zip":"49935","longitude":"-88.5334027","latitude":"46.0944389","name":"S&C Nelson Farm","website":"","facebook":"","twitter":"","tags":""},{"type":"farm","street":"4763 Baldwin St","city":"Hudsonville","state":"MI","zip":"49426","longitude":"-85.900775","latitude":"42.907060","name":"Salad Central","website":"","facebook":"Salad Central","twitter":"","tags":"baked-goods fresh-vegetables"},{"type":"farm","street":"3056 West Buchanan","city":"Shelby","state":"MI","zip":"49455","longitude":"-86.3542400","latitude":"43.6310020","name":"Satterlee Small Fruits","website":"","facebook":"","twitter":"","tags":"fresh-fruits"},{"type":"farm","street":"1185 9 Mile Rd. NW","city":"Sparta","state":"MI","zip":"49345","longitude":"-85.697411","latitude":"43.101815","name":"Schwalliers Country Basket","website":"","facebook":"https://www.facebook.com/pages/Schwalliers-Country-Basket/57481257124","twitter":"","tags":"baked-goods canned preserved fresh-fruits honey juices ciders maple-products soap body-care"},{"type":"farm","street":"13275 Blair Street","city":"Holland","state":"MI","zip":"49424","longitude":"-86.111787","latitude":"42.892902","name":"Shady Side Farm","website":"http://www.shadysidefarm.com","facebook":"https://www.facebook.com/shadysidefarm","twitter":"","tags":"crafts woodworking dry beans"},{"type":"farm","street":"12602 Center Road","city":"Traverse City","state":"MI","zip":"49686","longitude":"-85.5152461","latitude":"44.8701943","name":"Shangrila Too","website":"","facebook":"","twitter":"","tags":"baked-goods canned preserved eggs fresh-fruits fresh-vegetables honey"},{"type":"farm","street":"4039 Dennis Rd.","city":"Webberville","state":"MI","zip":"48892","longitude":"-84.201761","latitude":"42.616054","name":"Spartan Country Meats","website":"www.spartancountrymeats.com","facebook":"https://www.facebook.com/pages/Spartan-Country-Meats/213932578620907?sk=timeline&ref=page_internal","twitter":"https://www.twitter.com/spartancntrymts","tags":"eggs poultry fowl red-meat non-poultry-meat"},{"type":"farm","street":"7353 Brockway Rd.","city":"Melvin","state":"MI","zip":"48454","longitude":"-82.801607","latitude":"43.207260","name":"Speaker Lone Oak Orchard","website":"speakerorchard.com","facebook":"Speaker orchard","twitter":"","tags":"baked-goods canned preserved fresh-fruits honey juices ciders maple-products"},{"type":"farm","street":"1633 Hagadorn Rd","city":"Mason","state":"MI","zip":"48854","longitude":"-84.4585120","latitude":"42.6305369","name":"Swallowtail Farm","website":"http://www.swallowtailfarm.net/","facebook":"https://www.facebook.com/pages/Swallowtail-Farm/299185864935?ref_type=bookmark","twitter":"","tags":"canned preserved cut-flowers eggs fresh-fruits fresh-vegetables"},{"type":"farm","street":"4867 Swoish Road","city":"North Branch","state":"MI","zip":"48461","longitude":"-83.1602176","latitude":"43.1868314","name":"Swoish Farms","website":"","facebook":"https://www.facebook.com/swoishfarms/","twitter":"","tags":"poultry fowl red-meat non-poultry-meat"},{"type":"farm","street":"39227 fisk lake road","city":"paw apw","state":"MI","zip":"49079","longitude":"-86.018937","latitude":"42.2512872","name":"tanstaafl farmstead","website":"","facebook":"","twitter":"","tags":""},{"type":"farm","street":"16147 US HWY 27 N","city":"Marshall","state":"MI","zip":"49068","longitude":"-84.964657","latitude":"42.307229","name":"The Blue Barn","website":"http://www.thebluebarninmarshall.com/","facebook":"","twitter":"","tags":"eggs fresh-vegetables honey soap body-care"},{"type":"farm","street":"3091 Riverside Road","city":"Benton Harbor","state":"MI","zip":"49022","longitude":"-86.397710","latitude":"42.167229","name":"The Extraordinary Berry","website":"Theextraordinaryberry.com","facebook":"https://www.facebook.com/pages/The-Extraordinary-Berry/228277483856012","twitter":"","tags":"canned preserved fresh-fruits fresh-vegetables honey"},{"type":"farm","street":"19758 S Corunna Road","city":"Chesaning","state":"MI","zip":"48616","longitude":"-84.1141690","latitude":"43.1322360","name":"Tomac Pumpkins and Farm Market","website":"","facebook":"","twitter":"","tags":""},{"type":"farm","street":"9436 Peck Lake Rd.","city":"Lowell","state":"MI","zip":"49331","longitude":"-85.261964","latitude":"42.900684","name":"Two Sparrows Farm LLC","website":"https://twosparrowsfarm.wordpress.com/","facebook":"https://www.facebook.com/TwoSparrowsFarm","twitter":"","tags":"dairy products eggs honey maple-products poultry fowl red-meat non-poultry-meat"},{"type":"farm","street":"7344 Hammond Ave.","city":"Caledonia","state":"MI","zip":"49316","longitude":"-85.5752534","latitude":"42.8309000","name":"Vertical Paradise Farms","website":"www.vpfarms.com","facebook":"www.facebook.com/vpfarms","twitter":"","tags":"fresh-vegetables"},{"type":"farm","street":"6580 Judd Rd","city":"Milan","state":"MI","zip":"48160","longitude":"-83.626685","latitude":"42.140496","name":"Wasem Fruit Farm, LLC","website":"www.wasemfruitfarm.com","facebook":"www.facebook.com/pages/Wasem-Fruit-Farm/255034514021","twitter":"","tags":"baked-goods fresh-fruits"},{"type":"farm","street":"6580 Judd Rd","city":"Milan","state":"MI","zip":"48160","longitude":"-83.626685","latitude":"42.140496","name":"Wasem Fruit Farm, LLC","website":"www.wasemfruitfarm.com","facebook":"www.facebook.com/pages/Wasem-Fruit-Farm/255034514021","twitter":"","tags":"baked-goods fresh-fruits"},{"type":"farm","street":"6580 Judd Rd","city":"Milan","state":"MI","zip":"48160","longitude":"-83.626685","latitude":"42.140496","name":"Wasem Fruit Farm, LLC","website":"www.wasemfruitfarm.com","facebook":"www.facebook.com/pages/Wasem-Fruit-Farm/255034514021","twitter":"","tags":"baked-goods fresh-fruits"},{"type":"farm","street":"6580 Judd Rd","city":"Milan","state":"MI","zip":"48160","longitude":"-83.626685","latitude":"42.140496","name":"Wasem Fruit Farm, LLC","website":"www.wasemfruitfarm.com","facebook":"www.facebook.com/pages/Wasem-Fruit-Farm/255034514021","twitter":"","tags":"baked-goods fresh-fruits"},{"type":"farm","street":"O-8993 Kenowa Ave SW","city":"Grand Rapids","state":"MI","zip":"49534","longitude":"-85.783388","latitude":"42.932177","name":"Wells Orchards","website":"www.wellsorchards.com","facebook":"https://www.facebook.com/pages/Wells-Orchards/122028811170560?ref=ts","twitter":"","tags":"canned preserved fresh-fruits fresh-vegetables honey juices ciders maple-products"},{"type":"farm","street":"60636 County Road 652","city":"Mattawan","state":"MI","zip":"49071","longitude":"-85.784927","latitude":"42.198224","name":"Westview Farm","website":"","facebook":"","twitter":"","tags":""},{"type":"farm","street":"9235 Windemere Court","city":"Clarkston","state":"MI","zip":"48348","longitude":"-83.4724440","latitude":"42.7733080","name":"Whitfield's Raw Honey","website":"wwww.simplyrawhoney.com","facebook":"","twitter":"","tags":"honey"},{"type":"farm","street":"3649 E Sherwood Rd","city":"Williamston","state":"MI","zip":"48895","longitude":"-84.2269170","latitude":"42.7171210","name":"Windswept Farm","website":"","facebook":"","twitter":"","tags":""},{"type":"farm","street":"3230 Portage Rd N","city":"Grass Lake","state":"MI","zip":"49240","longitude":"-84.275871","latitude":"42.282429","name":"Witamy Farm","website":"www.witamyfarm.com","facebook":"https://www.facebook.com/witamy.farm","twitter":"","tags":"eggs herbs fresh-vegetables poultry fowl"},{"type":"farm","street":"10821 Pierce Street","city":"Zeeland","state":"MI","zip":"49464","longitude":"-86.048985","latitude":"42.957257","name":"Woodland Enterprises Inc.","website":"www.woodlandberries.com","facebook":"","twitter":"","tags":""},{"type":"farm","street":"17050 Kane Rd","city":"Stockbridge","state":"MI","zip":"49285","longitude":"-84.1431360","latitude":"42.4932460","name":"Zatkovich Pastures, LLC","website":"http://www.zatkovichpastures.com","facebook":"https://www.facebook.com/ZatkovichPasturesLLC","twitter":"","tags":"eggs poultry fowl red-meat non-poultry-meat"},{"type":"market","name":"3rd Day Farmer's Market","website":"http://www.3rddayfarm.com","facebook":"facebook/ 3rd Day Farm","twitter":"","street":"3234 S. LaChance Rd","city":"Lake City","state":"MI","zip":"49651","longitude":"-85.296147","latitude":"44.292952","tags":"baked goods cheese crafts flowers eggs herbs vegetables honey jams maple meat plants poultry soap trees fruits mushrooms wild"},{"type":"market","name":"Battle Creek Farmers Market","website":"http://www.battlecreekfarmersmarket.com","facebook":"facebook.com/BattleCreekFarmersMarketAssociation","twitter":"","street":"25 S McCamly St","city":"Battle Creek","state":"MI","zip":"49017","longitude":"-85.185150","latitude":"42.320090","tags":"baked goods cheese crafts flowers eggs herbs vegetables honey jams maple meat plants poultry prepared-foods soap wine coffee beans fruits"},{"type":"market","name":"Belleville Farmers Market","website":"http://www.bellevillecentralbusinesscommunity.com","facebook":"Belleville Farmers Market","twitter":"","street":"Main and 4th","city":"Belleville","state":"MI","zip":"48111","longitude":"-83.482812","latitude":"42.201917","tags":"organic baked goods crafts flowers vegetables honey jams maple soap"},{"type":"market","name":"Boyne City Farmers Market","website":"http://boynecitymainstreet.com/farmers-market-welcome/","facebook":"https://www.facebook.com/BoyneCityFarmersMarket/","twitter":"","street":"319 N. Lake St","city":"Boyne City","state":"MI","zip":"49712","longitude":"-85.015378","latitude":"45.216850","tags":"organic baked goods cheese crafts flowers eggs seafood herbs vegetables honey jams maple meat plants poultry prepared-foods soap trees wine coffee beans fruits juices mushrooms pet food wild"},{"type":"market","name":"Canton Farmers Market","website":"https://www.canton-mi.org/496/Canton-Farmers-Market","facebook":"@cantonfarmersmarket","twitter":"","street":"500 North Ridge Road","city":"Canton","state":"MI","zip":"48188","longitude":"-83.533591","latitude":"42.308841","tags":"organic baked goods cheese crafts flowers eggs herbs vegetables honey jams maple meat plants poultry prepared-foods soap coffee fruits grains juices mushrooms"},{"type":"market","name":"City of St. Clair Shores Farmers Market","website":"http://www.scsmi.net","facebook":"https://www.facebook.com/StClair-Shores-Farmers-Market-434292750726325","twitter":"","street":"24800 Jeffereson","city":"St. Clair Shores, Mi","state":"MI","zip":"48080","longitude":"-82.932268","latitude":"42.6958071","tags":"baked goods crafts vegetables honey prepared-foods soap fruits mushrooms"},{"type":"market","name":"Dearborn Farmers & Artisans Market","website":"http://www.dearbornfarmersartisansmarket.com","facebook":"@DearbornFarmersArtisansMarket","twitter":"","street":"22271 West Village Drive","city":"Dearborn ","state":"MI","zip":"48124","longitude":"-83.211488","latitude":"42.313057","tags":"organic baked goods cheese crafts flowers eggs seafood herbs vegetables honey jams maple plants poultry prepared-foods soap coffee fruits grains juices mushrooms pet food tofu wild"},{"type":"market","name":"Dexter Farmers Market","website":"","facebook":"","twitter":"","street":"3233 Alpine","city":"Dexter","state":"MI","zip":"48130","longitude":"-83.889459","latitude":"42.339503","tags":"baked goods cheese crafts flowers eggs seafood herbs vegetables honey jams maple plants poultry soap coffee beans fruits mushrooms"},{"type":"market","name":"Dimondale Farmers' Market","website":"http://villageofdimondale.org","facebook":"http://facebook.com/dimondalefarmersmarket","twitter":"","street":"136 N Bridge St","city":"Dimondale","state":"MI","zip":"48821","longitude":"-84.647388","latitude":"42.646201","tags":"baked goods cheese crafts flowers eggs seafood herbs vegetables honey jams maple meat plants poultry prepared-foods soap beans fruits juices"},{"type":"market","name":"Downtown Allen Park Farmers Market","website":"http://www.allenparkdowntown.org","facebook":"https://www.facebook.com/allenpark.dda?sk=wall","twitter":"","street":"Park Avenue and Harrison Avenue","city":"Allen Park","state":"MI","zip":"48101","longitude":"-83.2089890","latitude":"42.2548010","tags":"baked goods cheese crafts flowers herbs vegetables honey jams plants prepared-foods trees fruits pet food"},{"type":"market","name":"Downtown Marquette Farmers Market","website":"http://mqtfarmersmarket.com","facebook":"facebook.com/downtownmqtfarmersmarket/","twitter":"","street":"112 S. Third St.","city":"Marquette","state":"MI","zip":"49855","longitude":"-87.395409","latitude":"46.543488","tags":"organic baked goods crafts flowers eggs seafood herbs vegetables honey jams maple meat plants poultry prepared-foods soap wine coffee beans fruits mushrooms wild"},{"type":"market","name":"Empire Farmers Market","website":"http://www.leelanaufarmersmarkets.com","facebook":"https://www.facebook.com/leelanaufarmersmarkets/","twitter":"","street":"10234 Front Street","city":"Empire","state":"MI","zip":"49630","longitude":"-86.063056","latitude":"44.811224","tags":"organic baked goods cheese crafts flowers eggs herbs vegetables honey jams maple plants soap trees fruits mushrooms"},{"type":"market","name":"Engadine Area Farmers' Market","website":"","facebook":"","twitter":"","street":"","city":"Engadine","state":"MI","zip":"","longitude":"-85.578248","latitude":"46.119734","tags":"baked goods flowers eggs herbs vegetables honey jams maple"},{"type":"market","name":"Evart Farmers' Market","website":"https://www.evart.org/our_community/farmers_market.php","facebook":"https://www.facebook.com/EvartFarmersMarket","twitter":"","street":"200 South Main Street","city":"Evart","state":"MI","zip":"49631","longitude":"-85.259592","latitude":"43.899648","tags":"baked goods crafts flowers eggs vegetables honey jams maple meat plants soap fruits"},{"type":"market","name":"Frankenmuth Farmers Market","website":"http://www.frankenmuthfarmersmarket.org","facebook":"https://www.facebook.com/Frankenmuth-Farmers-Market-106279602732863/ ","twitter":"https://twitter.com/MuthFarmMarket","street":"534 North Main Street","city":"Frankenmuth","state":"MI","zip":"48734","longitude":"-83.738212","latitude":"43.344313","tags":"organic baked goods cheese crafts flowers eggs seafood herbs vegetables honey jams maple meat nuts plants poultry prepared-foods soap wine coffee beans fruits grains juices mushrooms pet food tofu wild"},{"type":"market","name":"Fulton Street Farmers Market","website":"http://www.fultonstreetmarket.org","facebook":"www.facebook.com/fultonstmarket","twitter":"","street":"1145 East Fulton","city":"Grand Rapids","state":"MI","zip":"49503","longitude":"-85.6404790","latitude":"42.9639130","tags":"organic baked goods cheese crafts flowers eggs seafood herbs vegetables honey jams maple meat plants poultry prepared-foods soap trees wine coffee beans fruits grains juices mushrooms wild"},{"type":"market","name":"Glen Arbor Farmers Market","website":"http://www.leelanaufarmersmarkets.com","facebook":"https://www.facebook.com/leelanaufarmersmarkets/","twitter":"","street":"6394 Western Ave.","city":"Glen Arbor","state":"MI","zip":"49636","longitude":"-85.986905","latitude":"44.897978","tags":"organic baked goods cheese crafts flowers eggs herbs vegetables honey jams maple meat nuts plants poultry prepared-foods soap coffee beans fruits mushrooms"},{"type":"market","name":"Historic Farmers Market of Lapeer LLC","website":"http://www.historicfarmersmarketoflapeer.com ","facebook":"Historic Farmers Market of Lapeer","twitter":"","street":"272 N. Court St. ","city":"Lapeer ","state":"MI","zip":"48446","longitude":"-83.309076","latitude":"43.053482","tags":"baked goods crafts flowers eggs herbs vegetables honey jams maple plants prepared-foods soap coffee beans fruits wild"},{"type":"market","name":"Holly Farmers Market","website":"http://www.hollyfarmersmarket.weebly.com","facebook":"www.facebook.com/HollyFarmers","twitter":"","street":"Crapo Park","city":"Holly","state":"MI","zip":"48442","longitude":"-83.625343","latitude":"42.790600","tags":"baked goods crafts flowers eggs herbs vegetables honey jams maple meat plants poultry prepared-foods soap fruits wild"},{"type":"market","name":"Imlay City Farmers Market","website":"http://www.icdda.com","facebook":"https://www.facebook.com/pages/Imlay-City-Farmers-Market/215845188439242","twitter":"","street":"120 N Main","city":"Imlay City","state":"MI","zip":"48444","longitude":"-83.074322","latitude":"43.024290","tags":"baked goods crafts eggs vegetables honey jams maple plants poultry prepared-foods soap coffee fruits"},{"type":"market","name":"Ionia Farmers' Market","website":"http://www.cityofionia.org","facebook":"","twitter":"","street":"South Steele Street and Adams Street","city":"Ionia","state":"MI","zip":"48846","longitude":"-85.0677261","latitude":"42.9814841","tags":"baked goods flowers vegetables honey maple plants soap fruits"},{"type":"market","name":"Ithaca Farmers Market","website":"","facebook":"","twitter":"","street":"Center & Pine River Street","city":"Ithaca","state":"MI","zip":"48847","longitude":"-84.598559","latitude":"43.292319","tags":"baked goods cheese crafts eggs herbs vegetables honey jams maple meat plants fruits"},{"type":"market","name":"Kalamazoo Farmers Market","website":"http://pfcmarkets.com","facebook":"https://www.facebook.com/KalamazooFarmersMarket/","twitter":"","street":"1204 Bank Street","city":"Kalamazoo","state":"MI","zip":"49001","longitude":"-85.588501","latitude":"42.275163","tags":"organic baked goods cheese crafts flowers eggs seafood herbs vegetables honey jams maple meat nuts plants poultry prepared-foods soap wine coffee beans fruits grains juices mushrooms pet food tofu wild"},{"type":"market","name":"Kentwood Farmers Market","website":"http://www.KentwoodFarmersMarket.com","facebook":"CityofKentwoodFarmersMarket","twitter":"","street":"4900 Breton Rd SE","city":"Kentwood","state":"MI","zip":"49508","longitude":"-85.596957","latitude":"42.874316","tags":"baked goods flowers eggs herbs vegetables coffee fruits grains"},{"type":"market","name":"Lawrence Farmers Market","website":"http://www.lawrencemi.org/lawrence-farmers-market/","facebook":"https://www.facebook.com/LawrenceFarmersMkt","twitter":"","street":"","city":"Lawrence ","state":"MI","zip":"49064","longitude":"-86.048868","latitude":"42.219637","tags":"baked goods flowers eggs herbs vegetables honey maple meat trees fruits"},{"type":"market","name":"Leland Farmers Market","website":"http://www.leelanaufarmersmarkets.com","facebook":"https://www.facebook.com/leelanaufarmersmarkets/","twitter":"","street":"River Street","city":"Leland","state":"MI","zip":"49654","longitude":"-85.759459","latitude":"45.022857","tags":"organic baked goods crafts flowers herbs vegetables jams maple nuts prepared-foods soap fruits"},{"type":"market","name":"Lincoln Park Farmers Market","website":"https://www.lpfarmersmarket.org/","facebook":"https://www.facebook.com/Lincoln-Park-Farmers-Market-208206362528258/","twitter":"https://twitter.com/LPFarmersMarket","street":"SW Corner Fort Street & Southfield Road","city":"Lincoln Park","state":"MI","zip":"48146","longitude":"-83.177664","latitude":"42.249843","tags":"baked goods crafts flowers eggs herbs vegetables honey jams plants prepared-foods soap coffee fruits"},{"type":"market","name":"Livonia Wilson Barn Farmers Market","website":"","facebook":"The Wilson Barn","twitter":"","street":"29350 W. Chicago","city":"Livonia","state":"MI","zip":"48150","longitude":"-83.331995","latitude":"42.362596","tags":"baked goods crafts vegetables honey jams prepared-foods soap fruits"},{"type":"market","name":"Ludington Farmer's Market","website":"","facebook":"https://www.facebook.com/Ludingtonfarmersmarket","twitter":"","street":"","city":"LUDINGTON","state":"MI","zip":"49431","longitude":"-86.447744","latitude":"43.955713","tags":"baked goods cheese flowers eggs herbs vegetables honey jams maple plants poultry prepared-foods trees wine fruits"},{"type":"market","name":"Manistee Farmers Market","website":"https://manisteekitchen.org/farmers-market/","facebook":"https://www.facebook.com/Manistee-Farmers-Market-203800259657175/","twitter":"","street":"180 Memorial Drive","city":"Manistee ","state":"MI","zip":"49660","longitude":"-86.323001","latitude":"44.249273","tags":"organic baked goods cheese crafts flowers eggs herbs vegetables honey jams maple plants poultry prepared-foods soap trees wine coffee fruits mushrooms pet food"},{"type":"market","name":"Manistique Farmers' Market","website":"http://ManistiqueFarmersMarket.org/","facebook":"facebook.com/MSTQFarmersMKT","twitter":"twitter.com/MSTQFarmersMKT","street":"180 N. Maple Street","city":"Manistique","state":"MI","zip":"49854","longitude":"-86.243595","latitude":"45.959984","tags":"baked goods flowers eggs seafood vegetables honey jams maple meat wine fruits"},{"type":"market","name":"Marlette Farmers Market","website":"http://www.cityofmarlette.com/2216/Marlette-Farmers-Market","facebook":"http://www.facebook.com/marlettefarmersmarket","twitter":"","street":"3048 Main Street","city":"Marlette","state":"MI","zip":"48453","longitude":"-83.080532","latitude":"43.327346","tags":"organic baked goods cheese crafts flowers eggs herbs vegetables honey jams maple meat plants poultry prepared-foods soap coffee beans fruits pet food"},{"type":"market","name":"Mason Farmers Market","website":"","facebook":"https://www.facebook.com/groups/309799505821466/","twitter":"","street":"100 block East Maple at Jefferson (in street)","city":"Mason","state":"MI","zip":"48854","longitude":"-84.442600","latitude":"42.580168","tags":"baked goods crafts flowers herbs vegetables honey jams maple prepared-foods soap beans fruits"},{"type":"market","name":"Menominee Historic Downtown Farmers Market  Association ","website":"http://menomineefarmersmarket.com/","facebook":"https://www.facebook.com/MenomineeFarmersMarket/","twitter":"","street":"800 1st Street & 8th Avenue","city":"Menominee","state":"MI","zip":"49858","longitude":"-87.603938","latitude":"45.105926","tags":"organic baked goods crafts eggs seafood herbs vegetables honey jams maple soap fruits"},{"type":"market","name":"Menominee Historic Downtown Farmers Market  Association ","website":"http://www.menomineefarmersmarket.com/","facebook":"https://www.facebook.com/MenomineeFarmersMarket","twitter":"https://twitter.com/MenoFarmMarket","street":"","city":"Menominee","state":"MI","zip":"49858","longitude":"-87.604562","latitude":"45.107233","tags":"organic baked goods crafts eggs seafood vegetables honey maple fruits mushrooms"},{"type":"market","name":"Midland Area Farmers Market","website":"http://mbami.org/farmersmarket/","facebook":"https://www.facebook.com/midlandfarmersmarket/","twitter":"https://twitter.com/midlandfmarket","street":"","city":"Midland","state":"MI","zip":"48640","longitude":"-84.236727","latitude":"43.609016","tags":"organic baked goods cheese flowers eggs seafood herbs vegetables honey jams maple meat plants poultry prepared-foods soap trees wine coffee beans fruits mushrooms"},{"type":"market","name":"Monroe County Farmer's Market","website":"http://www.farmersmarketmonroemi.com","facebook":"https://www.facebook.com/farmersmarketmonroemi","twitter":"","street":"20 E. Willow St.","city":"Monroe","state":"MI","zip":"48162","longitude":"-83.39378","latitude":"41.91965","tags":"baked goods crafts flowers eggs herbs vegetables honey jams maple meat nuts plants poultry soap trees fruits"},{"type":"market","name":"Mt. Pleasant Farmers' Market - Broadway Street","website":"","facebook":"https://www.facebook.com/mpfarmersmarket","twitter":"","street":"Broadway Street between Main & University Streets","city":"Mount Pleasant","state":"MI","zip":"48858","longitude":"-84.776052","latitude":"43.604433","tags":"baked goods crafts flowers eggs vegetables honey jams maple meat soap coffee fruits mushrooms"},{"type":"market","name":"Mt. Pleasant Farmers' Market - Island Park","website":"http://www.mt-pleasant.org/farmersmarket","facebook":"https://www.facebook.com/mpfarmersmarket","twitter":"","street":"331 N. Main Street","city":"Mount Pleasant","state":"MI","zip":"48858","longitude":"-84.780178","latitude":"43.607074","tags":"baked goods cheese crafts flowers eggs seafood herbs vegetables honey jams maple meat plants poultry prepared-foods soap coffee beans fruits mushrooms"},{"type":"market","name":"Munising Farmers' and Artisans' Market","website":"","facebook":"MunisingMarket","twitter":"","street":"Veteran's Drive","city":"Munising","state":"MI","zip":"49862","longitude":"-86.653401","latitude":"46.412557","tags":"baked goods crafts flowers eggs herbs vegetables honey jams maple plants prepared-foods soap wine beans fruits mushrooms wild"},{"type":"market","name":"New Baltimore Farmers Market","website":"http://www.newbaltimorefarmersmarket.com","facebook":"https://www.facebook.com/New-Baltimore-Farmers-Market-Fan-Page-298736159230/","twitter":"","street":"On Washington Street between Main & Front Streets in Historic Downtown","city":"New Baltimore","state":"MI","zip":"48047","longitude":"-82.737607","latitude":"42.68546","tags":"baked goods crafts flowers eggs herbs vegetables honey jams maple plants prepared-foods soap coffee fruits juices mushrooms pet food wild"},{"type":"market","name":"Northport Farmers Market","website":"http://www.leelanaufarmersmarkets.com","facebook":"https://www.facebook.com/leelanaufarmersmarkets/","twitter":"","street":"105 S. Bay Street","city":"Northport","state":"MI","zip":"49670","longitude":"-85.614175","latitude":"45.129668","tags":"organic baked goods cheese crafts flowers eggs herbs vegetables honey jams maple meat plants prepared-foods soap trees coffee fruits mushrooms pet food"},{"type":"market","name":"Pittsfield Township Farmers Market","website":"https://www.pittsfield-mi.gov/Index.aspx?NID=760","facebook":"https://www.facebook.com/pittsfieldtwpfarmersmarket","twitter":"","street":"6201 W. Michigan Ave","city":"Ann Arbor","state":"MI","zip":"48108","longitude":"-83.700262","latitude":"42.197733","tags":"baked goods flowers eggs herbs vegetables honey plants prepared-foods soap fruits"},{"type":"market","name":"Plainfield Township Farmers Market Hale","website":"","facebook":"","twitter":"","street":"220 West Washington","city":"Hale","state":"MI","zip":"48739","longitude":"-83.804474","latitude":"44.380388","tags":"baked goods crafts flowers eggs vegetables honey jams maple plants soap coffee fruits"},{"type":"market","name":"Plainwell Farmers Market","website":"http://plainwell.org","facebook":"Plainwell Farmers Market Official","twitter":"","street":"554 Allegan St. ","city":"Plainwell ","state":"MI","zip":"49080","longitude":"-85.650721","latitude":"42.452003","tags":"organic baked goods cheese crafts flowers eggs herbs vegetables honey jams maple meat poultry prepared-foods soap wine coffee fruits pet food"},{"type":"market","name":"Plainwell Indoor Market ","website":"http://plainwell.org ","facebook":"Plainwell Farmers Market Official","twitter":"","street":"211 N. Main St. ","city":"Plainwell","state":"MI","zip":"49080","longitude":"-85.643297","latitude":"42.444910","tags":"baked goods cheese crafts eggs honey jams maple poultry prepared-foods soap wine"},{"type":"market","name":"Port Sanilac Farmers' Market","website":"","facebook":"https://m.facebook.com/portsanilacfarmersmarket","twitter":"","street":"228 S Ridge Street","city":"Port Sanilac","state":"MI","zip":"48469","longitude":"-82.543109","latitude":"43.424322","tags":"organic baked goods crafts eggs herbs vegetables honey jams maple plants poultry soap fruits"},{"type":"market","name":"Saline Farmers Market","website":"http://www.cityofsaline.org/farmersmarket","facebook":"https://www.facebook.com/pages/Saline-Farmers-Market/199592293395735","twitter":"","street":"S. Ann Arbor Street","city":"Saline","state":"MI","zip":"48176","longitude":"-83.781146","latitude":"42.165956","tags":"baked goods cheese crafts flowers eggs herbs vegetables honey jams maple meat plants poultry prepared-foods soap trees coffee fruits"},{"type":"market","name":"Saline Farmers Market","website":"http://www.cityofsaline.org/farmersmarket","facebook":"https://www.facebook.com/pages/Saline-Farmers-Market/199592293395735","twitter":"","street":"7265 Saline Ann Arbor Road","city":"Saline","state":"MI","zip":"48176","longitude":"-83.785094","latitude":"42.179728","tags":"baked goods cheese eggs seafood herbs vegetables honey maple meat poultry prepared-foods soap coffee"},{"type":"market","name":"Sara Hardy Downtown Farmers Market","website":"http://www.downtowntc.com","facebook":"https://www.facebook.com/SaraHardyFarmersMarket","twitter":"https://twitter.com/downtowntc","street":"152 East Grandview Parkway","city":"Traverse City","state":"MI","zip":"49684","longitude":"-85.621764","latitude":"44.765173","tags":"organic baked goods cheese flowers eggs seafood herbs vegetables honey jams maple meat nuts plants poultry prepared-foods soap trees coffee fruits grains juices mushrooms pet food wild"},{"type":"market","name":"South East Area Farmers' Market","website":"https://oktjustice.org/resources/","facebook":"https://www.facebook.com/seafmfarmermarket/","twitter":"","street":"900 Fuller Ave SE","city":"Grand Rapids","state":"MI","zip":"49506","longitude":"-85.6394126","latitude":"42.9464659","tags":"baked goods crafts herbs vegetables honey jams maple nuts prepared-foods soap beans fruits grains juices wild"},{"type":"market","name":"South Lyon Farmers and Artisans Market","website":"http://www.southlyonfarmersmarket.org","facebook":"South Lyon Farmers and Artisans Market ","twitter":"","street":"110 W. Liberty","city":"South Lyon ","state":"MI","zip":"48178","longitude":"-83.653169","latitude":"42.461015","tags":"baked goods cheese crafts flowers eggs herbs vegetables honey jams meat plants poultry prepared-foods soap coffee fruits"},{"type":"market","name":"Sowing Seeds Growing Futures Farmers Market","website":"https://www.joysouthfield.org/","facebook":"","twitter":"","street":"18917 Joy Road","city":"Detroit","state":"MI","zip":"48228","longitude":"-83.130895","latitude":"42.362216","tags":"baked goods crafts flowers vegetables honey jams prepared-foods fruits"},{"type":"market","name":"St. Louis Farmers Market","website":"http://www.gratiotfarmersmarkets.com/st-louis","facebook":"www.facebook.com/stlouisfm","twitter":"","street":"300 North Mill Street","city":"St. Louis","state":"MI","zip":"48880","longitude":"-84.608462","latitude":"43.410742","tags":"baked goods cheese crafts flowers eggs herbs vegetables honey jams maple meat plants poultry prepared-foods soap coffee beans fruits"},{"type":"market","name":"Suttons Bay Farmers Market","website":"http://www.leelanaufarmersmarkets.com","facebook":"https://www.facebook.com/leelanaufarmersmarkets/","twitter":"","street":"Intersection of M22 & M204","city":"Suttons Bay","state":"MI","zip":"49682","longitude":"-85.647075","latitude":"44.980186","tags":"organic baked goods cheese crafts flowers eggs herbs vegetables honey jams maple meat nuts plants poultry prepared-foods soap trees coffee fruits mushrooms"},{"type":"market","name":"Terra Square Farmers Market","website":"http://Terrasquare.com","facebook":"","twitter":"","street":"3380 Chicago Dr.","city":"Hudsonville","state":"MI","zip":"49426","longitude":"-85.8654557","latitude":"42.8677383","tags":"baked goods cheese crafts flowers eggs vegetables honey maple meat poultry prepared-foods soap wine coffee fruits juices mushrooms pet food"},{"type":"market","name":"Texas Township Farmers' Market","website":"http://www.texastownship.org/farmers-market/","facebook":"https://www.facebook.com/TexasTownshipFarmersMarket/","twitter":"https://twitter.com/freshonQ","street":"7110 West Q Ave","city":"Kalamazoo","state":"MI","zip":"49009","longitude":"-85.687996","latitude":"42.201444","tags":"organic baked goods cheese crafts flowers eggs seafood herbs vegetables honey jams maple meat nuts plants poultry prepared-foods soap trees wine coffee beans fruits grains juices pet food"},{"type":"market","name":"Vicksburg Farmers' Market","website":"","facebook":"Vicksburg Farmers' Market","twitter":"","street":"300 N. Richardson ","city":"Vicksburg","state":"MI","zip":"49097","longitude":"-85.528345","latitude":"42.126553","tags":"meat poultry prepared-foods soap wine"},{"type":"market","name":"Village of Constantine Farmers' Market","website":"","facebook":"Constantine Farmers' Market","twitter":"","street":"165 N Washington St","city":"Constantine","state":"MI","zip":"49042","longitude":"-85.670007","latitude":"41.843957","tags":"baked goods cheese crafts flowers eggs vegetables honey jams maple plants fruits"},{"type":"market","name":"Wayland Farmers Market on Main Street ","website":"","facebook":"https://www.facebook.com/groups/marketonmainstreet/","twitter":"","street":"149 South Main Street","city":"Wayland","state":"MI","zip":"49348","longitude":"-85.642864","latitude":"42.672620","tags":"baked goods crafts eggs herbs vegetables honey jams maple plants soap fruits"},{"type":"market","name":"Wayne State University Farmers Market","website":"http://coe.wayne.edu/centerforhealthandcommunityimpact/farmersmarket.php","facebook":"https://facebook.com/WSUFarmersMarket/","twitter":"@wsufarmersmkt","street":"Warren and Woodward Ave","city":"Detroit ","state":"MI","zip":"48202","longitude":"-83.064645","latitude":"42.356528","tags":"baked goods flowers herbs vegetables honey jams plants prepared-foods coffee fruits juices"},{"type":"market","name":"Westland Farmers & Artisan Market","website":"http://www.westlandfarmersmarket.com/","facebook":"https://www.facebook.com/WestlandFarmersMarket","twitter":"","street":"1901 N. Carlson","city":"Westland","state":"MI","zip":"48185","longitude":"-83.380778","latitude":"42.319173","tags":"baked goods crafts eggs vegetables honey jams maple soap fruits"},{"type":"market","name":"Westside Farmers Market","website":"http://www.nwlansing.org","facebook":"https://www.facebook.com/nwlansing","twitter":"https://twitter.com/NWIlansing","street":"510 W. Ottawa St.","city":"Lansing","state":"MI","zip":"48933","longitude":"-84.559858","latitude":"42.734770","tags":"baked goods eggs herbs vegetables honey jams maple beans fruits"},{"type":"market","name":"Ypsilanti Farmers Market- Downtown","website":"http://growinghope.net/farmers-markets/ypsilanti/","facebook":"https://www.facebook.com/YpsilantiFarmersMarkets/","twitter":"","street":"16 S Washington","city":"Ypsilanti","state":"MI","zip":"48197","longitude":"-83.614751","latitude":"42.240285","tags":"organic baked goods cheese crafts flowers eggs seafood herbs vegetables honey jams maple meat poultry prepared-foods soap coffee fruits"}]
