[{"Type":"on-farm market","ModifyDate":"Apr 18th, 2018","Image":"default-onfarmmarket-4-3.jpg","ListingID":"701448","Name":"First Generation Farmers","Description":null,"ContactName":"Alli Cecchini","ContactEmail":"alli@firstgenerationfarmers.com","ContactPhone":"9253317607","Website":"https:\/\/www.firstgenerationfarmers.org\/","Facebook":"https:\/\/www.facebook.com\/1stgenerationfarmers\/","Twitter":"@1stGenFarmers","Instagram":null,"Pinterest":null,"Youtube":null,"Blog":"https:\/\/firstgenerationfarmers.org\/blogs\/","Address":"1230 Delta Rd, Knightsen, California 94548","State":"California","City":"Knightsen","Street":"1230 Delta Rd","Zip":"94548","Longitude":"-121.67104","Latitude":"37.969019","Dates":null,"Products":""},{"Type":"on-farm market","ModifyDate":"Apr 25th, 2015","Image":"default-onfarmmarket-4-3.jpg","ListingID":"700966","Name":"Bernal Properties","Description":null,"ContactName":"Mark Bernal","ContactEmail":"mdbbernal@gmail.com","ContactPhone":"(408) 607-2387","Website":null,"Facebook":null,"Twitter":null,"Instagram":null,"Pinterest":null,"Youtube":null,"Blog":null,"Address":"2500 Dahlberg Drive, Morgan Hill , California 95037","State":"California","City":"Morgan Hill","Street":"2500 Dahlberg Drive","Zip":"95037","Longitude":"-121.68309","Latitude":"37.1146863","Dates":null,"Products":""},{"Type":"on-farm market","ModifyDate":"Aug 13th, 2014","Image":"default-onfarmmarket-4-3.jpg","ListingID":"700758","Name":"Classic Organic Farm & Market","Description":null,"ContactName":"Helmut Klauer","ContactEmail":"helmut@classicorganic.org","ContactPhone":"805-714-4420","Website":"www.classicorganic.org","Facebook":"www.facebook.com\/pages\/Classic-Organic-Farm-Market\/101770889289?ref=mf","Twitter":null,"Instagram":null,"Pinterest":null,"Youtube":null,"Blog":null,"Address":"2323 Old Coast Hwy, Gaviota, California 93117","State":"California","City":"Gaviota","Street":"2323 Old Coast Hwy","Zip":"93117","Longitude":"-120.19203","Latitude":"34.543206","Dates":null,"Products":""},{"Type":"on-farm market","ModifyDate":"Aug 1st, 2014","Image":"default-onfarmmarket-4-3.jpg","ListingID":"700111","Name":"Farmer's Market at Long Meadow Ranch","Description":null,"ContactName":"Laddie Hall","ContactEmail":"info@longmeadowranch.com","ContactPhone":"707-963-4555","Website":"www.longmeadowranch.com","Facebook":"www.facebook.com\/lmrwine","Twitter":"https:\/\/www.twitter.com\/LMRwine","Instagram":null,"Pinterest":null,"Youtube":null,"Blog":null,"Address":"738 Main Street, Saint Helena, California 94574","State":"California","City":"Saint Helena","Street":"738 Main Street","Zip":"94574","Longitude":"-122.46333","Latitude":"38.501022","Dates":null,"Products":""},{"Type":"on-farm market","ModifyDate":"Aug 20th, 2014","Image":"default-onfarmmarket-4-3.jpg","ListingID":"700854","Name":"Finley's Mountain Ranch","Description":null,"ContactName":"Darlene Finley","ContactEmail":"finleysmountainranch@yahoo.com","ContactPhone":"707-463-8822","Website":"www.finleysmountainranch.com","Facebook":null,"Twitter":null,"Instagram":null,"Pinterest":null,"Youtube":null,"Blog":null,"Address":"1700 Orr Springs Rd, Ukiah, California 95482","State":"California","City":"Ukiah","Street":"1700 Orr Springs Rd","Zip":"95482","Longitude":"-123.24057","Latitude":"39.1837980","Dates":null,"Products":""},{"Type":"on-farm market","ModifyDate":"Aug 23rd, 2014","Image":"default-onfarmmarket-4-3.jpg","ListingID":"700905","Name":"Maywood Farms","Description":null,"ContactName":"Bob Steinacher","ContactEmail":"bob@maywoodfarms.com","ContactPhone":"530-824-4216","Website":"www.maywoodfarms.com","Facebook":"https:\/\/www.facebook.com\/pages\/Maywood-Farms\/461257050564079","Twitter":null,"Instagram":null,"Pinterest":null,"Youtube":null,"Blog":null,"Address":"3635 Mt. Shasta Ave., Corning, California 96021","State":"California","City":"Corning","Street":"3635 Mt. Shasta Ave.","Zip":"96021","Longitude":"-122.22790","Latitude":"39.9050950","Dates":null,"Products":""},{"Type":"on-farm market","ModifyDate":"Aug 24th, 2014","Image":"default-onfarmmarket-4-3.jpg","ListingID":"700919","Name":"Neilson Family Farm","Description":null,"ContactName":"Becky Neilson","ContactEmail":"becky@farwestwireless.com","ContactPhone":"530-933-1232","Website":null,"Facebook":null,"Twitter":null,"Instagram":null,"Pinterest":null,"Youtube":null,"Blog":null,"Address":"6900 Andressen Rd, Sheridan, California 95681","State":"California","City":"Sheridan","Street":"6900 Andressen Rd","Zip":"95681","Longitude":"-121.35624","Latitude":"38.9979600","Dates":null,"Products":""},{"Type":"on-farm market","ModifyDate":"Aug 25th, 2014","Image":"default-onfarmmarket-4-3.jpg","ListingID":"700694","Name":"Knaus Apple Ranch","Description":null,"ContactName":"Alice","ContactEmail":"knausappleranch@gmail.com","ContactPhone":"661-822-4142","Website":"www.knausappleranch.com\/","Facebook":null,"Twitter":null,"Instagram":null,"Pinterest":null,"Youtube":null,"Blog":null,"Address":"19042 Cherry Lane (corner Tucker Rd & Cherry Ln), Tehachapi, California 93561","State":"California","City":"Tehachapi","Street":"19042 Cherry Lane (corner Tucker Rd & Cherry Ln)","Zip":"93561","Longitude":"-118.46794","Latitude":"35.120309","Dates":null,"Products":""},{"Type":"on-farm market","ModifyDate":"Aug 25th, 2014","Image":"default-onfarmmarket-4-3.jpg","ListingID":"700934","Name":"Santa Barbara Pistachio Company","Description":null,"ContactName":"Josh Zannon","ContactEmail":"josh@sbpistachios.com","ContactPhone":"661-766-2177","Website":"www.sbpistachios.com","Facebook":"https:\/\/www.facebook.com\/pages\/Santa-Barbara-Pistachio-Company\/159650100721699","Twitter":"https:\/\/www.twitter.com\/sbpistachios1","Instagram":null,"Pinterest":null,"Youtube":null,"Blog":null,"Address":"3380 Highway 33, Ventucopa, California 93252","State":"California","City":"Ventucopa","Street":"3380 Highway 33","Zip":"93252","Longitude":"-119.47889","Latitude":"34.843676","Dates":null,"Products":""},{"Type":"on-farm market","ModifyDate":"Aug 25th, 2014","Image":"default-onfarmmarket-4-3.jpg","ListingID":"700939","Name":"Schmidt Road Ranch","Description":null,"ContactName":"Susan Clark","ContactEmail":"scjlenterprise@aol.com","ContactPhone":"7078248494","Website":null,"Facebook":null,"Twitter":null,"Instagram":null,"Pinterest":null,"Youtube":null,"Blog":null,"Address":"5990 Guerneville rd, Sebastopol, California 95472","State":"California","City":"Sebastopol","Street":"5990 Guerneville rd","Zip":"95472","Longitude":"-122.85458","Latitude":"38.450938","Dates":null,"Products":""},{"Type":"on-farm market","ModifyDate":"Aug 25th, 2015","Image":"default-onfarmmarket-4-3.jpg","ListingID":"701295","Name":"Sayre Farms","Description":null,"ContactName":"Peggy Jo Sayre","ContactEmail":"pegsayre@sbcglobal.net","ContactPhone":"7072913398","Website":null,"Facebook":null,"Twitter":null,"Instagram":null,"Pinterest":null,"Youtube":null,"Blog":null,"Address":"295 Pleasant Ave, Santa Rosa , California 95403","State":"California","City":"Santa Rosa","Street":"295 Pleasant Ave","Zip":"95403","Longitude":"-122.78399","Latitude":"38.543404","Dates":null,"Products":""},{"Type":"on-farm market","ModifyDate":"Aug 26th, 2014","Image":"default-onfarmmarket-4-3.jpg","ListingID":"700472","Name":"Maxs Miracle Ranch","Description":null,"ContactName":"Steve Williams","ContactEmail":"stevewilliamsb@aol.com","ContactPhone":"530 354-7168","Website":"www.maxsmiracles.org","Facebook":null,"Twitter":null,"Instagram":null,"Pinterest":null,"Youtube":null,"Blog":null,"Address":"3476 Smith Avenue, Biggs, California 95917","State":"California","City":"Biggs","Street":"3476 Smith Avenue","Zip":"95917","Longitude":"-121.69067","Latitude":"39.4320010","Dates":null,"Products":""},{"Type":"on-farm market","ModifyDate":"Aug 26th, 2014","Image":"default-onfarmmarket-4-3.jpg","ListingID":"700512","Name":"R.A.M. Farms Inc. Pumpkin Patch & Corn Maze","Description":null,"ContactName":"Ron & Karen Macedo","ContactEmail":"contact@ramfarms.com","ContactPhone":"209-649-7078","Website":"ramfarms.com","Facebook":"https:\/\/www.facebook.com\/pumpkinpatchandcornmaze","Twitter":null,"Instagram":null,"Pinterest":null,"Youtube":null,"Blog":null,"Address":"716 N. Daubenberger Rd, Turlock, California 95380","State":"California","City":"Turlock","Street":"716 N. Daubenberger Rd","Zip":"95380","Longitude":"-120.81445","Latitude":"37.4992530","Dates":null,"Products":""},{"Type":"on-farm market","ModifyDate":"Aug 28th, 2014","Image":"default-onfarmmarket-4-3.jpg","ListingID":"700972","Name":"Tzaddik Farm","Description":null,"ContactName":"Nathan Rakov","ContactEmail":"tzaddik@att.net","ContactPhone":"619-445-1610","Website":"http:\/\/www.tzaddikfarm.com\/","Facebook":"https:\/\/www.facebook.com\/tzaddikfarm","Twitter":null,"Instagram":null,"Pinterest":null,"Youtube":null,"Blog":"N\/A","Address":"21986 Lyons Valley Rd, Alpine , California","State":"California","City":"Alpine","Street":"21986 Lyons Valley Rd","Zip":null,"Longitude":"-116.67641","Latitude":"32.7515670","Dates":null,"Products":""},{"Type":"on-farm market","ModifyDate":"Aug 6th, 2014","Image":"default-onfarmmarket-4-3.jpg","ListingID":"700814","Name":"The Branch & Vine","Description":null,"ContactName":"Justin Wylie","ContactEmail":"Justinjwylie@gmail.com","ContactPhone":"(559) 577-9667","Website":"Thebranchandvine.com","Facebook":"https:\/\/www.facebook.com\/branchandvine","Twitter":null,"Instagram":null,"Pinterest":null,"Youtube":null,"Blog":null,"Address":"38802 Ave 12, Bonadelle Ranchos-Madera Ranchos , California 93636","State":"California","City":"Bonadelle Ranchos-Madera Ranchos","Street":"38802 Ave 12","Zip":"93636","Longitude":"-119.84463","Latitude":"36.921673","Dates":null,"Products":""},{"Type":"on-farm market","ModifyDate":"Aug 6th, 2014","Image":"default-onfarmmarket-4-3.jpg","ListingID":"700815","Name":"Jesus Center Community Farm","Description":null,"ContactName":"Jim Mathys","ContactEmail":"terradesigns@sbcglobal.net","ContactPhone":"530-520-5467","Website":null,"Facebook":null,"Twitter":null,"Instagram":null,"Pinterest":null,"Youtube":null,"Blog":null,"Address":"West 16th ST & Normal Ave., Chico, California 95928","State":"California","City":"Chico","Street":"West 16th ST & Normal Ave.","Zip":"95928","Longitude":"-121.83039","Latitude":"39.717817","Dates":null,"Products":""},{"Type":"on-farm market","ModifyDate":"Feb 14th, 2022","Image":"default-onfarmmarket-4-3.jpg","ListingID":"701634","Name":"Kitchel Family Organics","Description":null,"ContactName":"Lana Kitchel","ContactEmail":"lanakitchel@gmail.com","ContactPhone":"5303843085","Website":"https:\/\/www.kitchelfamilyorganics.com","Facebook":"https:\/\/www.facebook.com\/KitchelFamilyOrganics","Twitter":null,"Instagram":null,"Pinterest":null,"Youtube":null,"Blog":null,"Address":"25255 3rd Ave, Los Molinos, California 96055","State":"California","City":"Los Molinos","Street":"25255 3rd Ave","Zip":"96055","Longitude":"-122.09657","Latitude":"40.063708","Dates":null,"Products":""},{"Type":"on-farm market","ModifyDate":"Jan 14th, 2018","Image":"default-onfarmmarket-4-3.jpg","ListingID":"701438","Name":"Bel Cielo Villa LLC","Description":null,"ContactName":"Susan Yaszay","ContactEmail":"Belcielovilla@gmail.com","ContactPhone":"16197234373","Website":"www.belcielovilla.com","Facebook":"Belcielovilla","Twitter":null,"Instagram":null,"Pinterest":null,"Youtube":null,"Blog":null,"Address":"40650 Sierra maria rd , Murrieta , California 92562","State":"California","City":"Murrieta","Street":"40650 Sierra maria rd","Zip":"92562","Longitude":"-117.30986","Latitude":"33.540500","Dates":null,"Products":""},{"Type":"on-farm market","ModifyDate":"Jan 23rd, 2018","Image":"default-onfarmmarket-4-3.jpg","ListingID":"701439","Name":"Derby Walnuts","Description":null,"ContactName":"Pat Schellin Mecklenburg","ContactEmail":"info@derbywalnuts.com","ContactPhone":"5306350504","Website":"https:\/\/www.derbywalnuts.com","Facebook":"https:\/\/www.facebook.com\/derbywalnuts\/","Twitter":null,"Instagram":null,"Pinterest":null,"Youtube":null,"Blog":"https:\/\/www.derbywalnuts.com\/blog\/","Address":"3620 Gallagher Road, Rio Oso, California 95674","State":"California","City":"Rio Oso","Street":"3620 Gallagher Road","Zip":"95674","Longitude":"-121.48318","Latitude":"38.969894","Dates":null,"Products":""},{"Type":"on-farm market","ModifyDate":"Jul 11th, 2015","Image":"default-onfarmmarket-4-3.jpg","ListingID":"701282","Name":"Cloverfield","Description":null,"ContactName":"SUSAN ABERNATHY","ContactEmail":"cloverfield@gmail.com","ContactPhone":"5103811132","Website":null,"Facebook":"https:\/\/www.facebook.com\/cloverfieldorganic","Twitter":null,"Instagram":null,"Pinterest":null,"Youtube":null,"Blog":null,"Address":"501 La Paloma Rd., El Sobrante, California 94803","State":"California","City":"El Sobrante","Street":"501 La Paloma Rd.","Zip":"94803","Longitude":"-122.30866","Latitude":"37.9724040","Dates":null,"Products":""},{"Type":"on-farm market","ModifyDate":"Jul 23rd, 2014","Image":"default-onfarmmarket-4-3.jpg","ListingID":"700258","Name":"Freestone Ranch","Description":null,"ContactName":"Susan Brady","ContactEmail":"nourish@freestoneranch.com","ContactPhone":"707-876-4610","Website":"freestoneranch.com","Facebook":null,"Twitter":null,"Instagram":null,"Pinterest":null,"Youtube":null,"Blog":null,"Address":"PO Box 314, Valley Ford, California 94972","State":"California","City":"Valley Ford","Street":"PO Box 314","Zip":"94972","Longitude":"-122.90851","Latitude":"38.349227","Dates":null,"Products":""},{"Type":"on-farm market","ModifyDate":"Jul 26th, 2014","Image":"default-onfarmmarket-4-3.jpg","ListingID":"700128","Name":"Harris Family Farm","Description":null,"ContactName":"Jane Harris","ContactEmail":"harristreefarm@hotmail.com","ContactPhone":"530-644-2194","Website":"www.harristreefarm.com","Facebook":"https:\/\/www.facebook.com\/harristreefarm","Twitter":null,"Instagram":null,"Pinterest":null,"Youtube":null,"Blog":null,"Address":"2640 Blair Road, Pollock Pines, California 95726","State":"California","City":"Pollock Pines","Street":"2640 Blair Road","Zip":"95726","Longitude":"-120.60165","Latitude":"38.762282","Dates":null,"Products":""},{"Type":"on-farm market","ModifyDate":"Jul 26th, 2014","Image":"default-onfarmmarket-4-3.jpg","ListingID":"700656","Name":"Hansens Blueberry Farm","Description":null,"ContactName":"Richard Hansen","ContactEmail":"mr_blueberry30@hotmail.com","ContactPhone":"530-824-2331","Website":null,"Facebook":null,"Twitter":null,"Instagram":null,"Pinterest":null,"Youtube":null,"Blog":null,"Address":"3325 Houghton Ave, Corning, California 96021","State":"California","City":"Corning","Street":"3325 Houghton Ave","Zip":"96021","Longitude":"-122.18830","Latitude":"39.894708","Dates":null,"Products":""},{"Type":"on-farm market","ModifyDate":"Jul 26th, 2014","Image":"default-onfarmmarket-4-3.jpg","ListingID":"700789","Name":"Double Dutch Farms","Description":null,"ContactName":"Debbie Svopa Meeuwse","ContactEmail":"flashdebbie@aol.com","ContactPhone":"209)581-3298","Website":null,"Facebook":"https:\/\/www.facebook.com\/pages\/Pom-Girl\/158669604180922?fref=nf","Twitter":null,"Instagram":null,"Pinterest":null,"Youtube":null,"Blog":null,"Address":"345 Rose Court corner of Doak and Highland, Ripon, California 95366","State":"California","City":"Ripon","Street":"345 Rose Court corner of Doak and Highland","Zip":"95366","Longitude":"-121.14842","Latitude":"37.727654","Dates":null,"Products":""},{"Type":"on-farm market","ModifyDate":"Jul 27th, 2014","Image":"default-onfarmmarket-4-3.jpg","ListingID":"700091","Name":"Olivas de Oro Olive Company","Description":null,"ContactName":"Marti Menacho","ContactEmail":"marti@olivasdeoro.com","ContactPhone":"805-227-4223","Website":"www.olivasdeoro.com","Facebook":"https:\/\/www.facebook.com\/OlivasDeOroOliveCompany","Twitter":null,"Instagram":null,"Pinterest":null,"Youtube":null,"Blog":null,"Address":"4625 La Panza Road, Creston, California 93432","State":"California","City":"Creston","Street":"4625 La Panza Road","Zip":"93432","Longitude":"-120.50267","Latitude":"35.5162160","Dates":null,"Products":""},{"Type":"on-farm market","ModifyDate":"Jul 27th, 2014","Image":"default-onfarmmarket-4-3.jpg","ListingID":"700224","Name":"Star.Rose Ranch","Description":null,"ContactName":"Kim Consol","ContactEmail":"staroseranch@jps.net","ContactPhone":"530-796-4733","Website":"www.starroseranch.com","Facebook":"https:\/\/www.facebook.com\/StarRoseRanch","Twitter":null,"Instagram":null,"Pinterest":null,"Youtube":null,"Blog":null,"Address":"County Road 56, Guinda, California 95637","State":"California","City":"Guinda","Street":"County Road 56","Zip":"95637","Longitude":"-122.20229","Latitude":"38.819076","Dates":null,"Products":""},{"Type":"on-farm market","ModifyDate":"Jul 27th, 2014","Image":"default-onfarmmarket-4-3.jpg","ListingID":"700252","Name":"Pato's Dream Date Gardens","Description":null,"ContactName":"Douglass Adair","ContactEmail":"PATOZDRM@aol.com","ContactPhone":"760-399-5669","Website":null,"Facebook":null,"Twitter":null,"Instagram":null,"Pinterest":null,"Youtube":null,"Blog":null,"Address":"60-499 Harrison St., Thermal, California 92274","State":"California","City":"Thermal","Street":"60-499 Harrison St.","Zip":"92274","Longitude":"-116.10287","Latitude":"33.468212","Dates":null,"Products":""},{"Type":"on-farm market","ModifyDate":"Jul 27th, 2014","Image":"default-onfarmmarket-4-3.jpg","ListingID":"700335","Name":"High Sierra Beef, Inc.","Description":null,"ContactName":"Jenny Cavaliere","ContactEmail":"highsierrabeef@yahoo.com","ContactPhone":"530-635-0183","Website":"http:\/\/www.highsierrabeef.com","Facebook":"www.facebook.com\/jennycavaliere3","Twitter":null,"Instagram":null,"Pinterest":null,"Youtube":null,"Blog":null,"Address":"14582 Indiana School Road, Oregon House, California 95962","State":"California","City":"Oregon House","Street":"14582 Indiana School Road","Zip":"95962","Longitude":"-121.23785","Latitude":"39.381273","Dates":null,"Products":""},{"Type":"on-farm market","ModifyDate":"Jul 27th, 2014","Image":"default-onfarmmarket-4-3.jpg","ListingID":"700417","Name":"Red Barn Farm Pasture-Raised Poultry","Description":null,"ContactName":"Amy McBirney","ContactEmail":"amys_barn@yahoo.com","ContactPhone":"408-472-3026","Website":"www.redbarnfarmpoultry.webs.com","Facebook":null,"Twitter":null,"Instagram":null,"Pinterest":null,"Youtube":null,"Blog":null,"Address":"PO Box 21294, San Jose, California 95151","State":"California","City":"San Jose","Street":"PO Box 21294","Zip":"95151","Longitude":"-121.75625","Latitude":"37.225748","Dates":null,"Products":""},{"Type":"on-farm market","ModifyDate":"Jul 27th, 2020","Image":"default-onfarmmarket-4-3.jpg","ListingID":"701540","Name":"Six Bar Ranch","Description":null,"ContactName":"Phyliss Pruden","ContactEmail":"pruden@sixbarranch.net","ContactPhone":"916-580-4117","Website":"www.sixbarranch.net","Facebook":"https:\/\/www.facebook.com\/sixbarranch\/","Twitter":null,"Instagram":null,"Pinterest":null,"Youtube":null,"Blog":null,"Address":"3729 Catlett Road, Pleasant Grove, California 95668","State":"California","City":"Pleasant Grove","Street":"3729 Catlett Road","Zip":"95668","Longitude":"-121.47099","Latitude":"38.852006","Dates":null,"Products":""},{"Type":"on-farm market","ModifyDate":"Jul 28th, 2014","Image":"default-onfarmmarket-4-3.jpg","ListingID":"700196","Name":"Yolo Land & Cattle 100% Grass Fed Beef","Description":null,"ContactName":"Karen Stone","ContactEmail":"ylccbeef@gmail.com","ContactPhone":"530-204-3285 or 530-","Website":"www.yololandandcattle.com","Facebook":null,"Twitter":null,"Instagram":null,"Pinterest":null,"Youtube":null,"Blog":null,"Address":"37874 County Road 28, Woodland, California 95695","State":"California","City":"Woodland","Street":"37874 County Road 28","Zip":"95695","Longitude":"-121.80498","Latitude":"38.6050989","Dates":null,"Products":""},{"Type":"on-farm market","ModifyDate":"Jul 28th, 2014","Image":"default-onfarmmarket-4-3.jpg","ListingID":"700601","Name":"Roaring L Ranch","Description":null,"ContactName":"Richard and Patty Lyons","ContactEmail":"patlyons2002@yahoo.com","ContactPhone":"760 868-6826","Website":null,"Facebook":null,"Twitter":null,"Instagram":null,"Pinterest":null,"Youtube":null,"Blog":null,"Address":"11124 Monte Vista Road, Phelan, California 92371","State":"California","City":"Phelan","Street":"11124 Monte Vista Road","Zip":"92371","Longitude":"-117.56063","Latitude":"34.4522580","Dates":null,"Products":""},{"Type":"on-farm market","ModifyDate":"Jul 28th, 2014","Image":"default-onfarmmarket-4-3.jpg","ListingID":"700661","Name":"Loving Nature Farm, Inc.","Description":null,"ContactName":"Michael Wong","ContactEmail":"michaelwong250@gmail.com","ContactPhone":"916-899-1154","Website":"LovingNatureFarm.com","Facebook":null,"Twitter":null,"Instagram":null,"Pinterest":null,"Youtube":null,"Blog":null,"Address":"38883 Z Line Road, Clarksburg, California 95612","State":"California","City":"Clarksburg","Street":"38883 Z Line Road","Zip":"95612","Longitude":"-121.62174","Latitude":"38.373191","Dates":null,"Products":""},{"Type":"on-farm market","ModifyDate":"Jul 29th, 2014","Image":"default-onfarmmarket-4-3.jpg","ListingID":"700280","Name":"Sinclair Family Farm","Description":null,"ContactName":"Karin Sinclair","ContactEmail":"karin@sinclairfamilyfarm.net","ContactPhone":"916-663-0303","Website":"www.sinclairfamilyfarm.net","Facebook":"karinsinclair","Twitter":"https:\/\/www.twitter.com\/karinsinclair","Instagram":null,"Pinterest":null,"Youtube":null,"Blog":null,"Address":"7209 Church Street, Penryn, California 95663","State":"California","City":"Penryn","Street":"7209 Church Street","Zip":"95663","Longitude":"-121.16917","Latitude":"38.852928","Dates":null,"Products":""},{"Type":"on-farm market","ModifyDate":"Jul 30th, 2014","Image":"default-onfarmmarket-4-3.jpg","ListingID":"700086","Name":"Amador Flower Farm","Description":null,"ContactName":"Jeanne Deaver","ContactEmail":"daylilies@daylilyfarm.com","ContactPhone":"209-245-6660","Website":"AmadorFlowerFarm.com","Facebook":"https:\/\/www.facebook.com\/pages\/Amador-Flower-Farm-Nursery\/129585181590","Twitter":null,"Instagram":null,"Pinterest":null,"Youtube":null,"Blog":null,"Address":"22001 Shenandoah School Road, Plymouth, California 95669","State":"California","City":"Plymouth","Street":"22001 Shenandoah School Road","Zip":"95669","Longitude":"-120.80419","Latitude":"38.528671","Dates":null,"Products":""},{"Type":"on-farm market","ModifyDate":"Jul 30th, 2014","Image":"default-onfarmmarket-4-3.jpg","ListingID":"700104","Name":"Wise Acre Farm","Description":null,"ContactName":"Mary Fahey","ContactEmail":"mary@wiseacrefarm.com","ContactPhone":"530-383-4625","Website":null,"Facebook":"https:\/\/www.facebook.com\/pages\/Wise-Acre-Farm\/167689377472?ref=hl","Twitter":null,"Instagram":null,"Pinterest":null,"Youtube":null,"Blog":null,"Address":"6613 Harrington Avenue, Arbuckle, California 95912","State":"California","City":"Arbuckle","Street":"6613 Harrington Avenue","Zip":"95912","Longitude":"-122.06608","Latitude":"38.9530130","Dates":null,"Products":""},{"Type":"on-farm market","ModifyDate":"Jul 30th, 2014","Image":"default-onfarmmarket-4-3.jpg","ListingID":"700129","Name":"Harmony Lavender","Description":null,"ContactName":"Claudia Estrada","ContactEmail":"harmonylavender@gmail.com","ContactPhone":"805-423-6763","Website":null,"Facebook":"https:\/\/www.facebook.com\/harmonylavender","Twitter":"https:\/\/www.twitter.com\/harmonylavender","Instagram":null,"Pinterest":null,"Youtube":null,"Blog":null,"Address":"7045 Sycamore Rd., Atascadero, California 93422","State":"California","City":"Atascadero","Street":"7045 Sycamore Rd.","Zip":"93422","Longitude":"-120.64940","Latitude":"35.4973160","Dates":null,"Products":""},{"Type":"on-farm market","ModifyDate":"Jul 30th, 2014","Image":"default-onfarmmarket-4-3.jpg","ListingID":"700264","Name":"Berry Heaven","Description":null,"ContactName":"Terrie Cook","ContactEmail":"moonchldt@aol.com","ContactPhone":"530-333-9037","Website":"www.BerryHeavenUSA.com","Facebook":"https:\/\/www.facebook.com\/pages\/Berry-Heaven-USA\/184265071641852?ref=hl","Twitter":null,"Instagram":null,"Pinterest":null,"Youtube":null,"Blog":null,"Address":"5170 Marshall Road, Garden Valley, California 95633","State":"California","City":"Garden Valley","Street":"5170 Marshall Road","Zip":"95633","Longitude":"-120.86701","Latitude":"38.847827","Dates":null,"Products":""},{"Type":"on-farm market","ModifyDate":"Jul 30th, 2014","Image":"default-onfarmmarket-4-3.jpg","ListingID":"700316","Name":"Kendall Farms","Description":null,"ContactName":"Jason Kendall","ContactEmail":"info@kendallfarms.com","ContactPhone":"760-731-0681","Website":"www.kendall-farms.com","Facebook":"https:\/\/www.facebook.com\/Kendall.Farms","Twitter":null,"Instagram":null,"Pinterest":null,"Youtube":null,"Blog":null,"Address":"4230 White Lilac Rd, Fallbrook, California 92028","State":"California","City":"Fallbrook","Street":"4230 White Lilac Rd","Zip":"92028","Longitude":"-117.16462","Latitude":"33.3923559","Dates":null,"Products":""},{"Type":"on-farm market","ModifyDate":"Jul 30th, 2014","Image":"default-onfarmmarket-4-3.jpg","ListingID":"700347","Name":"Anderson Almonds","Description":null,"ContactName":"Glenn Anderson","ContactEmail":"ORGLENIC@GMAIL.COM","ContactPhone":"209-667-7494","Website":"ANDERSONALMONDS.COM","Facebook":null,"Twitter":null,"Instagram":null,"Pinterest":null,"Youtube":null,"Blog":null,"Address":"6401 Hultberg Rd, Hilmar, California 95324","State":"California","City":"Hilmar","Street":"6401 Hultberg Rd","Zip":"95324","Longitude":"-120.89612","Latitude":"37.381382","Dates":null,"Products":""},{"Type":"on-farm market","ModifyDate":"Jul 30th, 2014","Image":"default-onfarmmarket-4-3.jpg","ListingID":"700504","Name":"Summerset & Farm Dale's Nursery","Description":null,"ContactName":"Dale Bostrom","ContactEmail":"dalesnursery@gmail.com","ContactPhone":"805-895-7902","Website":"www.facebook.com\/SummersetFarm?ref=hl","Facebook":"www.facebook.com\/SummersetFarm?ref=hl","Twitter":null,"Instagram":null,"Pinterest":null,"Youtube":null,"Blog":null,"Address":"3450 Baseline Ave, Santa Ynez, California 93460","State":"California","City":"Santa Ynez","Street":"3450 Baseline Ave","Zip":"93460","Longitude":"-120.08107","Latitude":"34.633692","Dates":null,"Products":""},{"Type":"on-farm market","ModifyDate":"Jul 30th, 2014","Image":"default-onfarmmarket-4-3.jpg","ListingID":"700653","Name":"Naylor Organics","Description":null,"ContactName":"Nori Naylor","ContactEmail":"naylor.organics@gmail.com","ContactPhone":"559-824-0811","Website":"www.kyf2\/me\/ca\/0012","Facebook":"www.facebook.com\/naylor.organics","Twitter":"www.twitter.com\/NaylorOrganics","Instagram":null,"Pinterest":null,"Youtube":null,"Blog":"peachfuzzbuzz.wordpress.com\/","Address":"38918 Road 64, Dinuba, California 93618","State":"California","City":"Dinuba","Street":"38918 Road 64","Zip":"93618","Longitude":"-119.42900","Latitude":"36.497327","Dates":null,"Products":""},{"Type":"on-farm market","ModifyDate":"Jul 31st, 2014","Image":"default-onfarmmarket-4-3.jpg","ListingID":"700431","Name":"Willowbrook Apple Farm","Description":null,"ContactName":"Cheryl Swanson","ContactEmail":"Willowbrookapple@aol.com","ContactPhone":"909-797-9484","Website":"willowbrookapple.tripod.com","Facebook":null,"Twitter":null,"Instagram":null,"Pinterest":null,"Youtube":null,"Blog":null,"Address":"12099 S. Oak Glen Road, Oak Glen, California 92399","State":"California","City":"Oak Glen","Street":"12099 S. Oak Glen Road","Zip":"92399","Longitude":"-116.94021","Latitude":"34.0350800","Dates":null,"Products":""},{"Type":"on-farm market","ModifyDate":"Jun 19th, 2015","Image":"default-onfarmmarket-4-3.jpg","ListingID":"701276","Name":"Xiong Fresh Basket","Description":null,"ContactName":"Keng","ContactEmail":"freshbasket.info@gmail.com","ContactPhone":"9162541755","Website":null,"Facebook":null,"Twitter":null,"Instagram":null,"Pinterest":null,"Youtube":null,"Blog":null,"Address":"8711 Bradshaw Road, Elk Grove, California 95624","State":"California","City":"Elk Grove","Street":"8711 Bradshaw Road","Zip":"95624","Longitude":"-121.33350","Latitude":"38.443863","Dates":null,"Products":""},{"Type":"on-farm market","ModifyDate":"Jun 4th, 2020","Image":"default-onfarmmarket-4-3.jpg","ListingID":"701524","Name":"Rancho Notso Grande","Description":null,"ContactName":"JOHN OLIVAS","ContactEmail":"john@ranchonotso.com","ContactPhone":"5592691152","Website":"https:\/\/www.ranchonotso.com","Facebook":"https:\/\/www.facebook.com\/RanchoNotso\/","Twitter":null,"Instagram":null,"Pinterest":null,"Youtube":null,"Blog":null,"Address":"11961 Excelsior Avenue, Hanford, California 93230","State":"California","City":"Hanford","Street":"11961 Excelsior Avenue","Zip":"93230","Longitude":"-119.66139","Latitude":"36.401610","Dates":null,"Products":""},{"Type":"on-farm market","ModifyDate":"Mar 1st, 2015","Image":"default-onfarmmarket-4-3.jpg","ListingID":"701219","Name":"Faust Family Farm","Description":null,"ContactName":"Carol Faust","ContactEmail":"CarolFaust@aol.com","ContactPhone":"209-847-4880","Website":"http:\/\/www.localharvest.org\/faust-family-farm-M49252","Facebook":"https:\/\/www.facebook.com\/pages\/Faust-Family-Farm\/207071019443543?ref=hi","Twitter":null,"Instagram":null,"Pinterest":null,"Youtube":null,"Blog":null,"Address":"9742 Dillwood Rd., Oakdale , California 95361","State":"California","City":"Oakdale","Street":"9742 Dillwood Rd.","Zip":"95361","Longitude":"-120.79311","Latitude":"37.779937","Dates":null,"Products":""},{"Type":"on-farm market","ModifyDate":"Mar 20th, 2020","Image":"default-onfarmmarket-4-3.jpg","ListingID":"701509","Name":"Peace and Plenty Farm","Description":null,"ContactName":"MELINDA PRICE","ContactEmail":"peaceplentyfarm@gmail.com","ContactPhone":"4152330786","Website":"https:\/\/www.peaceplentyfarm.com","Facebook":"@peaceplentyfarm","Twitter":null,"Instagram":null,"Pinterest":null,"Youtube":null,"Blog":"https:\/\/www.peaceandplenty.events\/","Address":"4550 Soda Bay Road, Kelseyville, California 95451","State":"California","City":"Kelseyville","Street":"4550 Soda Bay Road","Zip":"95451","Longitude":"-122.82627","Latitude":"39.011529","Dates":null,"Products":""},{"Type":"on-farm market","ModifyDate":"Mar 23rd, 2015","Image":"default-onfarmmarket-4-3.jpg","ListingID":"700802","Name":"Nakagawa Ranches","Description":null,"ContactName":"Keiko Nakagawa","ContactEmail":"keiko@nakagawaranches.com","ContactPhone":"209-754-5550","Website":"www.nakagawaranches.com","Facebook":null,"Twitter":null,"Instagram":null,"Pinterest":null,"Youtube":null,"Blog":null,"Address":"5981 Mountain Ranch Road, San Andreas, California 95249","State":"California","City":"San Andreas","Street":"5981 Mountain Ranch Road","Zip":"95249","Longitude":"0.045662","Latitude":"0.049438","Dates":null,"Products":""},{"Type":"on-farm market","ModifyDate":"Mar 23rd, 2015","Image":"default-onfarmmarket-4-3.jpg","ListingID":"700996","Name":"Ballou's Farm","Description":null,"ContactName":"Lou Ballou","ContactEmail":"louballou@yahoo.com","ContactPhone":"760.723.3614","Website":null,"Facebook":null,"Twitter":null,"Instagram":null,"Pinterest":null,"Youtube":null,"Blog":null,"Address":"550 Golden Road, Fallbrook, California 92028","State":"California","City":"Fallbrook","Street":"550 Golden Road","Zip":"92028","Longitude":"-117.24439","Latitude":"33.3725040","Dates":null,"Products":""},{"Type":"on-farm market","ModifyDate":"Mar 23rd, 2015","Image":"default-onfarmmarket-4-3.jpg","ListingID":"701085","Name":"Farm Stand West","Description":null,"ContactName":"Laura Kapusnik","ContactEmail":"lhillebrecht@att.net","ContactPhone":"7605051527","Website":"http:\/\/www.thefarmstandwest.com\/","Facebook":"http:\/\/www.facebook.com\/FransOriginalFarmStand","Twitter":"http:\/\/twitter.com\/FarmstandWest","Instagram":null,"Pinterest":null,"Youtube":null,"Blog":null,"Address":"2115 Miller Ave, Escondido, California 92025","State":"California","City":"Escondido","Street":"2115 Miller Ave","Zip":"92025","Longitude":"-117.08007","Latitude":"33.092108","Dates":null,"Products":""},{"Type":"on-farm market","ModifyDate":"Mar 25th, 2015","Image":"default-onfarmmarket-4-3.jpg","ListingID":"700025","Name":"Templeton Valley Farms","Description":null,"ContactName":"Edwin Rambuski","ContactEmail":"templetonvalleyfarms@gmail.com","ContactPhone":"805-234-6912","Website":"http:\/\/www.templetonvalleyfarms.com\/","Facebook":"https:\/\/www.facebook.com\/TempletonValleyFarms","Twitter":null,"Instagram":null,"Pinterest":null,"Youtube":null,"Blog":null,"Address":"880 Climbing Tree Lane, Templeton, California 93465","State":"California","City":"Templeton","Street":"880 Climbing Tree Lane","Zip":"93465","Longitude":"-120.64107","Latitude":"35.5744920","Dates":null,"Products":""},{"Type":"on-farm market","ModifyDate":"Mar 30th, 2016","Image":"default-onfarmmarket-4-3.jpg","ListingID":"701322","Name":"Top Line Milk","Description":null,"ContactName":"Paul Van Warmerdam","ContactEmail":"paul@toplinemilk.com","ContactPhone":"209 678 2251","Website":"www.toplinemilk.com","Facebook":"https:\/\/www.facebook.com\/toplinemilk\/","Twitter":"https:\/\/twitter.com\/TopLineMilk","Instagram":null,"Pinterest":null,"Youtube":null,"Blog":null,"Address":"6335 Oakdale Road, Winton, California 95388","State":"California","City":"Winton","Street":"6335 Oakdale Road","Zip":"95388","Longitude":"-120.58656","Latitude":"37.442705","Dates":null,"Products":""},{"Type":"on-farm market","ModifyDate":"Mar 31st, 2020","Image":"default-onfarmmarket-4-3.jpg","ListingID":"701514","Name":"Loose Rooster Ranch","Description":null,"ContactName":"Katrina Lomax","ContactEmail":"looseroosterranch@gmail.com","ContactPhone":"925-308-7126","Website":"www.looseroosterranch.com","Facebook":"@looseroost","Twitter":null,"Instagram":null,"Pinterest":null,"Youtube":null,"Blog":null,"Address":"3280 Bixler Road, Brentwood , California 94513","State":"California","City":"Brentwood","Street":"3280 Bixler Road","Zip":"94513","Longitude":"-121.62364","Latitude":"37.893067","Dates":null,"Products":""},{"Type":"on-farm market","ModifyDate":"May 13th, 2016","Image":"default-onfarmmarket-4-3.jpg","ListingID":"701337","Name":"Top Hill Farm","Description":null,"ContactName":"Top Hill Farm","ContactEmail":"Tophillfarm@gmail.com","ContactPhone":"9167424533","Website":"Tophillfarm.com","Facebook":null,"Twitter":null,"Instagram":null,"Pinterest":null,"Youtube":null,"Blog":"Top hill farms log spot.com","Address":"2195 Base Line Roaf, Roseville, California 95747","State":"California","City":"Roseville","Street":"2195 Base Line Roaf","Zip":"95747","Longitude":"-121.32192","Latitude":"38.7514201","Dates":null,"Products":""},{"Type":"on-farm market","ModifyDate":"Nov 22nd, 2021","Image":"default-onfarmmarket-4-3.jpg","ListingID":"701622","Name":"Petaluma Bounty","Description":null,"ContactName":"Suzi Grady","ContactEmail":"suzi@petalumabounty.org","ContactPhone":"7073649118","Website":"www.petalumabounty.org","Facebook":"https:\/\/www.facebook.com\/petalumabounty\/","Twitter":null,"Instagram":null,"Pinterest":null,"Youtube":null,"Blog":null,"Address":"55 Shasta Ave, Petaluma, California 94952","State":"California","City":"Petaluma","Street":"55 Shasta Ave","Zip":"94952","Longitude":"-122.62843","Latitude":"38.242618","Dates":null,"Products":""},{"Type":"on-farm market","ModifyDate":"Oct 12th, 2014","Image":"default-onfarmmarket-4-3.jpg","ListingID":"700529","Name":"Burgeson Family Farm","Description":null,"ContactName":"Burgeson Family Farm","ContactEmail":"burgesonfamilyfarm@gmail.com","ContactPhone":"916-663-4352","Website":"www.burgesonfamilyfarm.com","Facebook":null,"Twitter":null,"Instagram":null,"Pinterest":null,"Youtube":null,"Blog":null,"Address":"9911 Quail Hill Drive, Newcastle, California 95658","State":"California","City":"Newcastle","Street":"9911 Quail Hill Drive","Zip":"95658","Longitude":"-121.11492","Latitude":"38.8688000","Dates":null,"Products":""},{"Type":"on-farm market","ModifyDate":"Oct 16th, 2014","Image":"default-onfarmmarket-4-3.jpg","ListingID":"701141","Name":"KG Farms","Description":null,"ContactName":"Katie Andersen","ContactEmail":"KGFarms323@gmail.com","ContactPhone":"2099204036","Website":null,"Facebook":"https:\/\/www.facebook.com\/KGFarms323","Twitter":null,"Instagram":null,"Pinterest":null,"Youtube":null,"Blog":null,"Address":"7000 Westhill Rd., Valley Springs, California 95252","State":"California","City":"Valley Springs","Street":"7000 Westhill Rd.","Zip":"95252","Longitude":"-120.85915","Latitude":"38.1180620","Dates":null,"Products":""},{"Type":"on-farm market","ModifyDate":"Oct 22nd, 2014","Image":"default-onfarmmarket-4-3.jpg","ListingID":"700468","Name":"Sun Mountain Farm","Description":null,"ContactName":"stanley geel","ContactEmail":"sunmountain@directcon.net","ContactPhone":"530-621-3740","Website":"sunmountainfarm.com","Facebook":null,"Twitter":null,"Instagram":null,"Pinterest":null,"Youtube":null,"Blog":null,"Address":"3000 North Canyon Road, Camino, California 95709","State":"California","City":"Camino","Street":"3000 North Canyon Road","Zip":"95709","Longitude":"-120.72219","Latitude":"38.7496880","Dates":null,"Products":""},{"Type":"on-farm market","ModifyDate":"Sep 10th, 2014","Image":"default-onfarmmarket-4-3.jpg","ListingID":"701053","Name":"Open Space Meats LLC","Description":null,"ContactName":"Seth Nitschke","ContactEmail":"orders@openspacemeats.com","ContactPhone":"209-262-8780","Website":"http:\/\/www.openspacemeats.com\/","Facebook":"https:\/\/www.facebook.com\/pages\/Open-Space-Meats-Grass-Fed-Beef\/57371751078","Twitter":"https:\/\/www.twitter.com\/openspacemeats","Instagram":null,"Pinterest":null,"Youtube":null,"Blog":"https:\/\/www.facebook.com\/pages\/Open-Space-Meats-Grass-Fed-Beef\/57371751078","Address":"1215 S Street, Newman, California 95360","State":"California","City":"Newman","Street":"1215 S Street","Zip":"95360","Longitude":"-121.02887","Latitude":"37.3154139","Dates":null,"Products":""},{"Type":"on-farm market","ModifyDate":"Sep 13th, 2016","Image":"default-onfarmmarket-4-3.jpg","ListingID":"701370","Name":"Monterey Gold Honey","Description":null,"ContactName":"Paul Del Piero","ContactEmail":"paul@montereygoldhoney.com","ContactPhone":"(831) 250-6727","Website":"http:\/\/montereygoldhoney.com\/","Facebook":"https:\/\/www.facebook.com\/montereygoldhoney","Twitter":null,"Instagram":null,"Pinterest":null,"Youtube":null,"Blog":null,"Address":"PO Box 94, Pebble Beach, California 93953","State":"California","City":"Pebble Beach","Street":"PO Box 94","Zip":"93953","Longitude":"-121.95171","Latitude":"36.568737","Dates":null,"Products":""},{"Type":"on-farm market","ModifyDate":"Sep 15th, 2014","Image":"default-onfarmmarket-4-3.jpg","ListingID":"701073","Name":"Fenton Family Farm","Description":null,"ContactName":"Mike  Fenton","ContactEmail":"fentonfamilyfarm@yahoo.com","ContactPhone":"7604518859","Website":"https:\/\/www.facebook.com\/fentonfamilyfarm","Facebook":"https:\/\/www.facebook.com\/fentonfamilyfarm","Twitter":null,"Instagram":null,"Pinterest":null,"Youtube":null,"Blog":null,"Address":"2235 Riverview Road, De Luz, California 92028","State":"California","City":"De Luz","Street":"2235 Riverview Road","Zip":"92028","Longitude":"-117.31544","Latitude":"33.418937","Dates":null,"Products":""},{"Type":"on-farm market","ModifyDate":"Sep 16th, 2014","Image":"default-onfarmmarket-4-3.jpg","ListingID":"700506","Name":"Scott River Ranch, LLC","Description":null,"ContactName":null,"ContactEmail":"customerservice@scottriverranch.com","ContactPhone":"530 467-4006","Website":null,"Facebook":null,"Twitter":null,"Instagram":null,"Pinterest":null,"Youtube":null,"Blog":null,"Address":"1138 East Callahan Road, Etna, California 96027","State":"California","City":"Etna","Street":"1138 East Callahan Road","Zip":"96027","Longitude":"-122.84215","Latitude":"41.441142","Dates":null,"Products":""},{"Type":"on-farm market","ModifyDate":"Sep 17th, 2014","Image":"default-onfarmmarket-4-3.jpg","ListingID":"700140","Name":"Fran's Original Farm Stand","Description":null,"ContactName":"Laura","ContactEmail":"farmstandwest@gmail.com","ContactPhone":"760-504-0101","Website":"http:\/\/www.thefarmstandwest.com\/","Facebook":"http:\/\/www.facebook.com\/FransOriginalFarmStand","Twitter":"http:\/\/twitter.com\/FarmstandWest","Instagram":null,"Pinterest":null,"Youtube":null,"Blog":null,"Address":"1980 Summit Dr, Escondido, California 92027","State":"California","City":"Escondido","Street":"1980 Summit Dr","Zip":"92027","Longitude":"-117.04501","Latitude":"33.107489","Dates":null,"Products":""},{"Type":"on-farm market","ModifyDate":"Sep 17th, 2014","Image":"default-onfarmmarket-4-3.jpg","ListingID":"701079","Name":"Pauma Tribal Farms","Description":null,"ContactName":"Ellee Igoe","ContactEmail":"solidarityfarmsd@gmail.com","ContactPhone":"760-297-0838","Website":"solidarityfarmsd.com","Facebook":"https:\/\/www.facebook.com\/solidarity.farm","Twitter":null,"Instagram":null,"Pinterest":null,"Youtube":null,"Blog":null,"Address":"14909 Pauma Valley Drive, Pauma Valley, California 92061","State":"California","City":"Pauma Valley","Street":"14909 Pauma Valley Drive","Zip":"92061","Longitude":"-117.00608","Latitude":"33.311364","Dates":null,"Products":""},{"Type":"on-farm market","ModifyDate":"Sep 23rd, 2014","Image":"default-onfarmmarket-4-3.jpg","ListingID":"700818","Name":"Petit Teton Farm","Description":null,"ContactName":null,"ContactEmail":"farmer@petitteton.com","ContactPhone":null,"Website":"http:\/\/www.petitteton.com\/","Facebook":"https:\/\/www.facebook.com\/pages\/Petit-Teton-Farm\/229690830390080?sk=wall#","Twitter":null,"Instagram":null,"Pinterest":null,"Youtube":null,"Blog":null,"Address":"18601 Highway 128, Yorkville, California","State":"California","City":"Yorkville","Street":"18601 Highway 128","Zip":null,"Longitude":"-123.34034","Latitude":"38.9624588","Dates":null,"Products":""},{"Type":"on-farm market","ModifyDate":"Sep 23rd, 2014","Image":"default-onfarmmarket-4-3.jpg","ListingID":"700988","Name":"Growing Grounds Farm","Description":null,"ContactName":null,"ContactEmail":"growinggrounds@t-mha.org","ContactPhone":null,"Website":"http:\/\/www.growinggroundsfarm.org\/","Facebook":"https:\/\/www.facebook.com\/pages\/Growing-Grounds-Farm-San-Luis-Obispo\/136646096366619","Twitter":null,"Instagram":null,"Pinterest":null,"Youtube":null,"Blog":null,"Address":"3740 Orcutt Road , San Luis Obispo, California","State":"California","City":"San Luis Obispo","Street":"3740 Orcutt Road","Zip":null,"Longitude":"-120.63433","Latitude":"35.2609340","Dates":null,"Products":""},{"Type":"on-farm market","ModifyDate":"Sep 30th, 2014","Image":"default-onfarmmarket-4-3.jpg","ListingID":"700325","Name":"DAMAS Vinyeards","Description":null,"ContactName":"Mara Feeney","ContactEmail":"info@damasvineyards.com","ContactPhone":"4157168115","Website":"www.damasvineyards.com","Facebook":null,"Twitter":null,"Instagram":null,"Pinterest":null,"Youtube":null,"Blog":null,"Address":", Fiddletown, California 95629","State":"California","City":"Fiddletown","Street":"","Zip":"95629","Longitude":"-120.75656","Latitude":"38.5039105","Dates":null,"Products":""},{"Type":"on-farm market","ModifyDate":"Sep 30th, 2014","Image":"default-onfarmmarket-4-3.jpg","ListingID":"700523","Name":"Harris Orchards","Description":null,"ContactName":"MICHAEL HARRIS","ContactEmail":"charfarmer@aol.com","ContactPhone":"209-541-5562","Website":null,"Facebook":null,"Twitter":null,"Instagram":null,"Pinterest":null,"Youtube":null,"Blog":null,"Address":"18600 N Ripon Rd, Ripon, California 95366","State":"California","City":"Ripon","Street":"18600 N Ripon Rd","Zip":"95366","Longitude":"-121.12476","Latitude":"37.791711","Dates":null,"Products":""},{"Type":"on-farm market","ModifyDate":"Sep 30th, 2014","Image":"default-onfarmmarket-4-3.jpg","ListingID":"700604","Name":"Pacific Star Gardens","Description":null,"ContactName":"Robert Ramming","ContactEmail":"pacificstargardens@yahoo.com","ContactPhone":"530-666-7308","Website":null,"Facebook":null,"Twitter":null,"Instagram":null,"Pinterest":null,"Youtube":null,"Blog":null,"Address":"20872 County Road 99, Woodland, California 95695","State":"California","City":"Woodland","Street":"20872 County Road 99","Zip":"95695","Longitude":"-121.78813","Latitude":"38.6351800","Dates":null,"Products":""},{"Type":"on-farm market","ModifyDate":"Sep 30th, 2014","Image":"default-onfarmmarket-4-3.jpg","ListingID":"701108","Name":"Smokey Ridge Farmstand","Description":null,"ContactName":"Smokey Ridge Farmstand","ContactEmail":"smokeyridgeranch@gmail.com","ContactPhone":"5306265077","Website":"www.smokeyridgeranch.com","Facebook":null,"Twitter":null,"Instagram":null,"Pinterest":null,"Youtube":null,"Blog":null,"Address":"2160 Carson Road, Placerville, California 95667","State":"California","City":"Placerville","Street":"2160 Carson Road","Zip":"95667","Longitude":"-120.75327","Latitude":"38.7440177","Dates":null,"Products":""},{"Type":"on-farm market","ModifyDate":"Sep 3rd, 2014","Image":"default-onfarmmarket-4-3.jpg","ListingID":"700285","Name":"Morse Mandarin Farm","Description":null,"ContactName":"Glennda Morse","ContactEmail":"JohnandGlennda@MorseMandarinFarms.com","ContactPhone":"530-589-2126","Website":"www.morsemandarinfarms.com","Facebook":"Morse Farms","Twitter":null,"Instagram":null,"Pinterest":null,"Youtube":null,"Blog":null,"Address":"8 Feathervale Drive, Oroville, California 95966","State":"California","City":"Oroville","Street":"8 Feathervale Drive","Zip":"95966","Longitude":"-121.45330","Latitude":"39.4918480","Dates":null,"Products":""},{"Type":"on-farm market","ModifyDate":"Sep 6th, 2014","Image":"default-onfarmmarket-4-3.jpg","ListingID":"701030","Name":"123 Farm at Highland Springs Resort","Description":null,"ContactName":"Tina Kummerle","ContactEmail":"sales@123farm.com","ContactPhone":"sales@123farm.com","Website":"www.123farm.com","Facebook":"https:\/\/www.facebook.com\/hsresort","Twitter":null,"Instagram":null,"Pinterest":null,"Youtube":null,"Blog":null,"Address":"10600 Highland Springs Ave., Cherry Valley, California 92223","State":"California","City":"Cherry Valley","Street":"10600 Highland Springs Ave.","Zip":"92223","Longitude":"-116.94430","Latitude":"33.969105","Dates":null,"Products":""},{"Type":"on-farm market","ModifyDate":"Sep 6th, 2014","Image":"default-onfarmmarket-4-3.jpg","ListingID":"701031","Name":"Rancho Yobo Organics","Description":null,"ContactName":"MARTIN ENGELMAN","ContactEmail":"MARTIN@capitalart.com","ContactPhone":"8772166598","Website":null,"Facebook":null,"Twitter":null,"Instagram":null,"Pinterest":null,"Youtube":null,"Blog":null,"Address":"15062 ADAMS DRIVE, PAUMA VALLEY, California 92061","State":"California","City":"PAUMA VALLEY","Street":"15062 ADAMS DRIVE","Zip":"92061","Longitude":"-117.00455","Latitude":"33.3462710","Dates":null,"Products":""}]