[{"Type":"farmers market","ModifyDate":"Apr 14th, 2022","Image":"farmersmarket_301051_11374_20220414220506.png","ListingID":"301051","Name":"Columbia Farmers Market","Description":"Experience the taste of mid-Missouri at Columbia Farmers Market, voted the #1 People\u2019s Choice farmers market in the nation! Columbia Farmers Market is a year-round producer-only farmers market. Shop local, with everything produced within a 50-mile radius of Columbia! Over the past few years, the Columbia Farmers Market has experienced tremendous growth. With the opening of Columbia's Agriculture Park, Saturday customer counts regularly surpassed 4,000, and the vendor membership expanded to 85 local farmers, producers, and artisans. The market is deeply involved in the community, regularly hosting musicians, artisans, non-profit groups, educational opportunities, and many other special events.","ContactName":"Corrina Smith","ContactEmail":"manager@columbiafarmersmarket.org","ContactPhone":"5738236889","Website":"columbiafarmersmarket.org","Facebook":"https:\/\/www.facebook.com\/ColumbiaFarmersMarket","Twitter":"https:\/\/twitter.com\/comofarmers","Instagram":"https:\/\/www.instagram.com\/columbiafarmersmarket\/","Pinterest":"","Youtube":"https:\/\/www.youtube.com\/channel\/UCZ0xFKgsZ8_RDMFQz6wmvCg","Blog":"","Address":"1769 West Ash Street, Columbia, Missouri 65203","State":"Missouri","City":"Columbia","Street":"1769 West Ash Street","Zip":"65203","Longitude":"-92.364624","Latitude":"38.958293","Dates":"April to October","Products":"Fresh fruits, Fresh vegetables, Baked goods, Bedding plants, Canned or preserved fruits\/vegetables, Coffee\/tea, Crafts\/woodworking items, Cut flowers, Eggs, Fresh\/dried herbs, Honey, Mushrooms, Nursery stock (trees), Nuts, Poultry\/fowl meat and products, Prepared foods, Red\/other non-poultry meat and products, Soap\/body care products, Wild harvested forest products"},{"Type":"farmers market","ModifyDate":"Apr 28th, 2021","Image":"default-farmersmarket-4-3.jpg","ListingID":"301494","Name":"Webb City Farmers Market","Description":null,"ContactName":"Rachael Lynch","ContactEmail":"webbcityfm@gmail.com","ContactPhone":"4174385833","Website":"http:\/\/www.webbcityfarmersmarket.com\/","Facebook":"https:\/\/www.facebook.com\/WebbCityFarmersMarket","Twitter":null,"Instagram":null,"Pinterest":null,"Youtube":"https:\/\/www.youtube.com\/channel\/UCcFOS0YzbUDbb_dj5xQXcZg","Blog":null,"Address":"106 East Tracy Street, Webb City, Missouri 64870","State":"Missouri","City":"Webb City","Street":"106 East Tracy Street","Zip":"64870","Longitude":"-94.462592","Latitude":"37.140206","Dates":"Year-round","Products":"Fresh fruits, Fresh vegetables, Baked goods, Coffee\/tea, Crafts\/woodworking items, Cut flowers, Eggs, Fish\/seafood, Fresh\/dried herbs, Honey, Mushrooms, Nuts, Poultry\/fowl meat and products, Prepared foods, Red\/other non-poultry meat and products, Soap\/body care products"},{"Type":"farmers market","ModifyDate":"Apr 30th, 2021","Image":"default-farmersmarket-4-3.jpg","ListingID":"301499","Name":"De Soto Farmers' Market","Description":null,"ContactName":"Dawna Watkins","ContactEmail":"market@gethealthydesoto.org","ContactPhone":"6365435983","Website":"https:\/\/gethealthydesoto.org\/","Facebook":"https:\/\/www.facebook.com\/cultivatingfoodandcommunity","Twitter":null,"Instagram":null,"Pinterest":null,"Youtube":"https:\/\/www.youtube.com\/channel\/UCW0fYCdzTgTVIeWAGlLjicw","Blog":null,"Address":"520 N. Main St., DeSoto, Missouri 63020","State":"Missouri","City":"DeSoto","Street":"520 N. Main St.","Zip":"63020","Longitude":"-90.552205","Latitude":"38.143674","Dates":"April to October","Products":"Fresh fruits, Fresh vegetables, Baked goods, Bedding plants, Canned or preserved fruits\/vegetables, Coffee\/tea, Crafts\/woodworking items, Cut flowers, Eggs, Fresh\/dried herbs, Grains\/flour, Honey, Mushrooms, Nursery stock, Poultry\/fowl meat and products, Red\/other non-poultry meat and products, Soap\/body care products"},{"Type":"farmers market","ModifyDate":"Aug 11th, 2022","Image":"farmersmarket_301755_14260_20220811190636.png","ListingID":"301755","Name":"Brookside Farmers Market - Summer ","Description":"Brookside Farmers\u2019 Market is an sustainable, regenerative, pesticide-free local, producer-only market. Producers use organic, sustainable and cruelty-free practices, travel less than 125 miles to market, and those who grow, raise or make every product are the ones who sell it to you directly. \r\n\r\nEach Saturday you will find just-picked, farm-fresh vegetables and herbs, bright flowers, delicious meats, eggs from free-range chickens, freshly prepared breads and baked goods including many vegan and gluten-free items, fresh juices, and a place to sit and take in the scene.\r\n\r\nThe market has brought farm fresh produce to the Brookside neighborhood and beyond since 2003.\r\n\r\nThe market is located at HJ's Community Center and is open Saturdays 8 a.m. to 1 p.m. through October 31.  Check website for WINTER MARKET dates, hours, and location.","ContactName":"Kyra Gross","ContactEmail":"info@brooksidefarmersmarket.com","ContactPhone":"8166786225","Website":"https:\/\/www.brooksidefarmersmarket.com\/","Facebook":"https:\/\/www.facebook.com\/BrooksideFarmersMarket","Twitter":"","Instagram":"https:\/\/www.instagram.com\/brooksidefarmersmarket\/?hl=en","Pinterest":"","Youtube":"","Blog":"","Address":"6425 Wornall Road, Kansas City, MO, USA","State":"Missouri","City":"Kansas City","Street":"6425 Wornall Road","Zip":"64113","Longitude":"-94.5928759","Latitude":"39.0113037","Dates":"04\/01\/2022 to 10\/29\/2022","Products":"Fresh fruits, Fresh vegetables, Baked goods, Canned or preserved fruits\/vegetables, Coffee\/tea, Crafts\/woodworking items, Cut flowers, Eggs, Fresh\/dried herbs, Grains\/flour, Honey, Juices\/non-alcoholic ciders, Mushrooms, Pet food, Prepared foods, Soap\/body care products"},{"Type":"farmers market","ModifyDate":"Feb 1st, 2022","Image":"default-farmersmarket-4-3.jpg","ListingID":"301644","Name":"One African! One Nation! Farmers Market","Description":null,"ContactName":"Kalambayi Andanet","ContactEmail":"stlouis.manager@oneafricamarket.com","ContactPhone":"3143808016","Website":"4031 W. Florissant Ave, St Louis, MO 63107","Facebook":"https:\/\/www.facebook.com\/OneAfricaMarket\/","Twitter":null,"Instagram":null,"Pinterest":null,"Youtube":"https:\/\/www.youtube.com\/c\/BlackPowerBlueprint","Blog":null,"Address":"4031 W. Florissant Ave., St Louis, Missouri 63107","State":"Missouri","City":"St Louis","Street":"4031 W. Florissant Ave.","Zip":"63107","Longitude":"-90.218914","Latitude":"38.674084","Dates":"April to October","Products":"Fresh fruits, Fresh vegetables, Baked goods, Bedding plants, Canned or preserved fruits\/vegetables, Coffee\/tea, Crafts\/woodworking items, Cut flowers, Dairy products., Eggs, Fresh\/dried herbs, Honey, Mushrooms, Nuts, Poultry\/fowl meat and products, Prepared foods, Red\/other non-poultry meat and products, Soap\/body care products"},{"Type":"farmers market","ModifyDate":"Feb 2nd, 2021","Image":"default-farmersmarket-4-3.jpg","ListingID":"301419","Name":"Knox County Farmers Market","Description":null,"ContactName":"Echo Menges","ContactEmail":"echo.menges@gmail.com","ContactPhone":"6602990220","Website":"https:\/\/knoxcountyfarmersmarket.wordpress.com\/","Facebook":"https:\/\/www.facebook.com\/KnoxCountyMOFarmersMarket","Twitter":null,"Instagram":null,"Pinterest":null,"Youtube":null,"Blog":null,"Address":"107 N 4th St, Edina, Missouri 63537","State":"Missouri","City":"Edina","Street":"107 N 4th St","Zip":"63537","Longitude":"-92.172403","Latitude":"40.167824","Dates":"May to October","Products":"Fresh fruits, Fresh vegetables, Baked goods, Bedding plants, Canned or preserved fruits\/vegetables, Crafts\/woodworking items, Cut flowers, Eggs, Fresh\/dried herbs, Honey, Prepared foods, Soap\/body care products"},{"Type":"farmers market","ModifyDate":"Feb 2nd, 2021","Image":"default-farmersmarket-4-3.jpg","ListingID":"301420","Name":"Steelville Farmer & Artist Saturday Morning Market","Description":null,"ContactName":"Sarah E Carney","ContactEmail":"sedcarney@gmail.com","ContactPhone":"6189463449","Website":null,"Facebook":"https:\/\/www.facebook.com\/SteelvilleMarket\/","Twitter":null,"Instagram":null,"Pinterest":null,"Youtube":null,"Blog":null,"Address":"392 Main St, Steelville, Missouri 65565","State":"Missouri","City":"Steelville","Street":"392 Main St","Zip":"65565","Longitude":"-91.358368","Latitude":"37.967138","Dates":"May to October","Products":"Fresh fruits, Fresh vegetables, Baked goods, Bedding plants, Canned or preserved fruits\/vegetables, Crafts\/woodworking items, Cut flowers, Dairy products., Eggs, Fresh\/dried herbs, Honey, Soap\/body care products, Wild harvested forest products"},{"Type":"farmers market","ModifyDate":"Feb 2nd, 2021","Image":"default-farmersmarket-4-3.jpg","ListingID":"301421","Name":"Steelville Farmer & Artist Wednesday Night Market","Description":null,"ContactName":"Sarah E Carney","ContactEmail":"steelvillemarket@gmail.com","ContactPhone":"5737433018","Website":null,"Facebook":"https:\/\/www.facebook.com\/SteelvilleMarket\/","Twitter":null,"Instagram":null,"Pinterest":null,"Youtube":null,"Blog":null,"Address":"Hoppe Spring Park, Church Street, Steelville, Missouri 65565","State":"Missouri","City":"Steelville","Street":"Hoppe Spring Park, Church Street","Zip":"65565","Longitude":"-91.359291","Latitude":"37.966076","Dates":"May","Products":"Fresh fruits, Fresh vegetables, Baked goods, Bedding plants, Canned or preserved fruits\/vegetables, Crafts\/woodworking items, Cut flowers, Dairy products., Eggs, Honey, Soap\/body care products, Wild harvested forest products"},{"Type":"farmers market","ModifyDate":"Jan 26th, 2021","Image":"default-farmersmarket-4-3.jpg","ListingID":"300607","Name":"Louisiana Community Betterment Farmer's Market","Description":null,"ContactName":"Diana Huckstep","ContactEmail":"lmofarmersmkt@yahoo.com","ContactPhone":"314-640-4420","Website":null,"Facebook":"Louisiana Community Betterment Farmers Market","Twitter":null,"Instagram":null,"Pinterest":null,"Youtube":null,"Blog":null,"Address":"Sunset Park, Georgia Street, Louisiana , Missouri 63353","State":"Missouri","City":"Louisiana","Street":"Georgia Street","Zip":"63353","Longitude":"-91.062659","Latitude":"39.441188","Dates":"May to October","Products":"Fresh fruits, Fresh vegetables, Baked goods, Bedding plants, Canned or preserved fruits\/vegetables, Crafts\/woodworking items, Cut flowers, Eggs, Fresh\/dried herbs, Honey, Juices\/non-alcoholic ciders, Maple products, Nuts, Prepared foods, Soap\/body care products"},{"Type":"farmers market","ModifyDate":"Jan 4th, 2022","Image":"default-farmersmarket-4-3.jpg","ListingID":"301627","Name":"Cape Riverfront Market","Description":null,"ContactName":"Andrea Hamm","ContactEmail":"caperiverfrontmarket@gmail.com","ContactPhone":"5733348085","Website":"https:\/\/www.downtowncapegirardeau.com\/cape-riverfront-market\/","Facebook":"https:\/\/www.facebook.com\/CapeRiverfrontMarket\/","Twitter":null,"Instagram":null,"Pinterest":null,"Youtube":null,"Blog":null,"Address":"35 S Spanish Street, Cape Girardeau, Missouri 63703","State":"Missouri","City":"Cape Girardeau","Street":"35 S Spanish Street","Zip":"63703","Longitude":"-89.519952","Latitude":"37.302782","Dates":"May to October","Products":"Fresh fruits, Fresh vegetables, Baked goods, Bedding plants, Canned or preserved fruits\/vegetables, Coffee\/tea, Crafts\/woodworking items, Cut flowers, Eggs, Fresh\/dried herbs, Honey, Maple products, Mushrooms, Nuts, Pet food, Poultry\/fowl meat and products, Prepared foods, Red\/other non-poultry meat and products, Soap\/body care products, Wild harvested forest products"},{"Type":"farmers market","ModifyDate":"Jan 5th, 2021","Image":"default-farmersmarket-4-3.jpg","ListingID":"300851","Name":"Empire Market","Description":null,"ContactName":"Ivy Hagedorn","ContactEmail":"ivy@joplinempiremarket.com","ContactPhone":"417-501-9649","Website":"https:\/\/downtownjoplin.com\/joplin-empire-market\/","Facebook":"https:\/\/www.facebook.com\/JoplinEmpireMarket","Twitter":"https:\/\/twitter.com\/TheEmpireMarket","Instagram":null,"Pinterest":null,"Youtube":null,"Blog":null,"Address":"931 E 4th St, Joplin, Missouri 64801","State":"Missouri","City":"Joplin","Street":"931 E 4th St","Zip":"64801","Longitude":"-94.502691","Latitude":"37.087883","Dates":"Year-round","Products":"Fresh fruits, Fresh vegetables, Baked goods, Bedding plants, Canned or preserved fruits\/vegetables, Coffee\/tea, Crafts\/woodworking items, Cut flowers, Dairy products., Eggs, Fresh\/dried herbs, Honey, Mushrooms, Nuts, Poultry\/fowl meat and products, Prepared foods, Red\/other non-poultry meat and products, Soap\/body care products, Wine, spirits, beer, hard cider"},{"Type":"farmers market","ModifyDate":"Jul 18th, 2022","Image":"farmersmarket_301743_14219_20220718141324.png","ListingID":"301743","Name":"Warrensburg Farmers' Market","Description":"The Warrensburg Farmers' Market strives to promote a sense of community and support for local farmers, bakers, craftsmen, and artists. There will be a wide variety of LOCAL homegrown vegetables, fruits, flowers, and food plants for sale. Pastured raised meats, eggs, baked sweets & breads, granola, and honey are also for sale at the market. Join us every Sat., 8AM-Noon, May-Sept around the JOCO Courthouse Square in Downtown Warrensburg, MO.","ContactName":"Monica Mitcheltree","ContactEmail":"farmersmarket@warrensburgmainstreet.org","ContactPhone":"660-429-3988","Website":"https:\/\/warrensburgmainstreet.org\/farmers-market\/","Facebook":"https:\/\/www.facebook.com\/warrensburgfarmersmarket","Twitter":"https:\/\/twitter.com\/WBurgFarmersMkt","Instagram":"https:\/\/www.instagram.com\/wburgfarmersmarket\/","Pinterest":"https:\/\/www.pinterest.com\/wburgfarmersmarket\/","Youtube":"","Blog":"","Address":"300 N Holden Street; Warrensburg, MO 64093","State":"Missouri","City":"Warrensburg","Street":"300 N Holden Street","Zip":"64093","Longitude":"-93.7430397","Latitude":"38.7650818","Dates":"04\/30\/2022 to 10\/01\/2022","Products":"Fresh fruits, Fresh vegetables, Baked goods, Bedding plants, Canned or preserved fruits\/vegetables, Coffee\/tea, Crafts\/woodworking items, Cut flowers, Dairy products., Eggs, Fresh\/dried herbs, Honey, Juices\/non-alcoholic ciders, Maple products, Mushrooms, Nursery stock (trees), Nuts, Pet food, Poultry\/fowl meat and products, Prepared foods, Soap\/body care products"},{"Type":"farmers market","ModifyDate":"Jul 26th, 2021","Image":"default-farmersmarket-4-3.jpg","ListingID":"301575","Name":"Albany Square Farmers Market","Description":null,"ContactName":"Mackenzie Manring","ContactEmail":"ecodev@albanymo.net","ContactPhone":"6607263807","Website":null,"Facebook":"https:\/\/www.facebook.com\/MainStreetAlbany","Twitter":null,"Instagram":null,"Pinterest":null,"Youtube":null,"Blog":null,"Address":"Albany, Missouri 64402","State":"Missouri","City":"Albany","Street":null,"Zip":"64402","Longitude":"-94.333605","Latitude":"40.247729","Dates":"May to October","Products":"Fresh fruits, Fresh vegetables, Baked goods, Bedding plants, Coffee\/tea, Cut flowers, Eggs, Honey, Poultry\/fowl meat and products, Prepared foods"},{"Type":"farmers market","ModifyDate":"Mar 27th, 2023","Image":"default-farmersmarket-4-3.jpg","ListingID":"311259","Name":"3rd Saturday Ferguson Winter Farmers' Market","Description":null,"ContactName":null,"ContactEmail":null,"ContactPhone":null,"Website":"http:\/\/saint-stephens.info\/collaboration\/ferguson-farmers-market\/","Facebook":"https:\/\/www.facebook.com\/FergusonFarmersMarket","Twitter":null,"Instagram":null,"Pinterest":null,"Youtube":null,"Blog":null,"Address":"33 N. Clay, St. Stephens, Ferguson, MO, 63135","State":"Missouri","City":"Ferguson","Street":"33 N. Clay, St. Stephens","Zip":"63135","Longitude":"-90.30071581339308","Latitude":"38.7459107861632","Dates":null,"Products":""},{"Type":"farmers market","ModifyDate":"Mar 27th, 2023","Image":"default-farmersmarket-4-3.jpg","ListingID":"311260","Name":"Arcadia Valley Farmers' Market","Description":null,"ContactName":null,"ContactEmail":"ironco@missouri.edu","ContactPhone":"573-546-7515","Website":"http:\/\/agrimissouri.com\/mo-grown\/grodetail.php?type=mo-grown&ID=1118","Facebook":"https:\/\/www.facebook.com\/pages\/Arcadia-Valley-Farmers-Market\/192406980798277","Twitter":null,"Instagram":null,"Pinterest":null,"Youtube":null,"Blog":null,"Address":"250 S. Main St., Located behind courthouse, Ironton, MO, 63650","State":"Missouri","City":"Ironton","Street":"250 S. Main St.","Zip":"63650","Longitude":"-90.62754296419803","Latitude":"37.59723780703935","Dates":null,"Products":""},{"Type":"farmers market","ModifyDate":"Mar 27th, 2023","Image":"default-farmersmarket-4-3.jpg","ListingID":"311261","Name":"B2B Jane Farmers Market","Description":null,"ContactName":null,"ContactEmail":null,"ContactPhone":"417-226-4540","Website":"http:\/\/www.mcdctrading.com","Facebook":null,"Twitter":null,"Instagram":null,"Pinterest":null,"Youtube":null,"Blog":null,"Address":"21196 Hwy 71 South, Jane, MO 64856","State":"Missouri","City":"JANE","Street":"21196 US HWY 71","Zip":"64856","Longitude":"-94.28980959652797","Latitude":"36.51804321972851","Dates":null,"Products":""},{"Type":"farmers market","ModifyDate":"Mar 27th, 2023","Image":"default-farmersmarket-4-3.jpg","ListingID":"311262","Name":"BADSEED Farmers' Market","Description":null,"ContactName":null,"ContactEmail":"brooke@badseedfarm.com","ContactPhone":"816-472-0027","Website":"http:\/\/www.badseedkc.com\/farm\/?page_id=6","Facebook":null,"Twitter":null,"Instagram":null,"Pinterest":null,"Youtube":null,"Blog":null,"Address":"1909 McGee St., Kansas City, MO, 64108","State":"Missouri","City":"Kansas City","Street":"1909 McGee St.","Zip":"64108","Longitude":"-94.58022196667135","Latitude":"39.090116756687735","Dates":null,"Products":""},{"Type":"farmers market","ModifyDate":"Mar 27th, 2023","Image":"default-farmersmarket-4-3.jpg","ListingID":"311263","Name":"Bethany Farmers' Market","Description":null,"ContactName":null,"ContactEmail":"benedicth@missouri.edu","ContactPhone":"660-876-5303","Website":null,"Facebook":null,"Twitter":null,"Instagram":null,"Pinterest":null,"Youtube":null,"Blog":null,"Address":"3606 Miller St., BTC Bank parking lot, Bethany, MO, 64642","State":"Missouri","City":"Bethany","Street":"3606 Miller St.","Zip":"64642","Longitude":"-94.01718493228775","Latitude":"40.26519692164251","Dates":null,"Products":""},{"Type":"farmers market","ModifyDate":"Mar 27th, 2023","Image":"default-farmersmarket-4-3.jpg","ListingID":"311264","Name":"Bloomfield Farmers' Market","Description":null,"ContactName":null,"ContactEmail":"larathorn@hotmail.com","ContactPhone":"573-568-3507","Website":null,"Facebook":null,"Twitter":null,"Instagram":null,"Pinterest":null,"Youtube":null,"Blog":null,"Address":"704 S. Prairie St., Bloomfield, MO, 63825","State":"Missouri","City":"Bloomfield","Street":"704 S. Prairie St.","Zip":"63825","Longitude":"-89.92986936871363","Latitude":"36.88019531234507","Dates":null,"Products":""},{"Type":"farmers market","ModifyDate":"Mar 27th, 2023","Image":"default-farmersmarket-4-3.jpg","ListingID":"311265","Name":"Boone County Farmers' Market","Description":null,"ContactName":null,"ContactEmail":"boonecou@boonecountyfarmers.com","ContactPhone":"573-443-5009","Website":"http:\/\/www.boonecountyfarmers.com","Facebook":null,"Twitter":null,"Instagram":null,"Pinterest":null,"Youtube":null,"Blog":null,"Address":"2300 Bernadette Dr., Columbia Mall Parking Lot. Northeast of Sears and South of Wendy's Restaurant, Columbia, MO, 65201","State":"Missouri","City":"Columbia","Street":"2300 Bernadette Dr.","Zip":"65201","Longitude":"-92.3750262361476","Latitude":"38.96595003535062","Dates":null,"Products":""},{"Type":"farmers market","ModifyDate":"Mar 27th, 2023","Image":"default-farmersmarket-4-3.jpg","ListingID":"311266","Name":"Briarcliff Farmer's Market","Description":null,"ContactName":null,"ContactEmail":null,"ContactPhone":"816-746-0010","Website":"http:\/\/www.briarcliffvillagekc.com","Facebook":null,"Twitter":null,"Instagram":null,"Pinterest":null,"Youtube":null,"Blog":null,"Address":"4175 mulberry drive kansas city, MO 64116","State":"Missouri","City":"KANSAS CITY","Street":"4175 N MULBERRY DR","Zip":"64116","Longitude":"-94.59928989894141","Latitude":"39.169925108598136","Dates":null,"Products":""},{"Type":"farmers market","ModifyDate":"Mar 27th, 2023","Image":"default-farmersmarket-4-3.jpg","ListingID":"311267","Name":"Briarcliff Village Organic & Locally Grown Farmer's Market","Description":null,"ContactName":null,"ContactEmail":null,"ContactPhone":"816-792-2670","Website":null,"Facebook":null,"Twitter":null,"Instagram":null,"Pinterest":null,"Youtube":null,"Blog":null,"Address":"4151 North Mulberry Drive Kansas City, MO 64116","State":"Missouri","City":"KANSAS CITY","Street":"4151 N MULBERRY DR","Zip":"64116","Longitude":"-94.59925301244107","Latitude":"39.16945444624731","Dates":null,"Products":""},{"Type":"farmers market","ModifyDate":"Mar 27th, 2023","Image":"default-farmersmarket-4-3.jpg","ListingID":"311268","Name":"Brookside Farmers' Market","Description":null,"ContactName":null,"ContactEmail":"info@brooksidefarmersmarket.com","ContactPhone":null,"Website":"http:\/\/brooksidefarmersmarket.com\/","Facebook":"https:\/\/www.facebook.com\/BrooksideFarmersMarket","Twitter":null,"Instagram":null,"Pinterest":null,"Youtube":null,"Blog":null,"Address":"6321 Wornall Rd., 63rd St. and Wornall Rd., Kansas City, MO, 64113","State":"Missouri","City":"Kansas City","Street":"6321 Wornall Rd., 63rd St. and Wornall Rd.","Zip":"64113","Longitude":"-94.59314765108941","Latitude":"39.01366361422918","Dates":null,"Products":""},{"Type":"farmers market","ModifyDate":"Mar 27th, 2023","Image":"default-farmersmarket-4-3.jpg","ListingID":"311269","Name":"Camdenton Farmers' Market","Description":null,"ContactName":null,"ContactEmail":"farmissouri@gmail.com","ContactPhone":"573-873-4038","Website":null,"Facebook":"https:\/\/www.facebook.com\/Farmers-Market-in-Camdenton-112904532058542","Twitter":null,"Instagram":null,"Pinterest":null,"Youtube":null,"Blog":null,"Address":"1 Court Cir. NW, Camdenton, MO, 65020","State":"Missouri","City":"Camdenton","Street":"1 Court Cir. NW","Zip":"65020","Longitude":"-92.74645586090705","Latitude":"38.00813013215577","Dates":null,"Products":""},{"Type":"farmers market","ModifyDate":"Mar 27th, 2023","Image":"default-farmersmarket-4-3.jpg","ListingID":"311270","Name":"Carthage Farmers' Market","Description":null,"ContactName":null,"ContactEmail":null,"ContactPhone":"217-357-2188","Website":null,"Facebook":null,"Twitter":null,"Instagram":null,"Pinterest":null,"Youtube":null,"Blog":null,"Address":"500 Main St., Historic Carthage Square, Carthage, MO, 64836","State":"Missouri","City":"Carthage","Street":"500 Main St., Historic","Zip":"64836","Longitude":"-94.31098881169656","Latitude":"37.175329052096025","Dates":null,"Products":""},{"Type":"farmers market","ModifyDate":"Mar 27th, 2023","Image":"default-farmersmarket-4-3.jpg","ListingID":"311271","Name":"Cass County Farmers' Market","Description":null,"ContactName":null,"ContactEmail":"hagstrom@publicnetworking.org","ContactPhone":"816-250-5588","Website":"http:\/\/www.cassfarmers.com\/","Facebook":null,"Twitter":null,"Instagram":null,"Pinterest":null,"Youtube":null,"Blog":null,"Address":"2601 Cantrell Rd., Mill Walk Mall parking lot in front of Cinema 6, Harrisonville, MO, 64701","State":"Missouri","City":"Harrisonville","Street":"2601 Cantrell Rd.","Zip":"64701","Longitude":"-94.38297997050253","Latitude":"38.662091095927714","Dates":null,"Products":""},{"Type":"farmers market","ModifyDate":"Mar 27th, 2023","Image":"default-farmersmarket-4-3.jpg","ListingID":"311272","Name":"Cass County Farmers' Market","Description":null,"ContactName":null,"ContactEmail":null,"ContactPhone":null,"Website":null,"Facebook":null,"Twitter":null,"Instagram":null,"Pinterest":null,"Youtube":null,"Blog":null,"Address":"10101 East State Route A Drexel, MO 64742","State":"Missouri","City":"DREXEL","Street":"10101 E STATE RTE W","Zip":"64742","Longitude":"-94.48456383243948","Latitude":"38.56221955235793","Dates":null,"Products":""},{"Type":"farmers market","ModifyDate":"Mar 27th, 2023","Image":"default-farmersmarket-4-3.jpg","ListingID":"311273","Name":"Chandler Hill Farmers' Market","Description":null,"ContactName":null,"ContactEmail":null,"ContactPhone":null,"Website":"http:\/\/www.chandlerhillvineyards.com\/artisan-market.html","Facebook":null,"Twitter":null,"Instagram":null,"Pinterest":null,"Youtube":null,"Blog":null,"Address":"596 Defiance Rd., Chandler Hill Vineyards, Defiance, MO, 63341","State":"Missouri","City":"Defiance","Street":"596 Defiance Rd.","Zip":"63341","Longitude":"-90.80142316807147","Latitude":"38.634255728560234","Dates":null,"Products":""},{"Type":"farmers market","ModifyDate":"Mar 27th, 2023","Image":"default-farmersmarket-4-3.jpg","ListingID":"311274","Name":"City Market","Description":null,"ContactName":null,"ContactEmail":null,"ContactPhone":"816-842-1271","Website":"http:\/\/www.thecitymarket.org","Facebook":null,"Twitter":null,"Instagram":null,"Pinterest":null,"Youtube":null,"Blog":null,"Address":"20 E.5th Street Kansas City, MO 64106","State":"Missouri","City":"KANSAS CITY","Street":"20 E 5TH ST","Zip":"64106","Longitude":"-94.58212733793486","Latitude":"39.108460506000334","Dates":null,"Products":""},{"Type":"farmers market","ModifyDate":"Mar 27th, 2023","Image":"default-farmersmarket-4-3.jpg","ListingID":"311275","Name":"City of Union Farmers Market","Description":null,"ContactName":null,"ContactEmail":null,"ContactPhone":"636-583-3600","Website":"http:\/\/www.unionmissouri.org\/farmersmarket","Facebook":"http:\/\/www.facebook.com\/CityofUnionFarmersMarket","Twitter":null,"Instagram":null,"Pinterest":null,"Youtube":null,"Blog":null,"Address":"10 E. Locust Street Union, MO 63084 The Farmers Market is held in the commuter lot at First Baptist Church, 801 US Highway 50 E in Union, MO. (near intersection of Hwy 50 & Hwy 47 N, by Walgreens)","State":"Missouri","City":"UNION","Street":"10 E LOCUST ST","Zip":"63084","Longitude":"-91.0085225713011","Latitude":"38.4447744018938","Dates":null,"Products":""},{"Type":"farmers market","ModifyDate":"Mar 27th, 2023","Image":"default-farmersmarket-4-3.jpg","ListingID":"311276","Name":"Clayton Farmers' Market","Description":null,"ContactName":null,"ContactEmail":"marketmanager1@yahoo.com","ContactPhone":"314-398-9729","Website":"http:\/\/agrimissouri.com\/mo-grown\/grodetail.php?type=mo-grown&ID=1539","Facebook":null,"Twitter":null,"Instagram":null,"Pinterest":null,"Youtube":null,"Blog":null,"Address":"8300 Maryland Ave., Clayton, MO, 63105","State":"Missouri","City":"Clayton","Street":"8300 Maryland Ave.","Zip":"63105","Longitude":"-90.3456519780739","Latitude":"38.652779700161474","Dates":null,"Products":""},{"Type":"farmers market","ModifyDate":"Mar 27th, 2023","Image":"default-farmersmarket-4-3.jpg","ListingID":"311277","Name":"Clinton Farmers' Market","Description":null,"ContactName":null,"ContactEmail":"fizzicians@hotmail.com","ContactPhone":"660-885-4700","Website":null,"Facebook":null,"Twitter":null,"Instagram":null,"Pinterest":null,"Youtube":null,"Blog":null,"Address":"100 W. Jefferson St., Historic downtown Clinton Square, Clinton, MO, 64735","State":"Missouri","City":"Clinton","Street":"100 W. Jefferson St.","Zip":"64735","Longitude":"-93.77625431990379","Latitude":"38.36941180958498","Dates":null,"Products":""},{"Type":"farmers market","ModifyDate":"Mar 27th, 2023","Image":"default-farmersmarket-4-3.jpg","ListingID":"311278","Name":"Crane Creek Market","Description":null,"ContactName":null,"ContactEmail":null,"ContactPhone":null,"Website":null,"Facebook":null,"Twitter":null,"Instagram":null,"Pinterest":null,"Youtube":null,"Blog":null,"Address":"205 S. Commerce Crane, MO 65633","State":"Missouri","City":"CRANE","Street":"205 SOUTH ST","Zip":"65633","Longitude":"-93.57542902697868","Latitude":"36.89815208435694","Dates":null,"Products":""},{"Type":"farmers market","ModifyDate":"Mar 27th, 2023","Image":"default-farmersmarket-4-3.jpg","ListingID":"311279","Name":"Creve Coeur farmers market","Description":null,"ContactName":null,"ContactEmail":null,"ContactPhone":"314-540-5310","Website":null,"Facebook":null,"Twitter":null,"Instagram":null,"Pinterest":null,"Youtube":null,"Blog":null,"Address":"181 Coeur De Ville Dr Creve Coeur, MO 63141","State":"Missouri","City":"CREVE COEUR","Street":"181 COEUR DEVILLE DR","Zip":"63141","Longitude":"-90.4490455253833","Latitude":"38.65769431991749","Dates":null,"Products":""},{"Type":"farmers market","ModifyDate":"Mar 27th, 2023","Image":"default-farmersmarket-4-3.jpg","ListingID":"311280","Name":"Crown Center Farmer's Market","Description":null,"ContactName":null,"ContactEmail":null,"ContactPhone":"816-792-2670","Website":null,"Facebook":null,"Twitter":null,"Instagram":null,"Pinterest":null,"Youtube":null,"Blog":null,"Address":"2450 Grand Blvd Kansas City, MO 64108","State":"Missouri","City":"KANSAS CITY","Street":"2450 GRAND BLVD","Zip":"64108","Longitude":"-94.5817863442829","Latitude":"39.08328454097417","Dates":null,"Products":""},{"Type":"farmers market","ModifyDate":"Mar 27th, 2023","Image":"default-farmersmarket-4-3.jpg","ListingID":"311281","Name":"Crown Valley Farmers' Market","Description":null,"ContactName":null,"ContactEmail":null,"ContactPhone":"866-207-9463","Website":"http:\/\/www.CrownValleyWinery.com","Facebook":null,"Twitter":null,"Instagram":null,"Pinterest":null,"Youtube":null,"Blog":null,"Address":"23889 State Route WW Ste. Genevieve, MO 63670","State":"Missouri","City":"STE GENEVIEVE","Street":"23889 STATE RTE WW","Zip":"63670","Longitude":"-90.17430283169377","Latitude":"37.77036822272092","Dates":null,"Products":""},{"Type":"farmers market","ModifyDate":"Mar 27th, 2023","Image":"default-farmersmarket-4-3.jpg","ListingID":"311282","Name":"Crystal City Farmers Market","Description":null,"ContactName":null,"ContactEmail":null,"ContactPhone":null,"Website":"http:\/\/www.ccfarmersmarket.com","Facebook":"http:\/\/www.facebook.com\/ccmofarmersmarket","Twitter":null,"Instagram":null,"Pinterest":null,"Youtube":null,"Blog":null,"Address":"105 Baily Rd Crystal City, MO 63019 Located on the grounds of Grace Presbyterian Church","State":"Missouri","City":"CRYSTAL CITY","Street":"105 BAILEY RD","Zip":"63019","Longitude":"-90.37871429895874","Latitude":"38.21868166200969","Dates":null,"Products":""},{"Type":"farmers market","ModifyDate":"Mar 27th, 2023","Image":"default-farmersmarket-4-3.jpg","ListingID":"311283","Name":"C-Street Market","Description":null,"ContactName":null,"ContactEmail":"cstreetmarket321@gmail.com","ContactPhone":"417-865-6025","Website":"http:\/\/www.historiccstreet.com\/c-street-city-market.html","Facebook":"https:\/\/www.facebook.com\/sweetestlittlemarket","Twitter":null,"Instagram":null,"Pinterest":null,"Youtube":null,"Blog":null,"Address":"321 E. Commercial , Farmer's Market Pavilion, Springfield, MO, 65803","State":"Missouri","City":"Springfield","Street":"321 E. Commercial","Zip":"65803","Longitude":"-93.29018715405","Latitude":"37.229710041070796","Dates":null,"Products":""},{"Type":"farmers market","ModifyDate":"Mar 27th, 2023","Image":"default-farmersmarket-4-3.jpg","ListingID":"311284","Name":"Dixie Lee's Farmers' Market","Description":null,"ContactName":null,"ContactEmail":"htt.farmersmarket@gmail.com","ContactPhone":"314-566-1286","Website":null,"Facebook":"https:\/\/www.facebook.com\/Dixie.Lees.Farmers.Market","Twitter":null,"Instagram":null,"Pinterest":null,"Youtube":null,"Blog":null,"Address":"850 Joachim Ave., Herculaneum, MO, 63048","State":"Missouri","City":"Herculaneum","Street":"850 Joachim Ave.","Zip":"63048","Longitude":"-90.38952031049772","Latitude":"38.261515781956355","Dates":null,"Products":""},{"Type":"farmers market","ModifyDate":"Mar 27th, 2023","Image":"default-farmersmarket-4-3.jpg","ListingID":"311285","Name":"Downtown Farmers' Market","Description":null,"ContactName":null,"ContactEmail":null,"ContactPhone":null,"Website":null,"Facebook":null,"Twitter":null,"Instagram":null,"Pinterest":null,"Youtube":null,"Blog":null,"Address":"8004 Saxton-Easton Road St. Joseph, MO 64507","State":"Missouri","City":"SAINT JOSEPH","Street":"8004 SAXTON EASTON RD","Zip":"64507","Longitude":"-94.72121221701698","Latitude":"39.719167568420424","Dates":null,"Products":""},{"Type":"farmers market","ModifyDate":"Mar 27th, 2023","Image":"default-farmersmarket-4-3.jpg","ListingID":"311286","Name":"Downtown Poplar Bluff Farmers' Market","Description":null,"ContactName":null,"ContactEmail":"pmcgath@downtownpoplarbluff.org","ContactPhone":"573-712-2171","Website":null,"Facebook":"https:\/\/www.facebook.com\/Downtown-Poplar-Bluff-Farmers-Market-550767034963032","Twitter":null,"Instagram":null,"Pinterest":null,"Youtube":null,"Blog":null,"Address":"301 S. 5th St., Poplar Bluff, MO, 63901","State":"Missouri","City":"Poplar Bluff","Street":"301 S. 5th St.","Zip":"63901","Longitude":"-90.39595537820617","Latitude":"36.75510676511442","Dates":null,"Products":""},{"Type":"farmers market","ModifyDate":"Mar 27th, 2023","Image":"default-farmersmarket-4-3.jpg","ListingID":"311287","Name":"Downtown Sikeston Farmers' Market","Description":null,"ContactName":null,"ContactEmail":"director@downtownsikeston.org","ContactPhone":"573-380-3801","Website":null,"Facebook":"https:\/\/www.facebook.com\/DowntownSikestonFarmersMarket","Twitter":null,"Instagram":null,"Pinterest":null,"Youtube":null,"Blog":null,"Address":"105 E. Center St., American Legion Square, Sikeston, MO, 63801","State":"Missouri","City":"Sikeston","Street":"105 E. Center St.","Zip":"63801","Longitude":"-89.58949559480457","Latitude":"36.87781090679366","Dates":null,"Products":""},{"Type":"farmers market","ModifyDate":"Mar 27th, 2023","Image":"default-farmersmarket-4-3.jpg","ListingID":"311288","Name":"Excelsior Springs Farmer's Market","Description":null,"ContactName":null,"ContactEmail":null,"ContactPhone":"816-632-2811","Website":"http:\/\/www.visitesprings.com","Facebook":"http:\/\/www.facebook.com\/downtownesmo","Twitter":null,"Instagram":null,"Pinterest":null,"Youtube":null,"Blog":null,"Address":"201 East Broadway Street Excelsior Springs, MO 64024","State":"Missouri","City":"EXCELSIOR SPG","Street":"201 E BROADWAY ST","Zip":"64024","Longitude":"-94.22218170489661","Latitude":"39.34232343301145","Dates":null,"Products":""},{"Type":"farmers market","ModifyDate":"Mar 27th, 2023","Image":"default-farmersmarket-4-3.jpg","ListingID":"311289","Name":"Farmers Market - Greenview MO","Description":null,"ContactName":null,"ContactEmail":null,"ContactPhone":"573-345-4248","Website":null,"Facebook":"http:\/\/www.facebook.com\/pages\/Farmers-Market\/1418317828430102","Twitter":null,"Instagram":null,"Pinterest":null,"Youtube":null,"Blog":null,"Address":"1468 N State HWY 7 Greenview, MO 65020","State":"Missouri","City":"CAMDENTON","Street":"1468 STATE HWY 7","Zip":"65020","Longitude":"-92.84428104677552","Latitude":"38.09930360400863","Dates":null,"Products":""},{"Type":"farmers market","ModifyDate":"Mar 27th, 2023","Image":"default-farmersmarket-4-3.jpg","ListingID":"311290","Name":"Farmers Market at the Boundary","Description":null,"ContactName":null,"ContactEmail":null,"ContactPhone":"314-570-4945","Website":null,"Facebook":"http:\/\/www.facebook.com\/gatewaygarlic","Twitter":null,"Instagram":null,"Pinterest":null,"Youtube":null,"Blog":null,"Address":"7036 Clayton Ave St. Louis , MO 63117 When weather permits, held outside of the Boundary Restaurant. Otherwise, inside the Boundary.","State":"Missouri","City":"SAINT LOUIS","Street":"7036 CLAYTON AVE","Zip":"63117","Longitude":"-90.30500711263862","Latitude":"38.63290768609944","Dates":null,"Products":""},{"Type":"farmers market","ModifyDate":"Mar 27th, 2023","Image":"default-farmersmarket-4-3.jpg","ListingID":"311291","Name":"Farmers' Market of Laclede County","Description":null,"ContactName":null,"ContactEmail":"anewlife06.net@netzero.net","ContactPhone":"417-531-1365","Website":null,"Facebook":null,"Twitter":null,"Instagram":null,"Pinterest":null,"Youtube":null,"Blog":null,"Address":"100 Hospital Dr., Lebanon, MO, 65556","State":"Missouri","City":"Lebanon","Street":"100 Hospital Dr.","Zip":"65556","Longitude":"-92.6358942417767","Latitude":"37.68120996240528","Dates":null,"Products":""},{"Type":"farmers market","ModifyDate":"Mar 27th, 2023","Image":"default-farmersmarket-4-3.jpg","ListingID":"311292","Name":"Farmers Market of the Ozarks","Description":null,"ContactName":null,"ContactEmail":null,"ContactPhone":"417-766-8711","Website":"http:\/\/loveyourfarmer.com","Facebook":"http:\/\/www.facebook.com\/pages\/Farmers-Market-of-the-Ozarks\/288572937834131","Twitter":null,"Instagram":null,"Pinterest":null,"Youtube":null,"Blog":null,"Address":"4139 S. Nature Center Way Springfield, MO 65804","State":"Missouri","City":"SPRINGFIELD","Street":"4139 S NATURE CENTER WAY","Zip":"65804","Longitude":"-93.25213501387452","Latitude":"37.137164569332974","Dates":null,"Products":""},{"Type":"farmers market","ModifyDate":"Mar 27th, 2023","Image":"default-farmersmarket-4-3.jpg","ListingID":"311293","Name":"Farmers' Market of Wildwood","Description":null,"ContactName":null,"ContactEmail":null,"ContactPhone":"314-306-9308","Website":"http:\/\/www.farmersmarketofwildwood.com","Facebook":null,"Twitter":null,"Instagram":null,"Pinterest":null,"Youtube":null,"Blog":null,"Address":"221 Plaza Drive Wildwood, MO 63040","State":"Missouri","City":"WILDWOOD","Street":"221 PLAZA DR","Zip":"63040","Longitude":"-90.63023227492954","Latitude":"38.58197528760548","Dates":null,"Products":""},{"Type":"farmers market","ModifyDate":"Mar 27th, 2023","Image":"default-farmersmarket-4-3.jpg","ListingID":"311294","Name":"Farmers' Market-Food Fair","Description":null,"ContactName":null,"ContactEmail":null,"ContactPhone":null,"Website":null,"Facebook":null,"Twitter":null,"Instagram":null,"Pinterest":null,"Youtube":null,"Blog":null,"Address":"2801 Pendleton Drive Kennett, MO 63857","State":"Missouri","City":"KENNETT","Street":"2801 PENDLETON LN","Zip":"63857","Longitude":"-90.02147416604102","Latitude":"36.27311757680595","Dates":null,"Products":""},{"Type":"farmers market","ModifyDate":"Mar 27th, 2023","Image":"default-farmersmarket-4-3.jpg","ListingID":"311295","Name":"Farmington Farmers' Market","Description":null,"ContactName":null,"ContactEmail":"vsmith@wildblue.net","ContactPhone":"573-756-2284","Website":null,"Facebook":"https:\/\/www.facebook.com\/farmingtonfarmersmarket","Twitter":null,"Instagram":null,"Pinterest":null,"Youtube":null,"Blog":null,"Address":"814 E. Karsch Blvd., VFW Parking lot, Farmington, MO, 63640","State":"Missouri","City":"Farmington","Street":"814 E. Karsch Blvd.","Zip":"63640","Longitude":"-90.40765683648873","Latitude":"37.782591957997504","Dates":null,"Products":""},{"Type":"farmers market","ModifyDate":"Mar 27th, 2023","Image":"default-farmersmarket-4-3.jpg","ListingID":"311296","Name":"Fayette Area Farmers' Market","Description":null,"ContactName":null,"ContactEmail":null,"ContactPhone":null,"Website":null,"Facebook":null,"Twitter":null,"Instagram":null,"Pinterest":null,"Youtube":null,"Blog":null,"Address":"901 West Davis Fayette, MO 65248","State":"Missouri","City":"FAYETTE","Street":"901 W DAVIS ST","Zip":"65248","Longitude":"-92.69342993763424","Latitude":"39.14469766710378","Dates":null,"Products":""},{"Type":"farmers market","ModifyDate":"Mar 27th, 2023","Image":"default-farmersmarket-4-3.jpg","ListingID":"311297","Name":"Fenton Community & Farmers' Market","Description":null,"ContactName":null,"ContactEmail":null,"ContactPhone":"636-343-0067","Website":"http:\/\/fentonmo.org\/index.aspx?NID=1116","Facebook":"http:\/\/www.facebook.com\/FentonFarmersMarket","Twitter":null,"Instagram":null,"Pinterest":null,"Youtube":null,"Blog":null,"Address":"200 Gravois Fenton, MO 63026","State":"Missouri","City":"FENTON","Street":"200 GRAVOIS RD","Zip":"63026","Longitude":"-90.43493803084108","Latitude":"38.51125539092403","Dates":null,"Products":""},{"Type":"farmers market","ModifyDate":"Mar 27th, 2023","Image":"default-farmersmarket-4-3.jpg","ListingID":"311298","Name":"Ferguson Farmers' Market","Description":null,"ContactName":null,"ContactEmail":"tcarper@fergusoncity.com","ContactPhone":"314-524-1820","Website":"http:\/\/www.fergusonfarmersmarket.com\/","Facebook":"https:\/\/www.facebook.com\/FergusonFarmersMarket","Twitter":null,"Instagram":null,"Pinterest":null,"Youtube":null,"Blog":null,"Address":"20 S. Florissant Rd., Ferguson, MO, 63135","State":"Missouri","City":"Ferguson","Street":"20 S. Florissant Rd.","Zip":"63135","Longitude":"-90.304466045097","Latitude":"38.74314709779983","Dates":null,"Products":""},{"Type":"farmers market","ModifyDate":"Mar 27th, 2023","Image":"default-farmersmarket-4-3.jpg","ListingID":"311299","Name":"Fulton Farmers' Market","Description":null,"ContactName":null,"ContactEmail":null,"ContactPhone":null,"Website":null,"Facebook":null,"Twitter":null,"Instagram":null,"Pinterest":null,"Youtube":null,"Blog":null,"Address":"9349 Schmid Way Portland, MO 65067","State":"Missouri","City":"PORTLAND","Street":"9349 SCHMID WAY","Zip":"65067","Longitude":"-91.75774011986235","Latitude":"38.71223429487931","Dates":null,"Products":""},{"Type":"farmers market","ModifyDate":"Mar 27th, 2023","Image":"default-farmersmarket-4-3.jpg","ListingID":"311300","Name":"Gladstone Farmers Market","Description":null,"ContactName":null,"ContactEmail":null,"ContactPhone":null,"Website":"http:\/\/www.gladstone.mo.us","Facebook":"http:\/\/www.facebook.com\/pages\/Gladstone-Farmers-Market\/107406389284555","Twitter":null,"Instagram":null,"Pinterest":null,"Youtube":null,"Blog":null,"Address":"602 NE 70th Street Gladstone, MO 64118 Our market is located on the west side of Gladstone City Hall during the summer months.","State":"Missouri","City":"GLADSTONE","Street":"602 NE 70TH ST","Zip":"64118","Longitude":"-94.57268354355003","Latitude":"39.221018216952295","Dates":null,"Products":""},{"Type":"farmers market","ModifyDate":"Mar 27th, 2023","Image":"default-farmersmarket-4-3.jpg","ListingID":"311301","Name":"Golden Valley Produce & Craft Market","Description":null,"ContactName":null,"ContactEmail":null,"ContactPhone":"471-309-9267","Website":null,"Facebook":null,"Twitter":null,"Instagram":null,"Pinterest":null,"Youtube":null,"Blog":null,"Address":"800 E. Ohio Clinton, MO 64735","State":"Missouri","City":"CLINTON","Street":"800 E OHIO ST","Zip":"64735","Longitude":"-93.7617767901327","Latitude":"38.36643107942936","Dates":null,"Products":""},{"Type":"farmers market","ModifyDate":"Mar 27th, 2023","Image":"default-farmersmarket-4-3.jpg","ListingID":"311302","Name":"Grain Valley Farmers' Market","Description":null,"ContactName":null,"ContactEmail":null,"ContactPhone":null,"Website":"http:\/\/www.grainvalleychamber.org\/chamber-events\/grain-valley-farmers-market-2\/","Facebook":null,"Twitter":null,"Instagram":null,"Pinterest":null,"Youtube":null,"Blog":null,"Address":"144 SW Eagles Pkwy., Grain Valley, MO, 64029","State":"Missouri","City":"Grain Valley","Street":"144 SW Eagles Pkwy.","Zip":"64029","Longitude":"-94.20080680025637","Latitude":"39.01043744073535","Dates":null,"Products":""},{"Type":"farmers market","ModifyDate":"Mar 27th, 2023","Image":"default-farmersmarket-4-3.jpg","ListingID":"311303","Name":"Greater Ozark Farmers Market","Description":null,"ContactName":null,"ContactEmail":null,"ContactPhone":"417-293-0590","Website":"http:\/\/www.ozarkfarmers.org","Facebook":"http:\/\/www.facebook.com\/OFAC17","Twitter":null,"Instagram":null,"Pinterest":null,"Youtube":null,"Blog":null,"Address":"1321 Preacher Roe Blvd. West Plains, MO 65775 Please find us located in the Savor Bar & Grill Parking lot in West Plains, Missouri. There is no cost for parking.","State":"Missouri","City":"WEST PLAINS","Street":"1321 PREACHER ROE BLVD","Zip":"65775","Longitude":"-91.87409526752036","Latitude":"36.7151831131694","Dates":null,"Products":""},{"Type":"farmers market","ModifyDate":"Mar 27th, 2023","Image":"default-farmersmarket-4-3.jpg","ListingID":"311304","Name":"Hermann Farmers' Market","Description":null,"ContactName":null,"ContactEmail":"janet.rodgers@fbol.com","ContactPhone":"573-486-2121","Website":null,"Facebook":null,"Twitter":null,"Instagram":null,"Pinterest":null,"Youtube":null,"Blog":null,"Address":"208 E. 1st St., First Bank parking lot, Hermann, MO, 65041","State":"Missouri","City":"Hermann","Street":"208 E. 1st St., First Bank parking lot","Zip":"65041","Longitude":"-91.43453977931823","Latitude":"38.70682610620702","Dates":null,"Products":""},{"Type":"farmers market","ModifyDate":"Mar 27th, 2023","Image":"default-farmersmarket-4-3.jpg","ListingID":"311305","Name":"Houston Farmers' Market","Description":null,"ContactName":null,"ContactEmail":"petermaki@totorcd.org","ContactPhone":null,"Website":null,"Facebook":null,"Twitter":null,"Instagram":null,"Pinterest":null,"Youtube":null,"Blog":null,"Address":"321 S. 2nd St., Lone Star Plaza, Houston, MO, 65483","State":"Missouri","City":"Houston","Street":"321 S. 2nd St., Lone Star Plaza","Zip":"65483","Longitude":"-91.95540654051689","Latitude":"37.32502766253323","Dates":null,"Products":""},{"Type":"farmers market","ModifyDate":"Mar 27th, 2023","Image":"default-farmersmarket-4-3.jpg","ListingID":"311306","Name":"Independence Farmers' Market","Description":null,"ContactName":null,"ContactEmail":null,"ContactPhone":null,"Website":null,"Facebook":null,"Twitter":null,"Instagram":null,"Pinterest":null,"Youtube":null,"Blog":null,"Address":"9614 East 9th Street Independence, MO 64053","State":"Missouri","City":"INDEPENDENCE","Street":"9614 E 9TH ST S","Zip":"64053","Longitude":"-94.46387565612068","Latitude":"39.09936438210235","Dates":null,"Products":""},{"Type":"farmers market","ModifyDate":"Mar 27th, 2023","Image":"default-farmersmarket-4-3.jpg","ListingID":"311307","Name":"Iron Mountain Market","Description":null,"ContactName":null,"ContactEmail":null,"ContactPhone":null,"Website":null,"Facebook":null,"Twitter":null,"Instagram":null,"Pinterest":null,"Youtube":null,"Blog":null,"Address":"400 S Main Street Poplar Bluff, MO 63901","State":"Missouri","City":"POPLAR BLUFF","Street":"400 S MAIN ST","Zip":"63901","Longitude":"-90.39353559555657","Latitude":"36.754290318414895","Dates":null,"Products":""},{"Type":"farmers market","ModifyDate":"Mar 27th, 2023","Image":"default-farmersmarket-4-3.jpg","ListingID":"311308","Name":"Ivanhoe Farmers' Market","Description":null,"ContactName":null,"ContactEmail":"market-manager@growninivanhoe.org","ContactPhone":"816-654-6452","Website":"http:\/\/growninivanhoe.org\/farmers-market\/","Facebook":"https:\/\/www.facebook.com\/ivanhoefarmersmarket","Twitter":null,"Instagram":null,"Pinterest":null,"Youtube":null,"Blog":null,"Address":"3700 Woodland Ave., Kansas City, MO, 64109","State":"Missouri","City":"Kansas City","Street":"3700 Woodland Ave.","Zip":"64109","Longitude":"-94.56265749821503","Latitude":"39.059223143200086","Dates":null,"Products":""},{"Type":"farmers market","ModifyDate":"Mar 27th, 2023","Image":"default-farmersmarket-4-3.jpg","ListingID":"311309","Name":"Jefferson City Farmers' Market","Description":null,"ContactName":null,"ContactEmail":null,"ContactPhone":null,"Website":null,"Facebook":null,"Twitter":null,"Instagram":null,"Pinterest":null,"Youtube":null,"Blog":null,"Address":"320 East McCarty Jefferson City, MO 65101","State":"Missouri","City":"JEFFERSON CITY","Street":"320 E MCCARTY ST","Zip":"65101","Longitude":"-92.17067972175596","Latitude":"38.57388998964492","Dates":null,"Products":""},{"Type":"farmers market","ModifyDate":"Mar 27th, 2023","Image":"default-farmersmarket-4-3.jpg","ListingID":"311310","Name":"Joplin Farmers Market","Description":null,"ContactName":null,"ContactEmail":null,"ContactPhone":"417-623-3254","Website":"http:\/\/joplinmemorialhall.com","Facebook":null,"Twitter":null,"Instagram":null,"Pinterest":null,"Youtube":null,"Blog":null,"Address":"212 W 8th Street Joplin, MO 64801","State":"Missouri","City":"JOPLIN","Street":"212 W 8TH ST","Zip":"64801","Longitude":"-94.51485658934166","Latitude":"37.08281036174313","Dates":null,"Products":""},{"Type":"farmers market","ModifyDate":"Mar 27th, 2023","Image":"default-farmersmarket-4-3.jpg","ListingID":"311311","Name":"Kirkwood Farmers' Market","Description":null,"ContactName":null,"ContactEmail":"info@downtownkirkwood.com","ContactPhone":"314-822-0084","Website":"http:\/\/www.downtownkirkwood.com\/farmers'-market.aspx","Facebook":null,"Twitter":null,"Instagram":null,"Pinterest":null,"Youtube":null,"Blog":null,"Address":"150 E. Argonne Dr., Kirkwood, MO, 63122","State":"Missouri","City":"Kirkwood","Street":"150 E. Argonne Dr.","Zip":"63122","Longitude":"-90.40516476084979","Latitude":"38.58117235735657","Dates":null,"Products":""},{"Type":"farmers market","ModifyDate":"Mar 27th, 2023","Image":"default-farmersmarket-4-3.jpg","ListingID":"311312","Name":"La Chalupa Farmers Market","Description":null,"ContactName":null,"ContactEmail":null,"ContactPhone":"816-581-5657","Website":"http:\/\/www.mattierhodes.org","Facebook":null,"Twitter":null,"Instagram":null,"Pinterest":null,"Youtube":null,"Blog":null,"Address":"148 N Topping Ave. Kansas City, MO 64123","State":"Missouri","City":"KANSAS CITY","Street":"148 TOPPING AVE","Zip":"64123","Longitude":"-94.51408380607833","Latitude":"39.11178277846114","Dates":null,"Products":""},{"Type":"farmers market","ModifyDate":"Mar 27th, 2023","Image":"default-farmersmarket-4-3.jpg","ListingID":"311313","Name":"Lawson Farmers' Market","Description":null,"ContactName":null,"ContactEmail":"lawsonfarmersmarket@gmail.com","ContactPhone":"816-332-3375","Website":"http:\/\/ http:\/\/www.lawsonfarmersmarket.com","Facebook":"https:\/\/www.facebook.com\/LawsonFarmersMarket","Twitter":null,"Instagram":null,"Pinterest":null,"Youtube":null,"Blog":null,"Address":"350 N. Pennsylvania Ave., Lawson, MO, 64062","State":"Missouri","City":"Lawson","Street":"350 N. Pennsylvania Ave.","Zip":"64062","Longitude":"-94.20429261057569","Latitude":"39.43778054241695","Dates":null,"Products":""},{"Type":"farmers market","ModifyDate":"Mar 27th, 2023","Image":"default-farmersmarket-4-3.jpg","ListingID":"311314","Name":"Liberty Area Farmers Market","Description":null,"ContactName":null,"ContactEmail":null,"ContactPhone":"816-930-2175","Website":"http:\/\/www.libertyfarmersmarket.com","Facebook":null,"Twitter":null,"Instagram":null,"Pinterest":null,"Youtube":null,"Blog":null,"Address":"1332 W. Kansas Street (FELDMANS Farm and Home parking lot) Liberty, MO 64068","State":"Missouri","City":"LIBERTY","Street":"1332 W KANSAS ST","Zip":"64068","Longitude":"-94.44281596425648","Latitude":"39.24449443362241","Dates":null,"Products":""},{"Type":"farmers market","ModifyDate":"Mar 27th, 2023","Image":"default-farmersmarket-4-3.jpg","ListingID":"311315","Name":"Liberty Farmers' Market","Description":null,"ContactName":null,"ContactEmail":"Email not found","ContactPhone":"816-935-8479","Website":"http:\/\/www.libertyfarmersmarket.com\/index.html","Facebook":"https:\/\/www.facebook.com\/LibertyFarmersMarket","Twitter":null,"Instagram":null,"Pinterest":null,"Youtube":null,"Blog":null,"Address":"1332 W. Kansas St., Liberty, MO, 64068","State":"Missouri","City":"Liberty","Street":"1332 W. Kansas St.","Zip":"64068","Longitude":"-94.44281596425648","Latitude":"39.24449443362241","Dates":null,"Products":""},{"Type":"farmers market","ModifyDate":"Mar 27th, 2023","Image":"default-farmersmarket-4-3.jpg","ListingID":"311316","Name":"Lincoln University Community Market","Description":null,"ContactName":null,"ContactEmail":null,"ContactPhone":"573-681-5493","Website":null,"Facebook":"http:\/\/www.facebook.com\/pages\/Lincoln-University-Farmers-Market\/208845662520615","Twitter":null,"Instagram":null,"Pinterest":null,"Youtube":null,"Blog":null,"Address":"1219 Chestnut Street Jefferson City, MO 65109","State":"Missouri","City":"JEFFERSON CITY","Street":"1219 CHESTNUT ST","Zip":"65101","Longitude":"-92.17428100751549","Latitude":"38.55910254278896","Dates":null,"Products":""},{"Type":"farmers market","ModifyDate":"Mar 27th, 2023","Image":"default-farmersmarket-4-3.jpg","ListingID":"311317","Name":"Lincoln University Farmers' Market","Description":null,"ContactName":null,"ContactEmail":"jacomealvarezM@lincolnu.edu","ContactPhone":"573-681-5493","Website":"http:\/\/lincolnufarmersmarket.com\/","Facebook":"https:\/\/www.facebook.com\/Lincoln-University-Farmers-Market-208845662520615","Twitter":null,"Instagram":null,"Pinterest":null,"Youtube":null,"Blog":null,"Address":"900 Leslie Blvd., Jefferson City, MO, 65101","State":"Missouri","City":"Jefferson City","Street":"900 Leslie Blvd.","Zip":"65101","Longitude":"-92.17557954424059","Latitude":"38.557577424740444","Dates":null,"Products":""},{"Type":"farmers market","ModifyDate":"Mar 27th, 2023","Image":"default-farmersmarket-4-3.jpg","ListingID":"311318","Name":"Maryland Heights Farmers Market","Description":null,"ContactName":null,"ContactEmail":null,"ContactPhone":"314-738-2547","Website":"http:\/\/www.marylandheights.com\/departments\/parks-and-recreation\/farmers-market","Facebook":null,"Twitter":null,"Instagram":null,"Pinterest":null,"Youtube":null,"Blog":null,"Address":"2300 McKelvey Rd. Maryland Heights, MO 63043 The Farmers Market is located in the parking lot between the Maryland Heights Community Center and Aquaport.","State":"Missouri","City":"MARYLAND HEIGHTS","Street":"2300 MCKELVEY RD","Zip":"63043","Longitude":"-90.44841712080489","Latitude":"38.721862169416426","Dates":null,"Products":""},{"Type":"farmers market","ModifyDate":"Mar 27th, 2023","Image":"default-farmersmarket-4-3.jpg","ListingID":"311319","Name":"MCB Farmers' Market","Description":null,"ContactName":null,"ContactEmail":null,"ContactPhone":null,"Website":null,"Facebook":null,"Twitter":null,"Instagram":null,"Pinterest":null,"Youtube":null,"Blog":null,"Address":"9 Bennett Street Park Hills, MO 63601","State":"Missouri","City":"PARK HILLS","Street":"9 BENNETT ST","Zip":"63601","Longitude":"-90.52225290294649","Latitude":"37.852639528299655","Dates":null,"Products":""},{"Type":"farmers market","ModifyDate":"Mar 27th, 2023","Image":"default-farmersmarket-4-3.jpg","ListingID":"311320","Name":"Midtown Farmers Market","Description":null,"ContactName":null,"ContactEmail":null,"ContactPhone":"314-913-6632","Website":null,"Facebook":"http:\/\/www.facebook.com\/pages\/Midtown-Farmers-Market\/655879797806495","Twitter":null,"Instagram":null,"Pinterest":null,"Youtube":null,"Blog":null,"Address":"6655 Delmar Blvd (Rear Lot) At Historic Market in the Loop University City, MO 63130","State":"Missouri","City":"UNIVERSITY CY","Street":"6655 DELMAR BLVD","Zip":"63130","Longitude":"-90.30742041621207","Latitude":"38.656212850256374","Dates":null,"Products":""},{"Type":"farmers market","ModifyDate":"Mar 27th, 2023","Image":"default-farmersmarket-4-3.jpg","ListingID":"311321","Name":"Moberly Farmer's Market","Description":null,"ContactName":null,"ContactEmail":null,"ContactPhone":"573-823-5452","Website":"http:\/\/www.moberlyfarmersmarket.com","Facebook":null,"Twitter":null,"Instagram":null,"Pinterest":null,"Youtube":null,"Blog":null,"Address":"101 Sturgeon Street Moberly, MO 65270","State":"Missouri","City":"MOBERLY","Street":"101 S STURGEON ST","Zip":"65270","Longitude":"-92.43672083586891","Latitude":"39.41854410839648","Dates":null,"Products":""},{"Type":"farmers market","ModifyDate":"Mar 27th, 2023","Image":"default-farmersmarket-4-3.jpg","ListingID":"311322","Name":"Nevada Vernon County Farmers' Market","Description":null,"ContactName":null,"ContactEmail":"kelly.vcfarmersmarket@gmail.com","ContactPhone":"417-667-1448","Website":null,"Facebook":"https:\/\/www.facebook.com\/NevadaVernonCountyFarmersMarket","Twitter":null,"Instagram":null,"Pinterest":null,"Youtube":null,"Blog":null,"Address":"304 W. Austin Blvd., Nevada, MO, 64772","State":"Missouri","City":"Nevada","Street":"304 W. Austin Blvd.","Zip":"64772","Longitude":"-94.3534730225706","Latitude":"37.83704280544049","Dates":null,"Products":""},{"Type":"farmers market","ModifyDate":"Mar 27th, 2023","Image":"default-farmersmarket-4-3.jpg","ListingID":"311323","Name":"Nixa Ozark Area Farmers' Market","Description":null,"ContactName":null,"ContactEmail":"noafarmersmarker@gmail.com","ContactPhone":"417-881-1300","Website":"http:\/\/nixozkfarmersmkt.weebly.com\/","Facebook":"https:\/\/www.facebook.com\/NixaAreaFarmersMarket","Twitter":null,"Instagram":null,"Pinterest":null,"Youtube":null,"Blog":null,"Address":"113 W. Mt. Vernon St., Nixa Assembly of God, Nixa, MO, 65714","State":"Missouri","City":"Nixa","Street":"113 W. Mt. Vernon St.","Zip":"65714","Longitude":"-93.29596569069726","Latitude":"37.04360454876279","Dates":null,"Products":""},{"Type":"farmers market","ModifyDate":"Mar 27th, 2023","Image":"default-farmersmarket-4-3.jpg","ListingID":"311324","Name":"Northeast Farmers' Market","Description":null,"ContactName":null,"ContactEmail":"NortheastFarmersMarket@gmail.com","ContactPhone":"816-896-7078","Website":"https:\/\/nefarmersmarket.wordpress.com\/","Facebook":"https:\/\/www.facebook.com\/NEKCFarmersMarket","Twitter":null,"Instagram":null,"Pinterest":null,"Youtube":null,"Blog":null,"Address":"3001 Independence Ave., Kansas City, MO, 64124","State":"Missouri","City":"Kansas City","Street":"3001 Independence Ave.","Zip":"64124","Longitude":"-94.54583172106626","Latitude":"39.106146534677045","Dates":null,"Products":""},{"Type":"farmers market","ModifyDate":"Mar 27th, 2023","Image":"default-farmersmarket-4-3.jpg","ListingID":"311325","Name":"Olde Towne Fenton Farmers' Market","Description":null,"ContactName":null,"ContactEmail":"kbuemi@fentonmo.org","ContactPhone":"636-343-0067","Website":"http:\/\/www.fentonmo.org\/index.aspx?nid=1116","Facebook":"https:\/\/www.facebook.com\/FentonFarmersMarket","Twitter":null,"Instagram":null,"Pinterest":null,"Youtube":null,"Blog":null,"Address":"200 Gravois Rd., Fenton, MO, 63026","State":"Missouri","City":"Fenton","Street":"200 Gravois Rd.","Zip":"63026","Longitude":"-90.43493803084108","Latitude":"38.51125539092403","Dates":null,"Products":""},{"Type":"farmers market","ModifyDate":"Mar 27th, 2023","Image":"default-farmersmarket-4-3.jpg","ListingID":"311326","Name":"Orscheln Farm & Home Farmers' Market","Description":null,"ContactName":null,"ContactEmail":null,"ContactPhone":null,"Website":null,"Facebook":null,"Twitter":null,"Instagram":null,"Pinterest":null,"Youtube":null,"Blog":null,"Address":"950A North Westwood Poplar Bluff, MO 63901","State":"Missouri","City":"POPLAR BLUFF","Street":"950 N WESTWOOD BLVD","Zip":"63901","Longitude":"-90.41274396827794","Latitude":"36.76492782179428","Dates":null,"Products":""},{"Type":"farmers market","ModifyDate":"Mar 27th, 2023","Image":"default-farmersmarket-4-3.jpg","ListingID":"311327","Name":"Overland Farmers' Market","Description":null,"ContactName":null,"ContactEmail":"webmaster@overlandfarmersmarket.com","ContactPhone":"314-769-6360","Website":"http:\/\/www.overlandfarmersmarket.com\/","Facebook":"https:\/\/www.facebook.com\/OverlandFarmersMarket","Twitter":null,"Instagram":null,"Pinterest":null,"Youtube":null,"Blog":null,"Address":"2500 Woodson Rd., Overland, MO, 63114","State":"Missouri","City":"Overland","Street":"2500 Woodson Rd.","Zip":"63114","Longitude":"-90.36182998080426","Latitude":"38.70274766251377","Dates":null,"Products":""},{"Type":"farmers market","ModifyDate":"Mar 27th, 2023","Image":"default-farmersmarket-4-3.jpg","ListingID":"311328","Name":"Ozark Downtown Farmers' Market","Description":null,"ContactName":null,"ContactEmail":"ODFM@Outlook.com","ContactPhone":"417-581-4715","Website":null,"Facebook":"https:\/\/www.facebook.com\/OzarkDowntownFarmersMarket","Twitter":null,"Instagram":null,"Pinterest":null,"Youtube":null,"Blog":null,"Address":"100 W. Church St., Downtown Square, Ozark, MO, 65721","State":"Missouri","City":"Ozark","Street":"100 W. Church St.","Zip":"65721","Longitude":"-93.20514768206726","Latitude":"37.02091920930899","Dates":null,"Products":""},{"Type":"farmers market","ModifyDate":"Mar 27th, 2023","Image":"default-farmersmarket-4-3.jpg","ListingID":"311329","Name":"Palmyra Farmers' Market","Description":null,"ContactName":null,"ContactEmail":null,"ContactPhone":"573-629-7487","Website":"http:\/\/facebook.com\/PalmyraMoFarmersMarket","Facebook":"http:\/\/www.facebook.com\/PalmyraMoFarmersMarket","Twitter":null,"Instagram":null,"Pinterest":null,"Youtube":null,"Blog":null,"Address":"508 East Water Street Palmyra, MO 63461","State":"Missouri","City":"PALMYRA","Street":"508 E WATER ST","Zip":"63461","Longitude":"-91.51832002328226","Latitude":"39.80053606467394","Dates":null,"Products":""},{"Type":"farmers market","ModifyDate":"Mar 27th, 2023","Image":"default-farmersmarket-4-3.jpg","ListingID":"311330","Name":"Parkville Farmers' Market","Description":null,"ContactName":null,"ContactEmail":"farmersmarketmanager@yahoo.com","ContactPhone":"816-450-8810","Website":"http:\/\/www.parkvillemo.org\/upcoming-events\/parkville-farmers-market\/","Facebook":"https:\/\/www.facebook.com\/pages\/Parkville-Farmers-Market\/172743832777207","Twitter":null,"Instagram":null,"Pinterest":null,"Youtube":null,"Blog":null,"Address":"127 S. Main St., Parkville, MO, 64152","State":"Missouri","City":"Parkville","Street":"127 S. Main St.","Zip":"64152","Longitude":"-94.68424620975901","Latitude":"39.18823594099256","Dates":null,"Products":""},{"Type":"farmers market","ModifyDate":"Mar 27th, 2023","Image":"default-farmersmarket-4-3.jpg","ListingID":"311331","Name":"Paul's Farm Fresh Produce Market","Description":null,"ContactName":null,"ContactEmail":null,"ContactPhone":"573-760-5849","Website":"http:\/\/Paulsffp.com","Facebook":"http:\/\/www.facebook.com\/PaulsFarmFreshProduceMarket","Twitter":null,"Instagram":null,"Pinterest":null,"Youtube":null,"Blog":null,"Address":"304 Potosi St. Farmington, MO 63640","State":"Missouri","City":"FARMINGTON","Street":"304 POTOSI ST","Zip":"63640","Longitude":"-90.42867274963193","Latitude":"37.783511907939996","Dates":null,"Products":""},{"Type":"farmers market","ModifyDate":"Mar 27th, 2023","Image":"default-farmersmarket-4-3.jpg","ListingID":"311332","Name":"Pierce City Farmers Market","Description":null,"ContactName":null,"ContactEmail":null,"ContactPhone":"417-669-5146","Website":null,"Facebook":null,"Twitter":null,"Instagram":null,"Pinterest":null,"Youtube":null,"Blog":null,"Address":"107 W Commercial Street Pierce City, MO 65873","State":"Missouri","City":"PIERCE CITY","Street":"107 W COMMERCIAL ST","Zip":"65723","Longitude":"-94.0031566548698","Latitude":"36.94462220225072","Dates":null,"Products":""},{"Type":"farmers market","ModifyDate":"Mar 27th, 2023","Image":"default-farmersmarket-4-3.jpg","ListingID":"311333","Name":"Raytown Farmers' Market","Description":null,"ContactName":null,"ContactEmail":"raytownfarmersmarket@gmail.com","ContactPhone":"816-399-9846","Website":"http:\/\/www.raytownfarmersmarket.com","Facebook":"https:\/\/www.facebook.com\/RaytownFarmersMarketRaytownMO","Twitter":null,"Instagram":null,"Pinterest":null,"Youtube":null,"Blog":null,"Address":"6210 Raytown Rd., Kansas City, MO, 64133","State":"Missouri","City":"Kansas City","Street":"6210 Raytown Rd.","Zip":"64133","Longitude":"-94.46335931078471","Latitude":"39.01040343844559","Dates":null,"Products":""},{"Type":"farmers market","ModifyDate":"Mar 27th, 2023","Image":"default-farmersmarket-4-3.jpg","ListingID":"311334","Name":"Rolla Saturday Farmers Market","Description":null,"ContactName":null,"ContactEmail":null,"ContactPhone":"573-202-9373","Website":null,"Facebook":"http:\/\/www.facebook.com\/RollaSaturdayFarmersMarket","Twitter":null,"Instagram":null,"Pinterest":null,"Youtube":null,"Blog":null,"Address":"2540 N Bishop Ave Rolla, MO 65401","State":"Missouri","City":"ROLLA","Street":"2540 N BISHOP AVE","Zip":"65401","Longitude":"-91.76540389876428","Latitude":"37.9656165046981","Dates":null,"Products":""},{"Type":"farmers market","ModifyDate":"Mar 27th, 2023","Image":"default-farmersmarket-4-3.jpg","ListingID":"311335","Name":"Route 66 Farmers' Market","Description":null,"ContactName":null,"ContactEmail":null,"ContactPhone":"417-473-1242","Website":null,"Facebook":null,"Twitter":null,"Instagram":null,"Pinterest":null,"Youtube":null,"Blog":null,"Address":"1300 Millcreek Court Lebanon, MO 65536 Catty-corner to the Cenex gas station on Millcreek Road.","State":"Missouri","City":"LEBANON","Street":"1300 MILLCREEK CT","Zip":"65536","Longitude":"-92.64478689665215","Latitude":"37.6835272140034","Dates":null,"Products":""},{"Type":"farmers market","ModifyDate":"Mar 27th, 2023","Image":"default-farmersmarket-4-3.jpg","ListingID":"311336","Name":"Rt 66 Farmer's Market","Description":null,"ContactName":null,"ContactEmail":null,"ContactPhone":"636-629-1889","Website":"http:\/\/www.stclairmo.com\/chamber.htm","Facebook":null,"Twitter":null,"Instagram":null,"Pinterest":null,"Youtube":null,"Blog":null,"Address":"855 N. Commercial St. Clair, MO 63077","State":"Missouri","City":"SAINT CLAIR","Street":"855 N COMMERCIAL AVE","Zip":"63077","Longitude":"-90.97813182508483","Latitude":"38.35387670768481","Dates":null,"Products":""},{"Type":"farmers market","ModifyDate":"Mar 27th, 2023","Image":"default-farmersmarket-4-3.jpg","ListingID":"311337","Name":"Salem Farmers' Market","Description":null,"ContactName":null,"ContactEmail":null,"ContactPhone":null,"Website":null,"Facebook":"https:\/\/www.facebook.com\/salemfarmersmarket","Twitter":null,"Instagram":null,"Pinterest":null,"Youtube":null,"Blog":null,"Address":"200 S. Main St., Salem, MO, 65560","State":"Missouri","City":"Salem","Street":"200 S. Main St.","Zip":"65560","Longitude":"-91.53536960909805","Latitude":"37.6428140473097","Dates":null,"Products":""},{"Type":"farmers market","ModifyDate":"Mar 27th, 2023","Image":"default-farmersmarket-4-3.jpg","ListingID":"311338","Name":"Schlafly Farmers Market","Description":null,"ContactName":null,"ContactEmail":null,"ContactPhone":"314-241-2337","Website":"http:\/\/www.schlaflyfarmersmarket.com","Facebook":null,"Twitter":null,"Instagram":null,"Pinterest":null,"Youtube":null,"Blog":null,"Address":"7260 Southwest Avenue, parking lot and indoors Maplewood, MO 63143","State":"Missouri","City":"SAINT LOUIS","Street":"7260 SOUTHWEST AVE","Zip":"63143","Longitude":"-90.31492177954611","Latitude":"38.61345852357115","Dates":null,"Products":""},{"Type":"farmers market","ModifyDate":"Mar 27th, 2023","Image":"default-farmersmarket-4-3.jpg","ListingID":"311339","Name":"Sikeston Farmers' Market","Description":null,"ContactName":null,"ContactEmail":"kmedley@sikeston.org","ContactPhone":"573-471-5242","Website":"http:\/\/www.downtownsikeston.org\/","Facebook":"https:\/\/www.facebook.com\/DowntownSikestonFarmersMarket","Twitter":null,"Instagram":null,"Pinterest":null,"Youtube":null,"Blog":null,"Address":"115 E. Front St., American Legion Square, Sikeston, MO, 63801","State":"Missouri","City":"Sikeston","Street":"115 E. Front St","Zip":"63801","Longitude":"-89.58911616377932","Latitude":"36.87698634290607","Dates":null,"Products":""},{"Type":"farmers market","ModifyDate":"Mar 27th, 2023","Image":"default-farmersmarket-4-3.jpg","ListingID":"311340","Name":"Soulard Farmers' Market","Description":null,"ContactName":null,"ContactEmail":null,"ContactPhone":null,"Website":null,"Facebook":null,"Twitter":null,"Instagram":null,"Pinterest":null,"Youtube":null,"Blog":null,"Address":"730 Carroll Street St. Louis, MO 63104","State":"Missouri","City":"SAINT LOUIS","Street":"730 CARROLL ST","Zip":"63104","Longitude":"-90.2010012973506","Latitude":"38.61106415091785","Dates":null,"Products":""},{"Type":"farmers market","ModifyDate":"Mar 27th, 2023","Image":"default-farmersmarket-4-3.jpg","ListingID":"311341","Name":"Southern Boone Farmers' Market","Description":null,"ContactName":null,"ContactEmail":"sobocogarden@gmail.com","ContactPhone":"573-657-4300","Website":null,"Facebook":"https:\/\/www.facebook.com\/southernboonefarmersmarket","Twitter":null,"Instagram":null,"Pinterest":null,"Youtube":null,"Blog":null,"Address":"106 Maple St., Ashland, MO, 65010","State":"Missouri","City":"Ashland","Street":"106 Maple St.","Zip":"65010","Longitude":"-92.25747806041231","Latitude":"38.77412955546708","Dates":null,"Products":""},{"Type":"farmers market","ModifyDate":"Mar 27th, 2023","Image":"default-farmersmarket-4-3.jpg","ListingID":"311342","Name":"Southside Farmers' Market","Description":null,"ContactName":null,"ContactEmail":"Manager@southsidemarket.org","ContactPhone":"660-346-9233","Website":null,"Facebook":"https:\/\/www.facebook.com\/Southside.Market","Twitter":null,"Instagram":null,"Pinterest":null,"Youtube":null,"Blog":null,"Address":"1404 S. Missouri St., Macon, MO, 63552","State":"Missouri","City":"Macon","Street":"1404 S. Missouri St.","Zip":"63552","Longitude":"-92.4657952118305","Latitude":"39.72343180846965","Dates":null,"Products":""},{"Type":"farmers market","ModifyDate":"Mar 27th, 2023","Image":"default-farmersmarket-4-3.jpg","ListingID":"311343","Name":"Southwest Farmers' Market at Great Southern","Description":null,"ContactName":null,"ContactEmail":null,"ContactPhone":"417-759-2483","Website":null,"Facebook":null,"Twitter":null,"Instagram":null,"Pinterest":null,"Youtube":null,"Blog":null,"Address":"208 S. Glenstone Springfield, MO 65802","State":"Missouri","City":"SPRINGFIELD","Street":"208 S GLENSTONE AVE","Zip":"65802","Longitude":"-93.26184803190444","Latitude":"37.20868812488342","Dates":null,"Products":""},{"Type":"farmers market","ModifyDate":"Mar 27th, 2023","Image":"default-farmersmarket-4-3.jpg","ListingID":"311344","Name":"St Clair Farmers Market","Description":null,"ContactName":null,"ContactEmail":null,"ContactPhone":"636-584-5946","Website":null,"Facebook":"http:\/\/www.facebook.com\/Rt66FarmersMarketSt.Clair","Twitter":null,"Instagram":null,"Pinterest":null,"Youtube":null,"Blog":null,"Address":"855 N. Commercial St. Clair, MO 63077","State":"Missouri","City":"SAINT CLAIR","Street":"855 N COMMERCIAL AVE","Zip":"63077","Longitude":"-90.97813182508483","Latitude":"38.35387670768481","Dates":null,"Products":""},{"Type":"farmers market","ModifyDate":"Mar 27th, 2023","Image":"default-farmersmarket-4-3.jpg","ListingID":"311345","Name":"St. Charles Lions Club Farmers Market","Description":null,"ContactName":null,"ContactEmail":null,"ContactPhone":"636-723-2412","Website":null,"Facebook":null,"Twitter":null,"Instagram":null,"Pinterest":null,"Youtube":null,"Blog":null,"Address":"300 North Riverside Drive St. Charles, MO 63301","State":"Missouri","City":"SAINT CHARLES","Street":"300 S RIVERSIDE DR","Zip":"63301","Longitude":"-90.48136106449581","Latitude":"38.77927203194177","Dates":null,"Products":""},{"Type":"farmers market","ModifyDate":"Mar 27th, 2023","Image":"default-farmersmarket-4-3.jpg","ListingID":"311346","Name":"Steelville Morning Market","Description":null,"ContactName":null,"ContactEmail":null,"ContactPhone":"573-860-9700","Website":null,"Facebook":"http:\/\/www.facebook.com\/SteelvilleMarket\/","Twitter":null,"Instagram":null,"Pinterest":null,"Youtube":null,"Blog":null,"Address":"392 Main St Steelville, MO 65565","State":"Missouri","City":"STEELVILLE","Street":"392 MAIN ST","Zip":"65565","Longitude":"-91.35817236992368","Latitude":"37.967246042490906","Dates":null,"Products":""},{"Type":"farmers market","ModifyDate":"Mar 27th, 2023","Image":"default-farmersmarket-4-3.jpg","ListingID":"311347","Name":"Sunrise Farmers' Market","Description":null,"ContactName":null,"ContactEmail":null,"ContactPhone":"816-475-2442","Website":null,"Facebook":null,"Twitter":null,"Instagram":null,"Pinterest":null,"Youtube":null,"Blog":null,"Address":"14539 N. State Hwy. 5, Sunrise Beach, MO, 65079","State":"Missouri","City":"Sunrise Beach","Street":"14539 N. State Hwy. 5","Zip":"65079","Longitude":"-92.77709810745723","Latitude":"38.158487264113305","Dates":null,"Products":""},{"Type":"farmers market","ModifyDate":"Mar 27th, 2023","Image":"default-farmersmarket-4-3.jpg","ListingID":"311348","Name":"The City Market Farmers' Market","Description":null,"ContactName":null,"ContactEmail":"dconnors@thecitymarket.org","ContactPhone":"816-842-1271","Website":"http:\/\/thecitymarket.org\/farmers-market\/overview","Facebook":null,"Twitter":null,"Instagram":null,"Pinterest":null,"Youtube":null,"Blog":null,"Address":"20 E. 5th St, Suite 201, Kansas City, MO, 64106","State":"Missouri","City":"Kansas City","Street":"20 E. 5th St, Suite 201","Zip":"64106","Longitude":"-94.58212733793486","Latitude":"39.108460506000334","Dates":null,"Products":""},{"Type":"farmers market","ModifyDate":"Mar 27th, 2023","Image":"default-farmersmarket-4-3.jpg","ListingID":"311349","Name":"The Post Farmers' Market","Description":null,"ContactName":null,"ContactEmail":null,"ContactPhone":null,"Website":"http:\/\/www.CrossFitCerberus.com","Facebook":"http:\/\/www.facebook.com\/Crossfitcerberus","Twitter":null,"Instagram":null,"Pinterest":null,"Youtube":null,"Blog":null,"Address":"200 NW 11th Street Blue Springs, MO 64015 Nestled outside the former post office in downtown Blue Springs, MO. From I-70, South on MO-7, East on Main Street & just a pinch North on 11th Street. Parkin","State":"Missouri","City":"BLUE SPRINGS","Street":"200 NW 11TH ST","Zip":"64015","Longitude":"-94.27778633804863","Latitude":"39.018978169314785","Dates":null,"Products":""},{"Type":"farmers market","ModifyDate":"Mar 27th, 2023","Image":"default-farmersmarket-4-3.jpg","ListingID":"311350","Name":"Ville Open-Air Market","Description":null,"ContactName":null,"ContactEmail":null,"ContactPhone":"314-534-8015","Website":null,"Facebook":null,"Twitter":null,"Instagram":null,"Pinterest":null,"Youtube":null,"Blog":null,"Address":"4223 Dr. Martin Luther King Drive St. Louis, MO 63113","State":"Missouri","City":"SAINT LOUIS","Street":"4223 DR MARTIN LUTHER KING DR","Zip":"63113","Longitude":"-90.24129119929701","Latitude":"38.65485153342435","Dates":null,"Products":""},{"Type":"farmers market","ModifyDate":"Mar 27th, 2023","Image":"default-farmersmarket-4-3.jpg","ListingID":"311351","Name":"Waldo Farmers' Market","Description":null,"ContactName":null,"ContactEmail":null,"ContactPhone":null,"Website":"http:\/\/waldofarmersmarketkc.com\/","Facebook":null,"Twitter":null,"Instagram":null,"Pinterest":null,"Youtube":null,"Blog":null,"Address":"303 W. 79th St., Kansas City, MO, 64114","State":"Missouri","City":"Kansas City","Street":"303 W. 79th St.","Zip":"64114","Longitude":"-94.59320620926725","Latitude":"38.98500892953959","Dates":null,"Products":""},{"Type":"farmers market","ModifyDate":"Mar 27th, 2023","Image":"default-farmersmarket-4-3.jpg","ListingID":"311352","Name":"Warren County Farmers' & Artisans' Market","Description":null,"ContactName":null,"ContactEmail":null,"ContactPhone":null,"Website":null,"Facebook":"https:\/\/www.facebook.com\/warrencountyfarmersandartisansmarket","Twitter":null,"Instagram":null,"Pinterest":null,"Youtube":null,"Blog":null,"Address":"200 W. Booneslick Rd., Pavillion behind City Hall, Warrenton, MO, 63383","State":"Missouri","City":"Warrenton","Street":"200 W. Booneslick Rd.","Zip":"63383","Longitude":"-91.15008243039412","Latitude":"38.81115705029708","Dates":null,"Products":""},{"Type":"farmers market","ModifyDate":"Mar 27th, 2023","Image":"default-farmersmarket-4-3.jpg","ListingID":"311353","Name":"Washington County Farmers' Market","Description":null,"ContactName":null,"ContactEmail":null,"ContactPhone":"573-438-2671","Website":null,"Facebook":null,"Twitter":null,"Instagram":null,"Pinterest":null,"Youtube":null,"Blog":null,"Address":"520 Purcell Dr., Potosi, MO, 63664","State":"Missouri","City":"Potosi","Street":"520 Purcell Dr.","Zip":"63664","Longitude":"-90.77823590120597","Latitude":"37.9334986782808","Dates":null,"Products":""},{"Type":"farmers market","ModifyDate":"Mar 27th, 2023","Image":"default-farmersmarket-4-3.jpg","ListingID":"311354","Name":"Washington Farmers' Market","Description":null,"ContactName":null,"ContactEmail":null,"ContactPhone":"636-239-2715x106","Website":"http:\/\/www.washmomarket.weebly.com","Facebook":null,"Twitter":null,"Instagram":null,"Pinterest":null,"Youtube":null,"Blog":null,"Address":"317 West Main Street Washington, MO 63090","State":"Missouri","City":"WASHINGTON","Street":"317 W MAIN ST","Zip":"63090","Longitude":"-91.01336731911358","Latitude":"38.56085302286121","Dates":null,"Products":""},{"Type":"farmers market","ModifyDate":"Mar 27th, 2023","Image":"default-farmersmarket-4-3.jpg","ListingID":"311355","Name":"Washington Tailgate Market","Description":null,"ContactName":null,"ContactEmail":"cabrunner@yahoo.com","ContactPhone":"636-239-2715","Website":"http:\/\/www.washmomarket.com\/","Facebook":null,"Twitter":null,"Instagram":null,"Pinterest":null,"Youtube":null,"Blog":null,"Address":"317 W. Main St., Washington, MO, 63090","State":"Missouri","City":"Washington","Street":"317 W. Main St.","Zip":"63090","Longitude":"-91.01336731911358","Latitude":"38.56085302286121","Dates":null,"Products":""},{"Type":"farmers market","ModifyDate":"Mar 27th, 2023","Image":"default-farmersmarket-4-3.jpg","ListingID":"311356","Name":"West Plains Area Farmers Market","Description":null,"ContactName":null,"ContactEmail":null,"ContactPhone":"417-259-4325","Website":null,"Facebook":"http:\/\/www.facebook.com\/WestPlainsAreaFarmersMarket","Twitter":null,"Instagram":null,"Pinterest":null,"Youtube":null,"Blog":null,"Address":"1380 Bill Virdon Blvd. East Towne Village West Plains, MO 65775 Conveniently located less than one mile east of the Civic Center, the market is across the street from Dollar General, and next door to","State":"Missouri","City":"WEST PLAINS","Street":"1380 BILL VIRDON BLVD","Zip":"65775","Longitude":"-91.83580862601114","Latitude":"36.72399123242709","Dates":null,"Products":""},{"Type":"farmers market","ModifyDate":"Mar 27th, 2023","Image":"default-farmersmarket-4-3.jpg","ListingID":"311357","Name":"Weston MO Farmer's Market","Description":null,"ContactName":null,"ContactEmail":null,"ContactPhone":"816-640-5500","Website":null,"Facebook":null,"Twitter":null,"Instagram":null,"Pinterest":null,"Youtube":null,"Blog":null,"Address":"201 Welt Street Weston, MO 64098","State":"Missouri","City":"WESTON","Street":"201 WELT ST","Zip":"64098","Longitude":"-94.89714635990522","Latitude":"39.402921328348825","Dates":null,"Products":""},{"Type":"farmers market","ModifyDate":"Mar 27th, 2023","Image":"default-farmersmarket-4-3.jpg","ListingID":"311358","Name":"Willow Springs Farmers' Market","Description":null,"ContactName":null,"ContactEmail":null,"ContactPhone":null,"Website":null,"Facebook":null,"Twitter":null,"Instagram":null,"Pinterest":null,"Youtube":null,"Blog":null,"Address":"2484 County Road 5430 Willow Springs, MO 65793","State":"Missouri","City":"WILLOW SPGS","Street":"2484 CO RD 5430","Zip":"65793","Longitude":"-92.00060211753377","Latitude":"36.95481354807716","Dates":null,"Products":""},{"Type":"farmers market","ModifyDate":"Sep 10th, 2020","Image":"default-farmersmarket-4-3.jpg","ListingID":"300251","Name":"Carrollton Farmers Market","Description":null,"ContactName":"Jodi Ahnefeld","ContactEmail":"jdagd4@mail.umkc.edu","ContactPhone":"816-560-3337","Website":null,"Facebook":"https:\/\/www.facebook.com\/CarrolltonFarmersMarket","Twitter":null,"Instagram":null,"Pinterest":null,"Youtube":null,"Blog":null,"Address":"Carrollton Uptown Square, Carrollton, Missouri 64633","State":"Missouri","City":"Carrollton","Street":"Carrollton Uptown Square","Zip":"64633","Longitude":"-93.496941","Latitude":"39.358097","Dates":"May to September","Products":"Fresh fruits, Fresh vegetables, Baked goods, Bedding plants, Canned or preserved fruits\/vegetables, Crafts\/woodworking items, Eggs, Fresh\/dried herbs, Honey, Prepared foods"},{"Type":"farmers market","ModifyDate":"Sep 10th, 2020","Image":"default-farmersmarket-4-3.jpg","ListingID":"300587","Name":"Sedalia Area Farmers' Market","Description":null,"ContactName":"Brenda Raetz","ContactEmail":"brenda.raetz@gmail.com","ContactPhone":"660-281-7244","Website":"http:\/\/www.sedaliaareafarmersmarket.com\/","Facebook":"https:\/\/www.facebook.com\/SedaliaFarmersMarket\/","Twitter":null,"Instagram":null,"Pinterest":null,"Youtube":null,"Blog":null,"Address":"2233 W 16th St, Sedalia, MO, Missouri 65301","State":"Missouri","City":"Sedalia, MO","Street":"2233 W 16th St","Zip":"65301","Longitude":"-93.255481","Latitude":"38.698011","Dates":"May to October","Products":"Fresh fruits, Fresh vegetables, Baked goods, Bedding plants, Canned or preserved fruits\/vegetables, Coffee\/tea, Crafts\/woodworking items, Cut flowers, Dry beans, Eggs, Fresh\/dried herbs, Grains\/flour, Honey, Juices\/non-alcoholic ciders, Mushrooms, Pet food, Poultry\/fowl meat and products, Prepared foods, Red\/other non-poultry meat and products, Soap\/body care products, Wild harvested forest products"}]