[{"Type":"on-farm market","ModifyDate":"Aug 13th, 2014","Image":"default-onfarmmarket-4-3.jpg","ListingID":"700017","Name":"Thunder Mountain Alpaca Ranch","Description":null,"ContactName":"Lisa Thompson","ContactEmail":"thunder.mountain@yahoo.com","ContactPhone":"520-366-5579","Website":null,"Facebook":"https:\/\/www.facebook.com\/ThunderMountainAlpacaRanch","Twitter":null,"Instagram":null,"Pinterest":null,"Youtube":null,"Blog":null,"Address":", Palominas \/ Hereford, Arizona 85615","State":"Arizona","City":"Palominas \/ Hereford","Street":null,"Zip":"85615","Longitude":"-110.21865","Latitude":"31.357113","Dates":null,"Products":""},{"Type":"on-farm market","ModifyDate":"Aug 13th, 2014","Image":"default-onfarmmarket-4-3.jpg","ListingID":"700178","Name":"Wholesale Organic Chicken Feed and Grain Buyer's Club Phoenix Arizona","Description":null,"ContactName":"Scott Brown","ContactEmail":"organicphx@gmail.com","ContactPhone":"480-577-5995","Website":"www.phoenixorganicfeed.com","Facebook":"https:\/\/www.facebook.com\/BackyardChickenFarmersUnite\/info","Twitter":null,"Instagram":null,"Pinterest":null,"Youtube":null,"Blog":"http:\/\/www.phoenixorganicfeed.com\/blog","Address":"507 E Barbarita Ave, Gilbert, Arizona 85234","State":"Arizona","City":"Gilbert","Street":"507 E Barbarita Ave","Zip":"85234","Longitude":"-111.77949","Latitude":"33.3628495","Dates":null,"Products":""},{"Type":"on-farm market","ModifyDate":"Feb 17th, 2021","Image":"default-onfarmmarket-4-3.jpg","ListingID":"701586","Name":"Stone Tree Acres","Description":null,"ContactName":"Nate Neterval","ContactEmail":"nate_neterval@yahoo.com","ContactPhone":"2532590172","Website":null,"Facebook":null,"Twitter":null,"Instagram":null,"Pinterest":null,"Youtube":null,"Blog":null,"Address":"11 Mesquite Lane, Concho, Arizona 85924","State":"Arizona","City":"Concho","Street":"11 Mesquite Lane","Zip":"85924","Longitude":"-109.63173","Latitude":"34.461412","Dates":null,"Products":""},{"Type":"on-farm market","ModifyDate":"Jul 12th, 2016","Image":"default-onfarmmarket-4-3.jpg","ListingID":"701356","Name":"CitiFarms LLC","Description":null,"ContactName":"Zheka","ContactEmail":"zheka@citifarms.com","ContactPhone":"9288216004","Website":"CitiFarms.com","Facebook":"CitiFarms","Twitter":"CitiFarms","Instagram":null,"Pinterest":null,"Youtube":null,"Blog":null,"Address":"2024 N.7th Street , Phoenix , Arizona 85006","State":"Arizona","City":"Phoenix","Street":"2024 N.7th Street","Zip":"85006","Longitude":"-112.06580","Latitude":"33.4704390","Dates":null,"Products":""},{"Type":"on-farm market","ModifyDate":"Jul 26th, 2014","Image":"default-onfarmmarket-4-3.jpg","ListingID":"700539","Name":"Briggs & Eggers Orchards","Description":null,"ContactName":"Lance Eggers","ContactEmail":"briggseggers@briggs-eggers.com","ContactPhone":"(520) 384-6099","Website":"http:\/\/www.briggs-eggers.com","Facebook":null,"Twitter":null,"Instagram":null,"Pinterest":null,"Youtube":null,"Blog":null,"Address":"27197 S. Brookerson Rd., Wilcox, Arizona 85643","State":"Arizona","City":"Wilcox","Street":"27197 S. Brookerson Rd.","Zip":"85643","Longitude":"-109.92724","Latitude":"32.455554","Dates":null,"Products":""},{"Type":"on-farm market","ModifyDate":"May 12th, 2015","Image":"default-onfarmmarket-4-3.jpg","ListingID":"700779","Name":"Harris Heritage Growers","Description":null,"ContactName":"Denise Purvis","ContactEmail":"gndpurvis@wildblue.net","ContactPhone":"520 455-9272","Website":null,"Facebook":"https:\/\/www.facebook.com\/HarrisHeritageGrowers","Twitter":null,"Instagram":null,"Pinterest":null,"Youtube":null,"Blog":null,"Address":"27811 S. Sonoita Highway, Sonoita, Arizona 85637","State":"Arizona","City":"Sonoita","Street":"27811 S. Sonoita Highway","Zip":"85637","Longitude":"-110.67234","Latitude":"31.752720","Dates":null,"Products":""},{"Type":"on-farm market","ModifyDate":"Oct 26th, 2020","Image":"default-onfarmmarket-4-3.jpg","ListingID":"701565","Name":"Broken Horn D Ranch","Description":null,"ContactName":"Kim McElroy","ContactEmail":"k_mcelroy@msn.com","ContactPhone":"9287089385","Website":"www.BHDRanch.com","Facebook":"https:\/\/www.facebook.com\/BHDRanch","Twitter":null,"Instagram":null,"Pinterest":null,"Youtube":null,"Blog":null,"Address":"11325 STRICKLAND WASH RD, PRESCOTT, Arizona 86305","State":"Arizona","City":"PRESCOTT","Street":"11325 STRICKLAND WASH RD","Zip":"86305","Longitude":"-112.66974","Latitude":"34.756704","Dates":null,"Products":""},{"Type":"on-farm market","ModifyDate":"Sep 19th, 2014","Image":"default-onfarmmarket-4-3.jpg","ListingID":"700255","Name":"Our Garden","Description":null,"ContactName":"Jesse Petty","ContactEmail":"ourgarden@live.com","ContactPhone":"5208254360","Website":"www.ourgardencatalina.com","Facebook":null,"Twitter":null,"Instagram":null,"Pinterest":null,"Youtube":null,"Blog":null,"Address":"16500 N. Stallion Pl., Tucson, Arizona 85739","State":"Arizona","City":"Tucson","Street":"16500 N. Stallion Pl.","Zip":"85739","Longitude":"-110.89689","Latitude":"32.505129","Dates":null,"Products":""},{"Type":"on-farm market","ModifyDate":"Sep 24th, 2014","Image":"default-onfarmmarket-4-3.jpg","ListingID":"701097","Name":"Elderberry Edibles CSA & Market Garden","Description":null,"ContactName":"Jennifer Vallier","ContactEmail":"elderberryedibles@gmail.com","ContactPhone":"5209908435","Website":"www.elderberryedibles.com","Facebook":"https:\/\/www.facebook.com\/ElderberryEdibles?ref=hl","Twitter":null,"Instagram":null,"Pinterest":null,"Youtube":null,"Blog":null,"Address":"1700 N Wentworth Rd, Tucson, Arizona 85749","State":"Arizona","City":"Tucson","Street":"1700 N Wentworth Rd","Zip":"85749","Longitude":"-110.71876","Latitude":"32.2419960","Dates":null,"Products":""},{"Type":"on-farm market","ModifyDate":"Sep 25th, 2014","Image":"default-onfarmmarket-4-3.jpg","ListingID":"701100","Name":"Orchard Community Learning Center","Description":null,"ContactName":"John Wann","ContactEmail":"info@orchardlearningcenter.org","ContactPhone":"602-509-6042","Website":"www.orchardlearningcenter.org","Facebook":"Orchard Community Learning Center","Twitter":null,"Instagram":null,"Pinterest":null,"Youtube":null,"Blog":null,"Address":"911 West Baseline Road, Phoenix, Arizona 85041","State":"Arizona","City":"Phoenix","Street":"911 West Baseline Road","Zip":"85041","Longitude":"-112.08618","Latitude":"33.377375","Dates":null,"Products":""}]