[{"type":"farm","street":"161 Matunuck School House Rd","city":"Matunuck","state":"RI","zip":"02879","longitude":"-71.555699","latitude":"41.386896","name":"Browning Homestead Farm","website":"http://www.browninghomesteadfarm.com/","facebook":"https://www.facebook.com/pages/Browning-Homestead-Farm/190387924326485?ref=tn_tnmn","twitter":"","tags":""},{"type":"farm","street":"58 Chatham Street","city":"Providence","state":"RI","zip":"02904","longitude":"-71.415495","latitude":"41.851344","name":"Quaintly Farm","website":"www.quaintlyfarm.com","facebook":"","twitter":"","tags":"fresh-vegetables"},{"type":"farm","street":"130 Rocky Point Ave.","city":"Warwick","state":"RI","zip":"2889","longitude":"-71.375285","latitude":"41.688845","name":"Rocky Point Farm","website":"www.rockypointblueberries.com","facebook":"","twitter":"","tags":"canned preserved honey maple-products"},{"type":"farm","street":"1800 Scituate Ave","city":"Hope","state":"RI","zip":"02831","longitude":"-71.535465","latitude":"41.771510","name":"The Good Earth Organic Farm","website":"http://www.goodearthri.com/","facebook":"https://www.facebook.com/GoodEarthRI","twitter":"","tags":""},{"type":"market","name":"Aquidneck Growers Market - Wednesday","website":"https://aquidneckcommunitytable.org/","facebook":"https://www.facebook.com/Aquidneck-Growers-Market-145175198849594","twitter":"","street":"Memorial Blvd","city":"Newport","state":"RI","zip":"02840","longitude":"-71.305831","latitude":"41.483658","tags":"organic baked goods cheese flowers eggs seafood herbs vegetables honey jams maple meat poultry prepared-foods coffee fruits juices mushrooms"},{"type":"market","name":"Aquidneck Growers Market- Saturday Summer","website":"https://aquidneckcommunitytable.org/","facebook":"https://www.facebook.com/Aquidneck-Growers-Market-145175198849594","twitter":"","street":"35 Dexter St","city":"Newport","state":"RI","zip":"02840","longitude":"-71.304641","latitude":"41.509139","tags":"organic baked goods cheese crafts flowers eggs seafood herbs vegetables honey jams maple meat poultry prepared-foods soap coffee fruits juices mushrooms"},{"type":"market","name":"Aquidneck Growers' Markets","website":"https://aquidneckcommunitytable.org/market","facebook":"https://www.facebook.com/Aquidneck-Growers-Market-145175198849594/","twitter":"","street":"324 East Main Rd","city":"Portsmouth","state":"RI","zip":"02871","longitude":"-71.261378","latitude":"41.546506","tags":"organic baked goods cheese crafts flowers eggs seafood herbs vegetables honey jams meat poultry prepared-foods soap coffee fruits juices mushrooms"},{"type":"market","name":"Armory Farmers Market","website":"https://guide.farmfreshri.org/food/farmersmarkets_details.php?market=17","facebook":"https://www.facebook.com/farmfreshri/","twitter":"","street":"85 Parade St","city":"Providence","state":"RI","zip":"02909","longitude":"-71.431600","latitude":"41.814767","tags":"baked goods cheese flowers eggs seafood herbs vegetables honey jams prepared-foods coffee beans fruits tofu"},{"type":"market","name":"Broad St. Farmers Market","website":"https://guide.farmfreshri.org/food/farmersmarkets_details.php?market=3","facebook":"https://www.facebook.com/farmfreshri/","twitter":"","street":"807 Broad St.","city":"Providence","state":"RI","zip":"02907","longitude":"-71.418920","latitude":"41.801869","tags":"vegetables honey fruits"},{"type":"market","name":"Brown University Farmers Market","website":"https://guide.farmfreshri.org/food/farmersmarkets_details.php?market=5","facebook":"https://www.facebook.com/farmfreshri/","twitter":"","street":"201 Thayer St","city":"Providence","state":"RI","zip":"02906","longitude":"-71.400031","latitude":"41.826418","tags":"baked goods cheese flowers eggs herbs vegetables honey jams prepared-foods coffee beans fruits tofu"},{"type":"market","name":"Burrillville Farmers Market","website":"http://burrillvillefarmersmarket.org","facebook":"Burrillville Farmers Market ","twitter":"","street":"75 Tinkham Lane","city":"Harrisville ","state":"RI","zip":"02830","longitude":"-71.677124","latitude":"41.967496","tags":"baked goods crafts flowers eggs herbs vegetables honey jams plants soap trees fruits mushrooms wild"},{"type":"market","name":"Central Falls Farmers Market","website":"https://guide.farmfreshri.org/food/farmersmarkets_details.php?market=607","facebook":"https://www.facebook.com/farmfreshri/","twitter":"","street":"559 Dexter St","city":"Central Falls","state":"RI","zip":"02863","longitude":"-71.395650","latitude":"41.885605","tags":"herbs vegetables fruits"},{"type":"market","name":"Charlestown Land Trust Farmers' Market","website":"http://www.charlestownlandtrust.org","facebook":"Charlestown Land Trust Farmers Market","twitter":"","street":"4150 Old Post Road (Rt. 1A)","city":" Charlestown, RI ","state":"RI","zip":"02813","longitude":"-71.630764","latitude":"41.384847","tags":"baked goods crafts seafood vegetables prepared-foods soap fruits"},{"type":"market","name":"Coastal Growers Farmers Market","website":"https://www.coastalmarket.org","facebook":"https://www.facebook.com/CoastalGrowers/","twitter":"","street":"650 Ten Rod Rd.","city":"North Kingstown","state":"RI","zip":"02852","longitude":"-71.485463","latitude":"41.572691","tags":"organic baked goods cheese crafts eggs seafood vegetables honey jams maple meat poultry prepared-foods soap coffee fruits juices mushrooms"},{"type":"market","name":"Coastal Growers Market","website":"http://www.coastalmarket.org/","facebook":"https://www.facebook.com/CoastalGrowers","twitter":"https://twitter.com/CoastalMarketRI","street":"2325 Boston Neck Rd","city":"Saunderstown","state":"RI","zip":"02874","longitude":"-71.423632","latitude":"41.512000","tags":"organic baked goods crafts flowers eggs seafood herbs vegetables honey jams maple meat nuts plants poultry prepared-foods soap coffee fruits grains juices mushrooms pet food tofu"},{"type":"market","name":"Eat Drink RI Market at Blackbird Farm","website":"https://www.blackbirdfarmri.com/farmers-market/","facebook":"https://facebook.com/eatdrinkri","twitter":"","street":"660 Douglas Pike","city":"Smithfield","state":"RI","zip":"02917","longitude":"-71.504764","latitude":"41.901795","tags":"baked goods cheese flowers eggs herbs vegetables honey jams meat plants poultry prepared-foods soap coffee fruits"},{"type":"market","name":"Fisherman's Memorial Park Farmers Market","website":"","facebook":"","twitter":"","street":"1011 Point Judith Rd","city":"Narragansett","state":"RI","zip":"02882","longitude":"-71.488239","latitude":"41.380339","tags":"baked goods flowers eggs seafood herbs vegetables honey plants prepared-foods soap coffee fruits grains pet food tofu"},{"type":"market","name":"Goddard Memorial State Park Farmers Market","website":"http://www.dem.ri.gov/programs/agriculture/farmersmarkets.php","facebook":"","twitter":"","street":"1095 Ives Rd","city":"Warwick","state":"RI","zip":"02818","longitude":"-71.444335","latitude":"41.649602","tags":"organic baked goods flowers eggs herbs vegetables honey jams meat prepared-foods soap coffee fruits pet food"},{"type":"market","name":"Hope & Main's Schoolyard Market","website":"https://makefoodyourbusiness.org/markets/","facebook":"https://www.facebook.com/HopeandMain","twitter":"https://twitter.com/HopeandMain","street":"691 Main St","city":"Warren","state":"RI","zip":"02885","longitude":"-71.282144","latitude":"41.725161","tags":"baked goods cheese flowers eggs seafood herbs vegetables honey jams maple meat nuts poultry prepared-foods soap wine coffee fruits grains juices mushrooms pet food tofu"},{"type":"market","name":"Hope Street Farmers Market","website":"http://hopestreetmarket.com","facebook":"https://www.facebook.com/HopeStFarmersMkt","twitter":"","street":"1015 Hope St","city":"Providence","state":"RI","zip":"02906","longitude":"-71.356584","latitude":"41.799956","tags":"organic baked goods cheese flowers eggs seafood herbs vegetables honey jams maple meat nuts poultry prepared-foods soap coffee beans fruits grains juices mushrooms pet food wild"},{"type":"market","name":"Mount Hope Farmers Market","website":"http://www.mounthopefarm.org","facebook":"https://www.facebook.com/mounthopefarm","twitter":"","street":"250 Metacom Ave","city":"Bristol","state":"RI","zip":"02809","longitude":"-71.2568820","latitude":"41.6694780","tags":"organic baked goods cheese flowers eggs vegetables honey jams meat prepared-foods soap coffee fruits mushrooms pet food wild"},{"type":"market","name":"Neutaconkanut Farmers Market","website":"https://guide.farmfreshri.org/food/farmersmarkets_details.php?market=454","facebook":"https://www.facebook.com/farmfreshri/","twitter":"","street":"675 Plainfield St","city":"Providence ","state":"RI","zip":"02909","longitude":"-71.461775","latitude":"41.811800","tags":"herbs vegetables fruits"},{"type":"market","name":"Pawtucket Farmers Market","website":"https://guide.farmfreshri.org/food/farmersmarkets_details.php?market=30","facebook":"https://www.facebook.com/farmfreshri/","twitter":"","street":"374 Main ST","city":"Pawtucket","state":"RI","zip":"02860","longitude":"-71.387274","latitude":"41.877734","tags":"cheese vegetables honey jams beans fruits tofu"},{"type":"market","name":"Pawtucket Wintertime Farmers Market","website":"https://guide.farmfreshri.org/food/farmersmarkets_details.php?market=29","facebook":"","twitter":"","street":"1005 Main Street","city":"Pawtucket","state":"RI","zip":"02860","longitude":"-71.399990","latitude":"41.862831","tags":"organic baked goods cheese eggs seafood herbs vegetables honey jams maple meat nuts plants poultry prepared-foods soap coffee beans fruits grains juices mushrooms pet food tofu"},{"type":"market","name":"Pawtuxet Village Farmers Market","website":"https://guide.farmfreshri.org/food/farmersmarkets_details.php?market=18","facebook":"","twitter":"","street":"60 Rhodes Pl","city":"Cranston","state":"RI","zip":"02905","longitude":"-71.391872","latitude":"41.767977","tags":"baked goods cheese herbs vegetables coffee fruits"},{"type":"market","name":"Sankofa World Market","website":"","facebook":"","twitter":"","street":"224 Dexter St","city":"Providence","state":"RI","zip":"02907","longitude":"-71.428530","latitude":"41.811066","tags":"herbs vegetables fruits"},{"type":"market","name":"Scituate Farmers Market","website":"http://scituatefarmersmarketri.org","facebook":"scituatefarmersmarketri","twitter":"scifarmersmktri","street":"Rt 116 at Institute Lane","city":"North Scituate","state":"RI","zip":"02857","longitude":"-71.586035","latitude":"41.834131","tags":"baked goods crafts flowers eggs herbs vegetables honey jams meat plants prepared-foods soap fruits pet food"},{"type":"market","name":"South Kingstown Farmers Market  at Marina Park ","website":"https://www.southkingstownfarmersmarket.org/","facebook":"","twitter":"","street":"2 Salt Pond Rd","city":"Wakefield","state":"RI","zip":"02879","longitude":"-71.496960","latitude":"41.428192","tags":"herbs vegetables fruits"},{"type":"market","name":"Tiverton Farmer's Market","website":"http://www.tivertonfarmersmarket.com","facebook":"https://www.facebook.com/TivertonFarmersMarket","twitter":"","street":"43 Muse Way","city":"Tiverton, RI","state":"RI","zip":"02878","longitude":"-71.150045","latitude":"41.622867","tags":"organic baked goods crafts flowers eggs seafood herbs vegetables honey plants poultry prepared-foods soap coffee fruits pet food wild"},{"type":"market","name":"Weaver Library Farmers' Market","website":"http://www.eastprovidencelibrary.org","facebook":"https://www.facebook.com/weaverlibraryfarmersmarket/","twitter":"","street":"41 Grove Avenue","city":"East Providence ","state":"RI","zip":"02914","longitude":"-71.375284","latitude":"41.818877","tags":"baked goods cheese flowers eggs seafood herbs vegetables honey jams meat nuts plants poultry prepared-foods soap beans fruits tofu"},{"type":"market","name":"West Warwick Farmers Market","website":"https://guide.farmfreshri.org/food/farmersmarkets_details.php?market=30","facebook":"https://www.facebook.com/farmfreshri/","twitter":"","street":"186 Providence St","city":"West Warwick","state":"RI","zip":"02893","longitude":"-71.516856","latitude":"41.713691","tags":"herbs vegetables fruits"},{"type":"market","name":"Westerly Land Trust Farmers Market","website":"http://www.westerlylandtrust.org","facebook":"@westerlypawcatuckfarmersmarket","twitter":"","street":"61-85 Main Street","city":"Westerly","state":"RI","zip":"02891","longitude":"-71.831720","latitude":"41.375089","tags":"organic baked goods cheese flowers eggs seafood herbs vegetables honey jams maple meat plants prepared-foods coffee fruits juices"},{"type":"market","name":"Woonsocket Farmers Market","website":"https://guide.farmfreshri.org/food/farmersmarkets_details.php?market=23","facebook":"https://www.facebook.com/farmfreshri/","twitter":"","street":"450 Clinton St","city":"Woonsocket ","state":"RI","zip":"02895","longitude":"-71.504321","latitude":"42.007654","tags":"herbs vegetables fruits"}]
