[{"type":"farm","street":"2885 Steeplechase Dr.","city":"Dalzell","state":"SC","zip":"29040","longitude":"-80.431956","latitude":"34.02079","name":"Ambert Farm","website":"https://www.ambertfarm.com","facebook":"https://www.facebook.com/AmbertFarm","twitter":"https://twitter.com/AmbertFarm","tags":"eggs herbs fresh-vegetables poultry fowl"},{"type":"farm","street":"1221 Riddle Rd","city":"Pauline","state":"SC","zip":"29374","longitude":"-81.8853370","latitude":"34.7909070","name":"Anderson Vineyards","website":"","facebook":"","twitter":"","tags":""},{"type":"farm","street":"9760 Randall Rd","city":"McClellanville","state":"SC","zip":"29458","longitude":"-79.5016931","latitude":"33.0961315","name":"Blue Pearl Farms","website":"bluepearlfarms.com","facebook":"https://www.facebook.com/bluepearlfarmspage","twitter":"","tags":"canned preserved fresh-fruits honey soap body-care"},{"type":"farm","street":"2331 Muller Road","city":"Blythewood","state":"SC","zip":"29016","longitude":"-81.0637750","latitude":"34.2182530","name":"Blythewood Beef","website":"www.blythewoodbeef.com","facebook":"facebook.com/blythewoodbeef","twitter":"","tags":"red-meat non-poultry-meat"},{"type":"farm","street":"100 LYLE ST","city":"MAULDIN","state":"SC","zip":"29662","longitude":"-82.299578","latitude":"34.785966","name":"Bohica Pepper Hut","website":"www.bohicapepperhut.com","facebook":"https://business.facebook.com/BohicaPepperHut","twitter":"https://twitter.com/BohicaPepperHut","tags":"fresh-vegetables"},{"type":"farm","street":"1884 Bugby Plantation Road","city":"Wadmalaw Island","state":"SC","zip":"29487","longitude":"-80.0903945","latitude":"32.7059843","name":"Brigger Hill Farm","website":"","facebook":"","twitter":"","tags":"fresh-fruits fresh-vegetables"},{"type":"farm","street":"141 Rainbow Road","city":"Conway","state":"SC","zip":"29526","longitude":"-78.948363","latitude":"33.889692","name":"Bruces Blueberries","website":"","facebook":"","twitter":"","tags":""},{"type":"farm","street":"454 Damascus Church Road","city":"Long Creek","state":"SC","zip":"29658","longitude":"-83.2675788","latitude":"34.7667603","name":"Chattooga Belle Farm","website":"www.ChattoogaBelleFarm.com","facebook":"https://www.facebook.com/pages/Chattooga-Belle-Farm/320833894116?ref=hl","twitter":"","tags":"baked-goods canned preserved crafts woodworking dairy products eggs fresh-fruits honey juices ciders prepared-foods red-meat non-poultry-meat soap body-care wine spirits beer hard-cider"},{"type":"farm","street":"1236 Augusta Road","city":"Trenton","state":"SC","zip":"29847","longitude":"-81.8720070","latitude":"33.7458417","name":"Cook's Farm","website":"http://www.cooksfarm.com","facebook":"https://www.facebook.com/pages/Cooks-Roadside-Market/210756652278667","twitter":"","tags":"bedding plants canned preserved fresh-fruits fresh-vegetables honey juices ciders"},{"type":"farm","street":"1576 Sea Island Parkway ","city":"Saint Helena Island","state":"SC","zip":"29920","longitude":"-80.509848","latitude":"32.412935","name":"Dempsey Farms UPick","website":"dempseyfarmsupick.com","facebook":"","twitter":"","tags":""},{"type":"farm","street":"2995 highway 174","city":"Edisto Island","state":"SC","zip":"29438","longitude":"-80.3476050","latitude":"32.5974480","name":"Geechie Boy Market Mill","website":"geechieboymill.com","facebook":"geechie boy mill","twitter":"https://www.twitter.com/geechie boy mill","tags":"baked-goods canned preserved coffee tea crafts woodworking cut-flowers dairy products dry beans eggs herbs fresh-fruits fresh-vegetables grains flour honey nuts soap body-care"},{"type":"farm","street":"245 Hickory Bluff Lane","city":"Holly Hill","state":"SC","zip":"29059","longitude":"-80.342703","latitude":"33.257054","name":"Hickory Bluff Berry Farm","website":"","facebook":"","twitter":"","tags":""},{"type":"farm","street":"220 Moores Mill Rd.","city":"Pelzer","state":"SC","zip":"29669","longitude":"-82.4963227","latitude":"34.6826653","name":"Hurricane Creek Farms","website":"www.hurricanecreekfarms.com","facebook":"https://www.facebook.com/HurricaneCreekFarms","twitter":"","tags":"canned preserved dairy products herbs fresh-vegetables grains flour honey red-meat non-poultry-meat"},{"type":"farm","street":"213 Clatty Farm Rd.","city":"Ruffin","state":"SC","zip":"29475","longitude":"-80.7841184","latitude":"33.0465746","name":"Lil Johnson Rayanch","website":"","facebook":"","twitter":"","tags":"eggs poultry fowl red-meat non-poultry-meat"},{"type":"farm","street":"29247 Hwy 151 South","city":"McBee","state":"SC","zip":"29101","longitude":"-80.192793","latitude":"34.436374","name":"McLeod Farms Market","website":"www.macspride.com","facebook":"www.facebook.com/mcleodfarms","twitter":"","tags":"baked-goods canned preserved coffee tea dairy products fresh-fruits fresh-vegetables honey juices ciders maple-products nuts prepared-foods"},{"type":"farm","street":"1711 North Fraser Street","city":"Georgetown","state":"SC","zip":"29440","longitude":"-79.2897790","latitude":"33.3987310","name":"MILLGROVE FARMS TOWN MARKET","website":"http://www.millgrovefarms.com/","facebook":"https://www.facebook.com/pages/Millgrove-Farms/153647867865?ref=hl","twitter":"https://twitter.com/MillgroveFarms","tags":"bedding plants crafts woodworking cut-flowers dairy products dry beans herbs fresh-fruits fresh-vegetables grains flour juices ciders mushrooms red-meat non-poultry-meat"},{"type":"farm","street":"413 29th Avenue North","city":"North Myrtle Beach","state":"SC","zip":"","longitude":"-78.6398800","latitude":"33.8328660","name":"Natural Grown Meats","website":"NaturalGrownMeats.com","facebook":"Natural Grown Meats Owners Jeff & Tara Harrelson","twitter":"","tags":""},{"type":"farm","street":"377 Cantey Lane","city":"Rembert","state":"SC","zip":"29128","longitude":"-80.578306","latitude":"34.209886","name":"Old McCaskill's Farm","website":"oldmccaskillsfarm@gmail.com ","facebook":"Old McCaskill's Farm","twitter":"","tags":"baked-goods canned preserved dairy products eggs honey poultry fowl prepared-foods soap body-care"},{"type":"farm","street":"135 Mustang Dr","city":"Graniteville","state":"SC","zip":"29829","longitude":"-81.8623889","latitude":"33.5306160","name":"RAZE Organic Grown Products","website":"","facebook":"","twitter":"","tags":""},{"type":"farm","street":"","city":"Kershaw ","state":"SC","zip":"29067","longitude":"-80.5836836","latitude":"34.5518201","name":"Roberts Family Farm","website":"http://amandaroberts004.wix.com/robertsfamilyfarm","facebook":"https://www.facebook.com/RobertsFamilyFarmKershaw/","twitter":"","tags":"crafts woodworking cut-flowers eggs herbs fresh-fruits fresh-vegetables"},{"type":"farm","street":"4700 Canaan Church Road","city":"Smyrna","state":"SC","zip":"29743","longitude":"-81.4129309","latitude":"35.0464950","name":"Roger Ridge Ranch","website":"www.rogerridgeranch.com","facebook":"www.facebook.com/rogerridgeranch","twitter":"","tags":"eggs poultry fowl red-meat non-poultry-meat"},{"type":"farm","street":"140 Edith Drive","city":"Taylors","state":"SC","zip":"29687","longitude":"-82.316623","latitude":"34.972519","name":"Satterfield Farms","website":"http://www.facebook.com/satterfieldgrassfedbeef","facebook":"","twitter":"","tags":""},{"type":"farm","street":"1458 Hwy. 20","city":"Abbeville","state":"SC","zip":"29620","longitude":"-82.377913","latitude":"34.179935","name":"Southern Oaks Jersey Farm & Creamery","website":"","facebook":"","twitter":"","tags":"dairy products eggs honey poultry fowl red-meat non-poultry-meat soap body-care"},{"type":"farm","street":"1010 Springfield Parkway","city":"Fort Mill","state":"SC","zip":"29716","longitude":"-80.9145807","latitude":"35.0404714","name":"Springs Farm","website":"www.springsfarm.com","facebook":"www.facebook.com/springsfarm","twitter":"","tags":"baked-goods canned preserved dairy products eggs herbs fresh-fruits fresh-vegetables honey juices ciders"},{"type":"farm","street":"701 Singleton Lane","city":"Sumter","state":"SC","zip":"29154","longitude":"-80.3618041","latitude":"33.8962570","name":"Sunny Cedars Farm","website":"www.sunnycedars.com","facebook":"https://www.facebook.com/sunnycedars","twitter":"","tags":"red-meat non-poultry-meat"},{"type":"farm","street":"10 South Main Street","city":"Travelers Rest","state":"SC","zip":"29690","longitude":"-82.443133","latitude":"34.967438","name":"The Carolina Honey Bee Company - Carolina Bee Supply LLC","website":"https://www.carolinahoneybeecompany.com","facebook":"https://www.facebook.com/CarolinaHoneyBeeCompany","twitter":"https://twitter.com/CarolinaBeeCo","tags":"honey"},{"type":"farm","street":"510 Gap Hill Rd. - No Mail Receptacle","city":"Six Mile","state":"SC","zip":"29682","longitude":"-82.869578","latitude":"34.839952","name":"The Happy Berry","website":"www.thehappyberry.com","facebook":"","twitter":"","tags":"cut-flowers fresh-fruits nursery-stock"},{"type":"farm","street":"8603 Van Wyck Road","city":"Lancaster","state":"SC","zip":"29720","longitude":"-80.8608850","latitude":"34.8909080","name":"The Ivy Place LLC","website":"www.ivyplaceevents.com","facebook":"www.facebook.com/theivyplace","twitter":"www.twitter.com/theivyplace","tags":"cut-flowers fresh-fruits"},{"type":"farm","street":"1325 Hwy 160 West","city":"Fort Mill","state":"SC","zip":"29715","longitude":"-80.9576696","latitude":"35.0193339","name":"The Peach Stand","website":"www.peachstand.com","facebook":"www.facebook.com/peachstand","twitter":"","tags":"baked-goods canned preserved coffee tea crafts woodworking dairy products eggs fish seafood herbs fresh-fruits fresh-vegetables grains flour honey juices ciders maple-products mushrooms nuts poultry fowl prepared-foods red-meat non-poultry-meat soap body-care wine spirits beer hard-cider"},{"type":"farm","street":"211 Melaleuca lane","city":"Abbeville ","state":"SC","zip":"29620","longitude":"-82.416065","latitude":"34.174325","name":"The Twenty-eight Eleven (The 2811)","website":"www.the2811.com","facebook":"www.facebook.com/the2811","twitter":"","tags":"eggs fresh-vegetables honey poultry fowl"},{"type":"farm","street":"713 Colony Road","city":"Chester","state":"SC","zip":"29706","longitude":"-81.213222","latitude":"34.811077","name":"Watson Farms Pastured Meats","website":"http://www.watsonfarmsbeef.com/","facebook":"http://www.facebook.com/watsonfarms","twitter":"http://twitter.com/watsonfarmsbeef","tags":"poultry fowl"},{"type":"farm","street":"","city":"Taylors","state":"SC","zip":"29687","longitude":"-82.348271","latitude":"34.999269","name":"Whites Jersey Dairy","website":"","facebook":"","twitter":"","tags":"dairy products"},{"type":"market","name":"Anderson County Farmers Market","website":"https://www.andersoncountysc.org/parks/","facebook":"www.facebook.com/andersoncountyfarmersmarket","twitter":"","street":"402 N. Murray Ave","city":"Anderson","state":"SC","zip":"29621","longitude":"-82.652197","latitude":"34.506898","tags":"baked goods cheese crafts flowers eggs herbs vegetables honey jams meat plants poultry prepared-foods soap trees fruits pet food"},{"type":"market","name":"Carolina fresh market and more","website":"","facebook":"CarolinafreshmarketandmoreSC","twitter":"","street":"6619 hwy 29 north","city":"Pelzer ","state":"SC","zip":"29669","longitude":"-82.4614","latitude":"34.641892","tags":"baked goods cheese eggs herbs vegetables honey jams poultry prepared-foods soap coffee fruits"},{"type":"market","name":"City Center Farmers Market","website":"https://www.cityofflorence.com/local-foods-initiative/city-center-market","facebook":"https://www.facebook.com/citycenterfarmersmarket","twitter":"","street":"200 Sanborn Street","city":"Florence","state":"SC","zip":"29501","longitude":"-79.773582","latitude":"34.198789","tags":"organic baked goods cheese crafts flowers eggs seafood herbs vegetables honey jams maple meat nuts plants poultry prepared-foods soap trees coffee beans fruits grains juices mushrooms pet food wild"},{"type":"market","name":"Conway Farmers Market","website":"http://waccamawmarkets.org/","facebook":"https://www.facebook.com/WaccamawMarketCooperative/","twitter":"","street":"1029 2nd Ave","city":"Conway","state":"SC","zip":"29526","longitude":"-79.044831","latitude":"33.833331","tags":"baked goods cheese crafts flowers eggs seafood herbs vegetables honey jams meat nuts poultry prepared-foods soap coffee fruits juices"},{"type":"market","name":"Downtown Farmers Market","website":"http://www.lancastercitysc.com ","facebook":"https://www.facebook.com/seelancastercity","twitter":"","street":"101 North Main Street","city":"Lancaster","state":"SC","zip":"29720","longitude":"-80.770914","latitude":"34.721099","tags":"organic baked goods crafts flowers eggs herbs vegetables honey jams meat plants prepared-foods soap fruits"},{"type":"market","name":"Farmers Market of Bluffton","website":"http://www.farmersmarketbluffton.org","facebook":"farmersmarketbluffton","twitter":"","street":"40 Calhoun Street","city":"Bluffton","state":"SC","zip":"29910","longitude":"-80.862568","latitude":"32.234811","tags":"organic baked goods cheese flowers eggs seafood herbs vegetables honey jams meat nuts plants poultry prepared-foods trees coffee beans fruits grains mushrooms pet food"},{"type":"market","name":"Georgetown Farmers Market","website":"http://waccamawmarkets.org/","facebook":"https://www.facebook.com/WaccamawMarketCooperative/","twitter":"","street":"122 Screven St","city":"Georgetown","state":"SC","zip":"29440","longitude":"-79.2817826","latitude":"33.3662089","tags":"baked goods cheese crafts flowers eggs seafood herbs honey jams meat nuts poultry prepared-foods soap coffee fruits juices"},{"type":"market","name":"Hub City Farmers' Market","website":"http://Hubcityfm.org","facebook":"@HubCityFM","twitter":"@HubCityFM","street":"498 Howard St.","city":"Spartanburg","state":"SC","zip":"29303","longitude":"-81.9424130","latitude":"34.9562450","tags":"baked goods crafts eggs seafood herbs vegetables honey jams meat nuts plants poultry prepared-foods soap trees wine coffee beans fruits juices mushrooms pet food wild"},{"type":"market","name":"Kershaw County Farmers Market","website":"http://www.kcfarmersmarket.org/","facebook":"https://www.facebook.com/KCFMMarket/","twitter":"","street":"906 Broad Street","city":"Camden ","state":"SC","zip":"29021","longitude":"-80.6061919","latitude":"34.2432640","tags":"organic baked goods crafts eggs herbs vegetables honey jams meat plants poultry prepared-foods soap trees coffee fruits pet food"},{"type":"market","name":"Little River Farmers Market","website":"http://waccamawmarkets.org/","facebook":"https://www.facebook.com/WaccamawMarketCooperative/","twitter":"","street":"4461 Mineola Ave","city":"Little River","state":"SC","zip":"29566","longitude":"-78.640489","latitude":"33.880648","tags":"baked goods eggs vegetables honey prepared-foods soap fruits"},{"type":"market","name":"Market Common Farmers Market","website":"http://waccamawmarkets.org/","facebook":"https://www.facebook.com/WaccamawMarketCooperative/","twitter":"","street":"Deville St","city":"Myrtle Beach ","state":"SC","zip":"29577","longitude":"-78.9390094","latitude":"33.6699343","tags":"baked goods cheese crafts flowers eggs seafood vegetables honey jams meat nuts poultry prepared-foods soap coffee fruits juices"},{"type":"market","name":"Mauldin Farmers Market","website":"http://www.mauldinculturalcenter.org/mauldin-market","facebook":"https://www.facebook.com/mauldinmarket/","twitter":"","street":"101 East Butler Road","city":"Mauldin","state":"SC","zip":"29662","longitude":"-82.3063956","latitude":"34.7796468","tags":"organic baked goods cheese crafts eggs seafood herbs vegetables honey jams meat nuts poultry prepared-foods soap wine coffee fruits juices pet food"},{"type":"market","name":"Mount Pleasant Farmers Market","website":"https://experiencemountpleasant.com/events/farmers-market/","facebook":"https://www.facebook.com/MountPleasantFarmersMarket","twitter":"","street":"645 Coleman Boulevard","city":"Mount Pleasant","state":"SC","zip":"29464","longitude":"-79.873400","latitude":"32.790718","tags":"organic baked goods flowers eggs seafood herbs vegetables honey jams meat plants poultry prepared-foods trees coffee fruits"},{"type":"market","name":"North Myrtle Beach Farmers Market","website":"http://www.waccamawmarkets.org","facebook":"https://www.facebook.com/WaccamawMarketCooperative/","twitter":"","street":"925 First Avenue South","city":"North Myrtle Beach","state":"SC","zip":"29582","longitude":"-78.683173","latitude":"33.827655","tags":"baked goods cheese crafts flowers eggs seafood herbs vegetables honey jams meat nuts poultry prepared-foods soap trees coffee fruits juices"},{"type":"market","name":"Right Choice, Fresh Start Farmers' Market","website":"http://www.myfhc.org","facebook":"https://www.facebook.com/Family-Health-Centers-Farmers-Market-243660653033996/","twitter":"","street":"3310 Magnolia St.","city":"Orangeburg","state":"SC","zip":"29115","longitude":"-80.838621","latitude":"33.528187","tags":"vegetables fruits"},{"type":"market","name":"Right Choice, Fresh Start Farmers' Market","website":"http://www.myfhc.org","facebook":"https://www.facebook.com/Family-Health-Centers-Farmers-Market-243660653033996/","twitter":"","street":"5484 Carolina Hwy","city":"Denmark","state":"SC","zip":"29042","longitude":"-81.1442720","latitude":"33.3150790","tags":"eggs vegetables fruits"},{"type":"market","name":"Sumter Farmers Market","website":"http://Sumterfarmersmarket.com","facebook":"Sumter Farmers Market","twitter":"","street":"200 Miller road","city":"Sumter","state":"SC","zip":"29153","longitude":"-80.3730000","latitude":"33.9324793","tags":"organic baked goods cheese crafts eggs seafood vegetables honey jams meat plants poultry prepared-foods soap trees beans fruits juices"},{"type":"market","name":"Surfside Beach Farmers Market","website":"http://www.waccamawmarkets.org","facebook":"https://www.facebook.com/WaccamawMarketCooperative/","twitter":"","street":"Intersection of Surfside Drive and Willow Drive","city":"Surfside Beach","state":"SC","zip":"29575","longitude":"-78.9743641","latitude":"33.6069616","tags":"baked goods cheese crafts flowers eggs seafood herbs vegetables honey jams maple meat nuts poultry prepared-foods soap trees coffee beans fruits juices pet food"},{"type":"market","name":"TD Saturday Market","website":"http://www.saturdaymarketlive.com/","facebook":"https://www.facebook.com/saturdaymarket","twitter":"https://twitter.com/gvillesatmarket","street":"Main Street at West Court Street","city":"Greenville","state":"SC","zip":"29601","longitude":"-82.4000115","latitude":"34.8485031","tags":"organic baked goods cheese crafts flowers eggs seafood herbs vegetables honey jams meat plants poultry prepared-foods soap trees coffee fruits grains juices mushrooms pet food tofu"},{"type":"market","name":"The American Legion Farmers Market","website":"http://americanlegionfarmersmarket.com","facebook":"https://www.facebook.com/Americanlegionfarmersmarket/","twitter":"n/a","street":"2 S Artillery Dr","city":"Sumter","state":"SC","zip":"29150","longitude":"-80.361114","latitude":"33.919521","tags":"baked goods cheese crafts eggs seafood herbs vegetables honey jams meat plants prepared-foods soap coffee fruits"},{"type":"market","name":"Union County Farm & Craft Market","website":"","facebook":"Union County Farm & Craft Market","twitter":"","street":"106 Lakeside Drive","city":"Union ","state":"SC","zip":"29379","longitude":"-81.614994","latitude":"34.716023","tags":"baked goods crafts flowers eggs vegetables honey jams meat soap coffee fruits juices"},{"type":"market","name":"Uptown Market","website":"http://www.uptowngreenwood.com/uptown-market","facebook":"https://www.facebook.com/uptowngreenwoodmarket/","twitter":"https://twitter.com/UptownGwdMarket?lang=en","street":"220 Maxwell Avenue","city":"Greenwood","state":"SC","zip":"29646","longitude":"-82.1638058","latitude":"34.1903885","tags":"organic baked goods cheese crafts eggs herbs vegetables meat poultry soap coffee fruits"}]
