[{"Type":"farmers market","ModifyDate":"Jan 25th, 2021","Image":"default-farmersmarket-4-3.jpg","ListingID":"300344","Name":"Kittery Community Market","Description":null,"ContactName":"Michelle Gill","ContactEmail":"kitterycommunitymarket@gmail.com","ContactPhone":"2077038138","Website":"www.kitterycommunitymarket.com","Facebook":"facebook.com\/kitterymarket","Twitter":"twitter.com\/kitterymarket","Instagram":null,"Pinterest":null,"Youtube":null,"Blog":null,"Address":"10 Shapleigh Road, Kittery , Maine 03904","State":"Maine","City":"Kittery","Street":"10 Shapleigh Road","Zip":"03904","Longitude":"-70.736542","Latitude":"43.090021","Dates":"June to November","Products":"Fresh fruits, Fresh vegetables, Baked goods, Bedding plants, Canned or preserved fruits\/vegetables, Coffee\/tea, Crafts\/woodworking items, Cut flowers, Dairy products., Dry beans, Eggs, Fish\/seafood, Fresh\/dried herbs, Honey, Juices\/non-alcoholic ciders, Maple products, Mushrooms, Pet food, Poultry\/fowl meat and products, Prepared foods, Red\/other non-poultry meat and products, Soap\/body care products, Wild harvested forest products"},{"Type":"farmers market","ModifyDate":"Jan 8th, 2021","Image":"default-farmersmarket-4-3.jpg","ListingID":"300394","Name":"Bangor Farmers' Market","Description":null,"ContactName":"Clayton Carter","ContactEmail":"clayton@failbetterfarm.com","ContactPhone":"(207) 951-5953","Website":"www.bangorfarmersmarket.org","Facebook":"www.facebook.com\/bangorfarmersmarket","Twitter":null,"Instagram":null,"Pinterest":null,"Youtube":null,"Blog":null,"Address":"Corner of Franklin and Harlow Streets, Bangor, Maine 04401","State":"Maine","City":"Bangor","Street":"Corner of Franklin and Harlow Streets","Zip":"04401","Longitude":"-68.771649","Latitude":"44.8039587","Dates":"Year-round","Products":"Fresh fruits, Fresh vegetables, Baked goods, Bedding plants, Canned or preserved fruits\/vegetables, Coffee\/tea, Cut flowers, Dairy products., Dry beans, Eggs, Fresh\/dried herbs, Juices\/non-alcoholic ciders, Maple products, Poultry\/fowl meat and products, Prepared foods, Red\/other non-poultry meat and products, Soap\/body care products"},{"Type":"farmers market","ModifyDate":"Mar 21st, 2023","Image":"default-farmersmarket-4-3.jpg","ListingID":"310842","Name":"Bangor European Farmers' Market","Description":null,"ContactName":null,"ContactEmail":null,"ContactPhone":"207-947-4232","Website":"https:\/\/bangormarket.wordpress.com","Facebook":"https:\/\/www.facebook.com\/bangoreuropeanmarket","Twitter":null,"Instagram":null,"Pinterest":null,"Youtube":null,"Blog":null,"Address":"117 Buck St., Bangor, ME, 04401","State":"Maine","City":"Bangor","Street":"117 Buck St.","Zip":"4401","Longitude":"-68.78137672892571","Latitude":"44.79115940175865","Dates":null,"Products":""},{"Type":"farmers market","ModifyDate":"Mar 21st, 2023","Image":"default-farmersmarket-4-3.jpg","ListingID":"310843","Name":"Bar Harbor Eden Farmers Market","Description":null,"ContactName":null,"ContactEmail":null,"ContactPhone":null,"Website":"http:\/\/www.mdifarmersmarkets.com","Facebook":"http:\/\/www.facebook.com\/pages\/Bar-Harbors-Eden-Farmers-Market\/127085057311193","Twitter":null,"Instagram":null,"Pinterest":null,"Youtube":null,"Blog":null,"Address":"21 Park Street (in parking lot at YMCA) Bar Harbor, ME 04609","State":"Maine","City":"BAR HARBOR","Street":"21 PARK ST","Zip":"4609","Longitude":"-68.204257051922","Latitude":"44.382743030791154","Dates":null,"Products":""},{"Type":"farmers market","ModifyDate":"Mar 21st, 2023","Image":"default-farmersmarket-4-3.jpg","ListingID":"310844","Name":"Blue Hill Farmers' Market","Description":null,"ContactName":null,"ContactEmail":"bluehillfarmersmarket@gmail.com","ContactPhone":"207-374-5273","Website":"http:\/\/bluehillfarmersmarket.com\/","Facebook":"https:\/\/www.facebook.com\/bluehillfarmersmarket","Twitter":null,"Instagram":null,"Pinterest":null,"Youtube":null,"Blog":null,"Address":"233 Ellsworth Rd., Blue Hill Fairgrounds, Blue Hill, ME, 04614","State":"Maine","City":"Blue Hill","Street":"233 Ellsworth Rd.","Zip":"4614","Longitude":"-68.5753449240497","Latitude":"44.43032745599025","Dates":null,"Products":""},{"Type":"farmers market","ModifyDate":"Mar 21st, 2023","Image":"default-farmersmarket-4-3.jpg","ListingID":"310845","Name":"Brewer Farmers' Market","Description":null,"ContactName":null,"ContactEmail":"joyce.benson@yahoo.com","ContactPhone":"207-948-5724","Website":"http:\/\/brewermaine.gov\/community\/brewer-farmers-market\/","Facebook":"http:\/\/www.facebook.com\/ShopBrewerFarmersMarket","Twitter":null,"Instagram":null,"Pinterest":null,"Youtube":null,"Blog":null,"Address":"318 Wilson St., Brewer Auditorium Parking Lot, Brewer, ME, 04412","State":"Maine","City":"Brewer","Street":"318 Wilson St.","Zip":"4412","Longitude":"-68.75685069589218","Latitude":"44.78793288308237","Dates":null,"Products":""},{"Type":"farmers market","ModifyDate":"Mar 21st, 2023","Image":"default-farmersmarket-4-3.jpg","ListingID":"310846","Name":"Bridgton Farmers' Market","Description":null,"ContactName":null,"ContactEmail":null,"ContactPhone":"207-577-0643","Website":"http:\/\/www.bridgtonfarmersmarket.com","Facebook":null,"Twitter":null,"Instagram":null,"Pinterest":null,"Youtube":null,"Blog":null,"Address":"15 Depot Streeet Bridgton, ME 04009","State":"Maine","City":"BRIDGTON","Street":"15 DEPOT ST","Zip":"4009","Longitude":"-70.70294340468445","Latitude":"44.05374350472069","Dates":null,"Products":""},{"Type":"farmers market","ModifyDate":"Mar 21st, 2023","Image":"default-farmersmarket-4-3.jpg","ListingID":"310847","Name":"Calais Farmers' Market","Description":null,"ContactName":null,"ContactEmail":null,"ContactPhone":"207-454-3896","Website":null,"Facebook":"https:\/\/www.facebook.com\/calaisfarmersmarket","Twitter":null,"Instagram":null,"Pinterest":null,"Youtube":null,"Blog":null,"Address":"435 Main St., On the Green Across from the Library, Calais, ME, 04619","State":"Maine","City":"Calais","Street":"435 Main St.","Zip":"4619","Longitude":"-67.27556100612192","Latitude":"45.1886728385473","Dates":null,"Products":""},{"Type":"farmers market","ModifyDate":"Mar 21st, 2023","Image":"default-farmersmarket-4-3.jpg","ListingID":"310848","Name":"Casco Farmers' Market","Description":null,"ContactName":null,"ContactEmail":null,"ContactPhone":"207-329-4598","Website":"http:\/\/www.cascofarmersmarket.com","Facebook":null,"Twitter":null,"Instagram":null,"Pinterest":null,"Youtube":null,"Blog":null,"Address":"940 Meadow Road Casco, ME 04015","State":"Maine","City":"CASCO","Street":"940 ADOW RD","Zip":"4015","Longitude":"-70.52168523310598","Latitude":"44.00338707815158","Dates":null,"Products":""},{"Type":"farmers market","ModifyDate":"Mar 21st, 2023","Image":"default-farmersmarket-4-3.jpg","ListingID":"310849","Name":"Castine Farmers Market","Description":null,"ContactName":null,"ContactEmail":null,"ContactPhone":"207-326-1014","Website":null,"Facebook":null,"Twitter":null,"Instagram":null,"Pinterest":null,"Youtube":null,"Blog":null,"Address":"432 The Shore Road Castine, ME 04421","State":"Maine","City":"CASTINE","Street":"432 SHORE RD","Zip":"4421","Longitude":"-68.80143275652705","Latitude":"44.431080005273095","Dates":null,"Products":""},{"Type":"farmers market","ModifyDate":"Mar 21st, 2023","Image":"default-farmersmarket-4-3.jpg","ListingID":"310850","Name":"Cumberland Farmers Market","Description":null,"ContactName":null,"ContactEmail":null,"ContactPhone":null,"Website":"http:\/\/cumberlandfalmouthfarmmarket.com","Facebook":"http:\/\/www.facebook.com\/cumberlandfalmouthfarmmarket","Twitter":null,"Instagram":null,"Pinterest":null,"Youtube":null,"Blog":null,"Address":"290 Tuttle Road Cumberland, ME 04021 Cumberland Town Hall on Tuttle Road","State":"Maine","City":"CUMBERLAND","Street":"290 TUTTLE RD","Zip":"4021","Longitude":"-70.24421138029824","Latitude":"43.789329944292724","Dates":null,"Products":""},{"Type":"farmers market","ModifyDate":"Mar 21st, 2023","Image":"default-farmersmarket-4-3.jpg","ListingID":"310851","Name":"Downtown Waterville Winter Farmers' Market","Description":null,"ContactName":null,"ContactEmail":"shannon@watervillemainstreet.org","ContactPhone":null,"Website":"http:\/\/www.watervillefarmersmarket.org","Facebook":"https:\/\/www.facebook.com\/downtownwatervillefm","Twitter":null,"Instagram":null,"Pinterest":null,"Youtube":null,"Blog":null,"Address":"149 North St., Dean Auditorium at Thayer Hospital, Waterville, ME, 04901","State":"Maine","City":"Waterville","Street":"149 North St.","Zip":"4901","Longitude":"-69.646822850275","Latitude":"44.56395379821738","Dates":null,"Products":""},{"Type":"farmers market","ModifyDate":"Mar 21st, 2023","Image":"default-farmersmarket-4-3.jpg","ListingID":"310852","Name":"East Vassalboro Farmers'Market","Description":null,"ContactName":null,"ContactEmail":null,"ContactPhone":"207-651-9390","Website":"http:\/\/www.eastvassalborofarmersmarket.weebly.com","Facebook":null,"Twitter":null,"Instagram":null,"Pinterest":null,"Youtube":null,"Blog":null,"Address":"353 Main Street vassalboro, ME 04935","State":"Maine","City":"VASSALBORO","Street":"353 MAIN ST","Zip":"4989","Longitude":"-69.60646613313045","Latitude":"44.44853247974381","Dates":null,"Products":""},{"Type":"farmers market","ModifyDate":"Mar 21st, 2023","Image":"default-farmersmarket-4-3.jpg","ListingID":"310853","Name":"Eastport Farmers' Market","Description":null,"ContactName":null,"ContactEmail":null,"ContactPhone":"207-853-2087","Website":null,"Facebook":"https:\/\/www.facebook.com\/EastportFarmersMarket","Twitter":null,"Instagram":null,"Pinterest":null,"Youtube":null,"Blog":null,"Address":"141 Water St., Eastport, ME, 04631","State":"Maine","City":"Eastport","Street":"141 Water St.","Zip":"4631","Longitude":"-66.98503717461483","Latitude":"44.907320064185285","Dates":null,"Products":""},{"Type":"farmers market","ModifyDate":"Mar 21st, 2023","Image":"default-farmersmarket-4-3.jpg","ListingID":"310854","Name":"Ellsworth Farmers' Market","Description":null,"ContactName":null,"ContactEmail":"gunjanj2002@yahoo.com","ContactPhone":"207-667-9212","Website":"http:\/\/www.ellsworthfarmersmarket.com","Facebook":null,"Twitter":null,"Instagram":null,"Pinterest":null,"Youtube":null,"Blog":null,"Address":"245 Main St., Ellsworth, ME, 04605","State":"Maine","City":"Ellsworth","Street":"245 Main St.","Zip":"4605","Longitude":"-68.41845057444614","Latitude":"44.543603988961095","Dates":null,"Products":""},{"Type":"farmers market","ModifyDate":"Mar 21st, 2023","Image":"default-farmersmarket-4-3.jpg","ListingID":"310855","Name":"Falmouth Farmers Market","Description":null,"ContactName":null,"ContactEmail":null,"ContactPhone":null,"Website":"http:\/\/cumberlandfalmouthfarmmarket.com","Facebook":"http:\/\/www.facebook.com\/cumberlandfalmouthfarmmarket","Twitter":null,"Instagram":null,"Pinterest":null,"Youtube":null,"Blog":null,"Address":"22 Hat Trick Drive Falmouth, ME 04105 Behind Walmart off Route 1. Plenty of free onsite parking.","State":"Maine","City":"FALMOUTH","Street":"22 HAT TRICK DR","Zip":"4105","Longitude":"-70.23556902587661","Latitude":"43.72147723641283","Dates":null,"Products":""},{"Type":"farmers market","ModifyDate":"Mar 21st, 2023","Image":"default-farmersmarket-4-3.jpg","ListingID":"310856","Name":"Farmers' Market at Mill Park","Description":null,"ContactName":null,"ContactEmail":null,"ContactPhone":null,"Website":null,"Facebook":"http:\/\/www.facebook.com\/FarmersMarketAtMillPark\/","Twitter":null,"Instagram":null,"Pinterest":null,"Youtube":null,"Blog":null,"Address":"1 Water Street Augusta, ME 04330","State":"Maine","City":"AUGUSTA","Street":"1 WATER ST","Zip":"4330","Longitude":"-69.77355856694054","Latitude":"44.32016369363547","Dates":null,"Products":""},{"Type":"farmers market","ModifyDate":"Mar 21st, 2023","Image":"default-farmersmarket-4-3.jpg","ListingID":"310857","Name":"Gateway Winter Farmers' Market","Description":null,"ContactName":null,"ContactEmail":null,"ContactPhone":"207-363-4422","Website":"http:\/\/gatewaytomaine.org\/farmersmarket\/winter-farmers-market\/","Facebook":"https:\/\/www.facebook.com\/YorkGatewayFarmersMarket","Twitter":null,"Instagram":null,"Pinterest":null,"Youtube":null,"Blog":null,"Address":"180 York St., First Parish Church Inside the Fellowship Hall, York, ME, 03909","State":"Maine","City":"York","Street":"180 York St.","Zip":"3909","Longitude":"-70.65243238073582","Latitude":"43.144488566472084","Dates":null,"Products":""},{"Type":"farmers market","ModifyDate":"Mar 21st, 2023","Image":"default-farmersmarket-4-3.jpg","ListingID":"310858","Name":"Greater Gorham Farmers' Market","Description":null,"ContactName":null,"ContactEmail":"momunchgranola@gmail.com","ContactPhone":"207-712-9735","Website":null,"Facebook":"https:\/\/www.facebook.com\/GreaterGorhamFarmersMarket","Twitter":null,"Instagram":null,"Pinterest":null,"Youtube":null,"Blog":null,"Address":"77 South St., in the Small Park Located Between Baxter Memorial Libary and Gorham Times, Gorham, ME, 04038","State":"Maine","City":"Gorham","Street":"77 South St.","Zip":"4038","Longitude":"-70.4413575688067","Latitude":"43.6769161000175","Dates":null,"Products":""},{"Type":"farmers market","ModifyDate":"Mar 21st, 2023","Image":"default-farmersmarket-4-3.jpg","ListingID":"310859","Name":"Hampden Farmers' Market","Description":null,"ContactName":null,"ContactEmail":"hampdenmarket@gmail.com","ContactPhone":null,"Website":"http:\/\/www.hampdenfarmersmarket.com\/","Facebook":"https:\/\/www.facebook.com\/HampdenFarmersMarket","Twitter":null,"Instagram":null,"Pinterest":null,"Youtube":null,"Blog":null,"Address":"106 Western Ave., Hampden Town Office, Hampden, ME, 04444","State":"Maine","City":"Hampden","Street":"106 Western Ave.","Zip":"4444","Longitude":"-68.85217757087301","Latitude":"44.74567379237134","Dates":null,"Products":""},{"Type":"farmers market","ModifyDate":"Mar 21st, 2023","Image":"default-farmersmarket-4-3.jpg","ListingID":"310860","Name":"Hampden Winter Farmers' Market","Description":null,"ContactName":null,"ContactEmail":"hampdenmarket@gmail.com","ContactPhone":null,"Website":"http:\/\/www.hampdenfarmersmarket.com\/winter-market-2015\/","Facebook":"https:\/\/www.facebook.com\/HampdenFarmersMarket","Twitter":null,"Instagram":null,"Pinterest":null,"Youtube":null,"Blog":null,"Address":"55 N. Main St. , Kiwanis Civic Center, Hampden, ME, 04444","State":"Maine","City":"Hampden","Street":"55 N. Main St","Zip":"4444","Longitude":"-68.83440781154447","Latitude":"44.759595482916076","Dates":null,"Products":""},{"Type":"farmers market","ModifyDate":"Mar 21st, 2023","Image":"default-farmersmarket-4-3.jpg","ListingID":"310861","Name":"Madison Farmers' Market","Description":null,"ContactName":null,"ContactEmail":"madisonfarmersmkt@gmail.com","ContactPhone":null,"Website":"http:\/\/www.madisonmaine.com\/index.php\/play\/farmer-s-market","Facebook":"https:\/\/www.facebook.com\/madisonMEfarmersmarket","Twitter":null,"Instagram":null,"Pinterest":null,"Youtube":null,"Blog":null,"Address":"189 Main St., Main Street Park, across from Skowhegan Savings Bank, Madison, ME, 04950","State":"Maine","City":"Madison","Street":"189 Main St.","Zip":"4950","Longitude":"-69.87626062258902","Latitude":"44.79816545178369","Dates":null,"Products":""},{"Type":"farmers market","ModifyDate":"Mar 21st, 2023","Image":"default-farmersmarket-4-3.jpg","ListingID":"310862","Name":"North Berwick Farmers' Market","Description":null,"ContactName":null,"ContactEmail":"northberwick.market@gmail.com","ContactPhone":"603-781-7601","Website":"http:\/\/www.mainefarmersmarkets.org\/market\/north-berwick-farmers-market\/","Facebook":"https:\/\/www.facebook.com\/northberwickfarmersmarket","Twitter":null,"Instagram":null,"Pinterest":null,"Youtube":null,"Blog":null,"Address":"21 Main St., Town Hall parking lot, North Berwick, ME, 03906","State":"Maine","City":"North Berwick","Street":"21 Main St.","Zip":"3906","Longitude":"-70.73448670644812","Latitude":"43.30488998891763","Dates":null,"Products":""},{"Type":"farmers market","ModifyDate":"Mar 21st, 2023","Image":"default-farmersmarket-4-3.jpg","ListingID":"310863","Name":"Ohio Street Farmers' Market","Description":null,"ContactName":null,"ContactEmail":"swederolf@aol.com","ContactPhone":"973-3976","Website":"http:\/\/ohiostreetfarmersmarket.org\/","Facebook":"https:\/\/www.facebook.com\/Ohio-Street-Farmers-Market-215527318485618","Twitter":null,"Instagram":null,"Pinterest":null,"Youtube":null,"Blog":null,"Address":"1192 Ohio St., Bangor, ME, 04401","State":"Maine","City":"Bangor","Street":"1192 Ohio St.","Zip":"4401","Longitude":"-68.81476799073722","Latitude":"44.82899093418011","Dates":null,"Products":""},{"Type":"farmers market","ModifyDate":"Mar 21st, 2023","Image":"default-farmersmarket-4-3.jpg","ListingID":"310864","Name":"Orono Summer Farmers' Market","Description":null,"ContactName":null,"ContactEmail":"oronomarketnews@gmail.com","ContactPhone":"207-907-0714","Website":"http:\/\/www.oronofarmersmarket.org","Facebook":"https:\/\/www.facebook.com\/oronofarmersmarket","Twitter":null,"Instagram":null,"Pinterest":null,"Youtube":null,"Blog":null,"Address":"300 College Ave., University Steam Plan Parking Lot, Orono, ME, 04473","State":"Maine","City":"Orono","Street":"300 College Ave.","Zip":"4473","Longitude":"-68.67485807572471","Latitude":"44.90502424548115","Dates":null,"Products":""},{"Type":"farmers market","ModifyDate":"Mar 21st, 2023","Image":"default-farmersmarket-4-3.jpg","ListingID":"310865","Name":"Orono Winter Farmers' Market","Description":null,"ContactName":null,"ContactEmail":"oronomarketnews@gmail.com","ContactPhone":"207-907-0714","Website":"http:\/\/www.oronofarmersmarket.org","Facebook":"https:\/\/www.facebook.com\/oronofarmersmarket","Twitter":null,"Instagram":null,"Pinterest":null,"Youtube":null,"Blog":null,"Address":"20 Pine St., Downtown parking lot, Orono, ME, 04473","State":"Maine","City":"Orono","Street":"20 Pine St.","Zip":"4473","Longitude":"-68.670581319753","Latitude":"44.88202659718537","Dates":null,"Products":""},{"Type":"farmers market","ModifyDate":"Mar 21st, 2023","Image":"default-farmersmarket-4-3.jpg","ListingID":"310866","Name":"Oxford Farmers' Market","Description":null,"ContactName":null,"ContactEmail":"straw@gwi.net","ContactPhone":"207-882-6875","Website":null,"Facebook":null,"Twitter":null,"Instagram":null,"Pinterest":null,"Youtube":null,"Blog":null,"Address":"30 Brick Hill Rd, Newcastle, ME, 04553","State":"Maine","City":"Newcastle","Street":"30 Brick Hill Rd","Zip":"4553","Longitude":"-69.62335221780246","Latitude":"44.011953686227294","Dates":null,"Products":""},{"Type":"farmers market","ModifyDate":"Mar 21st, 2023","Image":"default-farmersmarket-4-3.jpg","ListingID":"310867","Name":"Poland Farmers Market","Description":null,"ContactName":null,"ContactEmail":null,"ContactPhone":null,"Website":null,"Facebook":null,"Twitter":null,"Instagram":null,"Pinterest":null,"Youtube":null,"Blog":null,"Address":"1385 Maine Street Poland, ME 04274","State":"Maine","City":"POLAND","Street":"1385 MAINE ST","Zip":"4274","Longitude":"-70.40277381241559","Latitude":"44.067757769867484","Dates":null,"Products":""},{"Type":"farmers market","ModifyDate":"Mar 21st, 2023","Image":"default-farmersmarket-4-3.jpg","ListingID":"310868","Name":"Portland Winter Farmers' Market","Description":null,"ContactName":null,"ContactEmail":null,"ContactPhone":"207-883-5750","Website":"http:\/\/www.portlandmainefarmersmarket.org\/","Facebook":"https:\/\/www.facebook.com\/PortlandMaineFarmersMarket","Twitter":null,"Instagram":null,"Pinterest":null,"Youtube":null,"Blog":null,"Address":"200 Anderson St., Portland, ME, 04101","State":"Maine","City":"Portland","Street":"200 Anderson St.","Zip":"4101","Longitude":"-70.25579432710163","Latitude":"43.669127320577246","Dates":null,"Products":""},{"Type":"farmers market","ModifyDate":"Mar 21st, 2023","Image":"default-farmersmarket-4-3.jpg","ListingID":"310869","Name":"Presque Isle Farmers' Market","Description":null,"ContactName":null,"ContactEmail":"knotbrag@mfx.net","ContactPhone":"207-764-6843","Website":null,"Facebook":"https:\/\/www.facebook.com\/Presque-Isle-Farmers-Market-131173776960954","Twitter":null,"Instagram":null,"Pinterest":null,"Youtube":null,"Blog":null,"Address":"830 Main St., Aroostook Center Mall in the Sears Parking Lot, Presque Isle, ME, 04769","State":"Maine","City":"Presque Isle","Street":"830 Main St.","Zip":"4769","Longitude":"-68.00990942659992","Latitude":"46.70089833307917","Dates":null,"Products":""},{"Type":"farmers market","ModifyDate":"Mar 21st, 2023","Image":"default-farmersmarket-4-3.jpg","ListingID":"310870","Name":"Presque Isle Riverside Public Market","Description":null,"ContactName":null,"ContactEmail":null,"ContactPhone":null,"Website":null,"Facebook":"https:\/\/www.facebook.com\/Riverside-Public-Market-802854506393994","Twitter":null,"Instagram":null,"Pinterest":null,"Youtube":null,"Blog":null,"Address":"27 Riverside Dr., Presque Isle, ME, 04769","State":"Maine","City":"Presque Isle","Street":"27 Riverside Dr.","Zip":"4769","Longitude":"-68.01809721894081","Latitude":"46.680566168801015","Dates":null,"Products":""},{"Type":"farmers market","ModifyDate":"Mar 21st, 2023","Image":"default-farmersmarket-4-3.jpg","ListingID":"310871","Name":"Saco Farmers' and Artisans' Market","Description":null,"ContactName":null,"ContactEmail":"harrisfarmmaine@gmail.com","ContactPhone":"207-929-5318","Website":"http:\/\/www.sacofarmersmarket.com","Facebook":"https:\/\/www.facebook.com\/pages\/Saco-Farmers-Market\/118066268214824","Twitter":null,"Instagram":null,"Pinterest":null,"Youtube":null,"Blog":null,"Address":"4 Scammon St., Saco Valley Shopping Center, Saco, ME, 04072","State":"Maine","City":"Saco","Street":"4 Scammon St.","Zip":"4072","Longitude":"-70.44671765476863","Latitude":"43.501853398002616","Dates":null,"Products":""},{"Type":"farmers market","ModifyDate":"Mar 21st, 2023","Image":"default-farmersmarket-4-3.jpg","ListingID":"310872","Name":"Saco River Market","Description":null,"ContactName":null,"ContactEmail":"sacorivermarket1@gmail.com","ContactPhone":null,"Website":"http:\/\/www.sacorivermarket.org\/","Facebook":"https:\/\/www.facebook.com\/sacorivermarket","Twitter":null,"Instagram":null,"Pinterest":null,"Youtube":null,"Blog":null,"Address":"110 Main St., Saco, ME, 04072","State":"Maine","City":"Saco","Street":"110 Main St.","Zip":"4072","Longitude":"-70.442437556309","Latitude":"43.50142577944887","Dates":null,"Products":""},{"Type":"farmers market","ModifyDate":"Mar 21st, 2023","Image":"default-farmersmarket-4-3.jpg","ListingID":"310873","Name":"Sanford Farmers' Market","Description":null,"ContactName":null,"ContactEmail":"sanfordfarmersme@gmail.com","ContactPhone":"207-337-0642","Website":"http:\/\/www.sanfordfarmersmarket.org\/","Facebook":"https:\/\/www.facebook.com\/SanfordFarmersMarket","Twitter":null,"Instagram":null,"Pinterest":null,"Youtube":null,"Blog":null,"Address":"6 School St., Downtown Center Park, Sanford, ME, 04073","State":"Maine","City":"Sanford","Street":"6 School St.","Zip":"4073","Longitude":"-70.77387673437877","Latitude":"43.438557758700235","Dates":null,"Products":""},{"Type":"farmers market","ModifyDate":"Mar 21st, 2023","Image":"default-farmersmarket-4-3.jpg","ListingID":"310874","Name":"Scarborough Farmers' Market","Description":null,"ContactName":null,"ContactEmail":null,"ContactPhone":null,"Website":null,"Facebook":"https:\/\/www.facebook.com\/scarboroughfarmersmarket","Twitter":null,"Instagram":null,"Pinterest":null,"Youtube":null,"Blog":null,"Address":"259 US Rt. 1, Scarborough, ME, 04074","State":"Maine","City":"Scarborough","Street":"259 US Rt. 1","Zip":"4074","Longitude":"-70.34064760956284","Latitude":"43.58913696774561","Dates":null,"Products":""},{"Type":"farmers market","ModifyDate":"Mar 21st, 2023","Image":"default-farmersmarket-4-3.jpg","ListingID":"310875","Name":"Sunrise Country Farmers Market Eastport","Description":null,"ContactName":null,"ContactEmail":null,"ContactPhone":null,"Website":null,"Facebook":"http:\/\/www.facebook.com\/EastportFarmersMarket\/","Twitter":null,"Instagram":null,"Pinterest":null,"Youtube":null,"Blog":null,"Address":"7 Washington St in the gravel parking lot next to the Post Offive Eastport, ME 04631 7 Washington St in the gravel parking lot next to the Post Office","State":"Maine","City":"EASTPORT","Street":"7 WASHINGTON ST","Zip":"4631","Longitude":"-66.98606791228494","Latitude":"44.90584297358879","Dates":null,"Products":""},{"Type":"farmers market","ModifyDate":"Mar 21st, 2023","Image":"default-farmersmarket-4-3.jpg","ListingID":"310876","Name":"The Gateway York Farmers' Market","Description":null,"ContactName":null,"ContactEmail":"info@yorkme.org","ContactPhone":"207-363-4422","Website":"http:\/\/www.gatewayfarmersmarket.com\/","Facebook":"https:\/\/www.facebook.com\/YorkGatewayFarmersMarket","Twitter":null,"Instagram":null,"Pinterest":null,"Youtube":null,"Blog":null,"Address":"1 Stonewall Ln., In the lot behind the Greater York Region Chamber of Commerce, York, ME, 03909","State":"Maine","City":"York","Street":"1 Stonewall Ln.","Zip":"3909","Longitude":"-70.65813072317594","Latitude":"43.15392504579198","Dates":null,"Products":""},{"Type":"farmers market","ModifyDate":"Mar 21st, 2023","Image":"default-farmersmarket-4-3.jpg","ListingID":"310877","Name":"Union Farmers Market","Description":null,"ContactName":null,"ContactEmail":null,"ContactPhone":null,"Website":"http:\/\/Www.unionfarmersmarket.org","Facebook":"http:\/\/www.facebook.com\/pages\/Union-Farmers-Market\/208423405852348","Twitter":null,"Instagram":null,"Pinterest":null,"Youtube":null,"Blog":null,"Address":"180 Common Road Union, ME 04862 Located on the Union Common, across the street from the post office","State":"Maine","City":"UNION","Street":"180 COMMON RD","Zip":"4862","Longitude":"-69.27892375212043","Latitude":"44.21356584623578","Dates":null,"Products":""},{"Type":"farmers market","ModifyDate":"Mar 21st, 2023","Image":"default-farmersmarket-4-3.jpg","ListingID":"310878","Name":"United Farmers Market of Maine","Description":null,"ContactName":null,"ContactEmail":null,"ContactPhone":"207-218-7005","Website":"http:\/\/www.unitedfarmersmarketofbelfast.com\/","Facebook":"http:\/\/www.facebook.com\/unitedfarmersmarketofmaine\/","Twitter":null,"Instagram":null,"Pinterest":null,"Youtube":null,"Blog":null,"Address":"18 Spring St. Belfast, ME 04915","State":"Maine","City":"BELFAST","Street":"18 SPRING ST","Zip":"4915","Longitude":"-69.00400175166932","Latitude":"44.426865319082104","Dates":null,"Products":""},{"Type":"farmers market","ModifyDate":"Mar 21st, 2023","Image":"default-farmersmarket-4-3.jpg","ListingID":"310879","Name":"Wells Farmers' Market","Description":null,"ContactName":null,"ContactEmail":"info@wellsfarmersmarket.org","ContactPhone":"207-646-5926","Website":"http:\/\/www.wellsfarmersmarket.org","Facebook":null,"Twitter":null,"Instagram":null,"Pinterest":null,"Youtube":null,"Blog":null,"Address":"208 Sanford Rd., Wells Town Hall Parking Lot, Wells, ME, 04090","State":"Maine","City":"Wells","Street":"208 Sanford Rd.","Zip":"4090","Longitude":"-70.59125482815622","Latitude":"43.32175917503564","Dates":null,"Products":""},{"Type":"farmers market","ModifyDate":"Mar 21st, 2023","Image":"default-farmersmarket-4-3.jpg","ListingID":"310880","Name":"York Gateway Farmers' Market","Description":null,"ContactName":null,"ContactEmail":null,"ContactPhone":"207-363-4422","Website":"http:\/\/www.gatewayfarmersmarket.com","Facebook":"http:\/\/www.facebook.com\/YorkGatewayFarmersMarket","Twitter":null,"Instagram":null,"Pinterest":null,"Youtube":null,"Blog":null,"Address":"1 Stonewall Lane York, ME 03909","State":"Maine","City":"YORK","Street":"1 STONEWALL LN","Zip":"3909","Longitude":"-70.65813072317594","Latitude":"43.15392504579198","Dates":null,"Products":""},{"Type":"farmers market","ModifyDate":"Mar 24th, 2020","Image":"default-farmersmarket-4-3.jpg","ListingID":"301064","Name":"Lewiston Farmers Market","Description":null,"ContactName":"Sophia Gamache","ContactEmail":"lewistonfarmersmarket@gmail.com","ContactPhone":"207-513-3848","Website":"https:\/\/www.lewistonfarmersmarket.com\/","Facebook":"https:\/\/www.facebook.com\/lewistonfarmersmarket\/","Twitter":"https:\/\/twitter.com\/LewistonMarket","Instagram":null,"Pinterest":null,"Youtube":"https:\/\/www.youtube.com\/user\/mainefarmersmarket\/","Blog":null,"Address":"65 Main St., Lewiston, Maine 04240","State":"Maine","City":"Lewiston","Street":"65 Main St.","Zip":"04240","Longitude":"-70.220379","Latitude":"44.096575","Dates":"May to October","Products":"Fresh fruits, Fresh vegetables, Baked goods, Bedding plants, Canned or preserved fruits\/vegetables, Coffee\/tea, Crafts\/woodworking items, Cut flowers, Dairy products., Dry beans, Eggs, Fresh\/dried herbs, Grains\/flour, Honey, Juices\/non-alcoholic ciders, Maple products, Mushrooms, Nursery stock, Poultry\/fowl meat and products, Prepared foods, Red\/other non-poultry meat and products, Soap\/body care products, Tofu\/non-animal protein, Wild harvested forest products"},{"Type":"farmers market","ModifyDate":"Nov 9th, 2021","Image":"default-farmersmarket-4-3.jpg","ListingID":"301606","Name":"Berwick Winter Farmers Market","Description":null,"ContactName":"Liz McGranaghan","ContactEmail":"berwickwinterfarmersmarket@gmail.com","ContactPhone":"4157566682","Website":"11 Sullivan St.","Facebook":"https:\/\/www.facebook.com\/berwickmainefarmersmarket","Twitter":null,"Instagram":null,"Pinterest":null,"Youtube":null,"Blog":null,"Address":"11 Sullivan St., Berwick, Maine 03901","State":"Maine","City":"Berwick","Street":"11 Sullivan St.","Zip":"03901","Longitude":"-70.86243","Latitude":"43.269956","Dates":"November","Products":"Poultry\/fowl meat and products, Prepared foods, Red\/other non-poultry meat and products, Soap\/body care products"}]