[{"Type":"on-farm market","ModifyDate":"Apr 25th, 2018","Image":"default-onfarmmarket-4-3.jpg","ListingID":"701449","Name":"Apple Valley Produce","Description":null,"ContactName":"JamieEdwards","ContactEmail":"Jamieedwards34@gmail.com","ContactPhone":"6012010415","Website":null,"Facebook":null,"Twitter":null,"Instagram":null,"Pinterest":null,"Youtube":null,"Blog":null,"Address":"132 Apple Valley Drive, Mendenhall , Mississippi 39114","State":"Mississippi","City":"Mendenhall","Street":"132 Apple Valley Drive","Zip":"39114","Longitude":"-89.840811","Latitude":"32.035084","Dates":null,"Products":""},{"Type":"on-farm market","ModifyDate":"Aug 21st, 2014","Image":"default-onfarmmarket-4-3.jpg","ListingID":"700871","Name":"Leaf River Honey","Description":null,"ContactName":"CHARLES H. WILSON","ContactEmail":"ARDENFARMS@ATT.NET","ContactPhone":"601-582-7028","Website":null,"Facebook":"https:\/\/www.facebook.com\/#!\/LeafRiverHoney","Twitter":null,"Instagram":null,"Pinterest":null,"Youtube":null,"Blog":null,"Address":"270 MONROE RD., Hattiesburg , Mississippi 39401","State":"Mississippi","City":"Hattiesburg","Street":"270 MONROE RD.","Zip":"39401","Longitude":"-89.291007","Latitude":"31.377864","Dates":null,"Products":""},{"Type":"on-farm market","ModifyDate":"Aug 5th, 2014","Image":"default-onfarmmarket-4-3.jpg","ListingID":"700805","Name":"Swords Pecans LLC","Description":null,"ContactName":"Swords Pecans, LLC","ContactEmail":"Sandradonour@gmail.com","ContactPhone":"(662) 425-2902","Website":null,"Facebook":null,"Twitter":null,"Instagram":null,"Pinterest":null,"Youtube":null,"Blog":null,"Address":"10392 Highway 45 Alt North, West Point , Mississippi 39773","State":"Mississippi","City":"West Point","Street":"10392 Highway 45 Alt North","Zip":"39773","Longitude":"-88.662089","Latitude":"33.5903942","Dates":null,"Products":""},{"Type":"on-farm market","ModifyDate":"Dec 18th, 2019","Image":"default-onfarmmarket-4-3.jpg","ListingID":"701493","Name":"Remington-Lott Farms","Description":null,"ContactName":"Kelsey Eaves","ContactEmail":"Info@remingtonlottfarms.com","ContactPhone":"6019535592","Website":"https:\/\/www.remingtonlottfarms.com","Facebook":"https:\/\/facebook.com\/remingtonlottfarms","Twitter":null,"Instagram":null,"Pinterest":null,"Youtube":null,"Blog":"http:\/\/www.remingtonlottfarms.com\/store","Address":"1300 Sharon Road, Canton, Mississippi 39046","State":"Mississippi","City":"Canton","Street":"1300 Sharon Road","Zip":"39046","Longitude":"-89.919910","Latitude":"32.643040","Dates":null,"Products":""},{"Type":"on-farm market","ModifyDate":"Feb 17th, 2023","Image":"default-onfarmmarket-4-3.jpg","ListingID":"701488","Name":"New Grass Farms","Description":"Visit Shaded Grove Farm Market and see firsthand how the food you are feeding your family is being raised. We offer an on-farm store where you can shop our grass-fed beef, lamb, pasture-raised pork, chicken and eggs as well as pecans, coffee, and more.","ContactName":"CRAIG SCHMIDT","ContactEmail":"craig@shadedgrovefarmmarket.com","ContactPhone":"6628896628","Website":"www.shadedgrovefarmmarket.com","Facebook":"","Twitter":"","Instagram":"","Pinterest":"","Youtube":"","Blog":"","Address":"2817 Douglass Rd, Macon, Mississippi 39341","State":"Mississippi","City":"Macon","Street":"2817 Douglass Rd","Zip":"39341","Longitude":"-88.460969","Latitude":"33.130152","Dates":"Year-round","Products":"Coffee\/tea, Nuts, Red\/other non-poultry meat and products"},{"Type":"on-farm market","ModifyDate":"Feb 19th, 2015","Image":"default-onfarmmarket-4-3.jpg","ListingID":"701213","Name":"Tallahala Creek Farms, LLC","Description":null,"ContactName":"William McCardle","ContactEmail":"tallahalacreek@yahoo.com","ContactPhone":"601-310-9599","Website":null,"Facebook":"https:\/\/www.facebook.com\/TallahalaCreekFarm","Twitter":null,"Instagram":null,"Pinterest":null,"Youtube":null,"Blog":null,"Address":"4952 HWY 29, Petal, Mississippi 39465","State":"Mississippi","City":"Petal","Street":"4952 HWY 29","Zip":"39465","Longitude":"-89.111163","Latitude":"31.363646","Dates":null,"Products":""},{"Type":"on-farm market","ModifyDate":"Jun 18th, 2015","Image":"default-onfarmmarket-4-3.jpg","ListingID":"701275","Name":"Hays Berry Farms","Description":null,"ContactName":"Robert Hays","ContactEmail":"rhays25@netzero.com","ContactPhone":"6625382899","Website":"www.haysberryfarms.com","Facebook":"HAYS Berry FARM","Twitter":null,"Instagram":null,"Pinterest":null,"Youtube":null,"Blog":null,"Address":"1041 C.R. 182 , Dumas, Mississippi 38625","State":"Mississippi","City":"Dumas","Street":"1041 C.R. 182","Zip":"38625","Longitude":"-88.835417","Latitude":"34.5481221","Dates":null,"Products":""},{"Type":"on-farm market","ModifyDate":"Oct 7th, 2020","Image":"default-onfarmmarket-4-3.jpg","ListingID":"701563","Name":"Dowdle Family Farms","Description":null,"ContactName":"Rob Dowdle","ContactEmail":"Rob@dowdlefamilyfarms.com","ContactPhone":"6624350921","Website":"dowdlefamilyfarms.com","Facebook":"https:\/\/www.facebook.com\/dowdlefamilyfarms","Twitter":null,"Instagram":null,"Pinterest":null,"Youtube":null,"Blog":null,"Address":"1412 Seed Tick Rd, Caledonia, Mississippi 39740","State":"Mississippi","City":"Caledonia","Street":"1412 Seed Tick Rd","Zip":"39740","Longitude":"-88.307479","Latitude":"33.657881","Dates":null,"Products":""},{"Type":"on-farm market","ModifyDate":"Sep 16th, 2014","Image":"default-onfarmmarket-4-3.jpg","ListingID":"700052","Name":"Reyer Farms","Description":null,"ContactName":"Jody reyer","ContactEmail":"reyerfarms@gmail.com","ContactPhone":"601-906-1185","Website":"www.reyerfarms.com","Facebook":"https:\/\/www.facebook.com\/ReyerFarms","Twitter":null,"Instagram":null,"Pinterest":null,"Youtube":null,"Blog":null,"Address":"1098 County Line Rd, Lena, Mississippi 39094","State":"Mississippi","City":"Lena","Street":"1098 County Line Rd","Zip":"39094","Longitude":"-89.558339","Latitude":"32.5705997","Dates":null,"Products":""}]