[{"Type":"farmers market","ModifyDate":"Jan 26th, 2021","Image":"default-farmersmarket-4-3.jpg","ListingID":"300282","Name":"Downtown Madison Farmers Market","Description":null,"ContactName":"Brittany Mayfield","ContactEmail":"bmayfield@madisonthecity.com","ContactPhone":"6019418392","Website":"2103 Main Street","Facebook":"https:\/\/www.facebook.com\/DowntownMadisonFarmersMarket","Twitter":null,"Instagram":null,"Pinterest":null,"Youtube":null,"Blog":null,"Address":"2103 Main Street \/ Historic Red Caboose Site, Madison , Mississippi 39110","State":"Mississippi","City":"Madison","Street":"2103 Main Street \/ Historic Red Caboose Site","Zip":"39110","Longitude":"-90.114634","Latitude":"32.460885","Dates":"June to July","Products":"Fresh fruits, Fresh vegetables, Baked goods, Canned or preserved fruits\/vegetables, Coffee\/tea, Crafts\/woodworking items, Cut flowers, Dairy products., Eggs, Fish\/seafood, Fresh\/dried herbs, Honey, Nuts, Prepared foods, Red\/other non-poultry meat and products, Soap\/body care products"},{"Type":"farmers market","ModifyDate":"Jan 4th, 2021","Image":"default-farmersmarket-4-3.jpg","ListingID":"300210","Name":"Hernando Farmers Market","Description":null,"ContactName":"Gia Matheny","ContactEmail":"gmatheny@cityofhernando.org","ContactPhone":"662-429-9092","Website":"www.cityofhernando.org\/farmersmarket","Facebook":"https:\/\/www.facebook.com\/pages\/Hernando-Farmers-Market\/","Twitter":null,"Instagram":null,"Pinterest":null,"Youtube":null,"Blog":null,"Address":"2535 Highway 51 South, Hernando, Mississippi 38632","State":"Mississippi","City":"Hernando","Street":"2535 Highway 51 South","Zip":"38632","Longitude":"-89.994281","Latitude":"34.823026","Dates":"May to October","Products":"Fresh fruits, Fresh vegetables, Baked goods, Bedding plants, Canned or preserved fruits\/vegetables, Coffee\/tea, Crafts\/woodworking items, Dairy products., Eggs, Fresh\/dried herbs, Grains\/flour, Honey, Juices\/non-alcoholic ciders, Nursery stock, Nuts, Pet food, Prepared foods, Red\/other non-poultry meat and products, Soap\/body care products"},{"Type":"farmers market","ModifyDate":"Mar 27th, 2023","Image":"default-farmersmarket-4-3.jpg","ListingID":"311359","Name":"ASUEP Natchez Farmers Market","Description":null,"ContactName":null,"ContactEmail":null,"ContactPhone":"601-442-4648","Website":null,"Facebook":null,"Twitter":null,"Instagram":null,"Pinterest":null,"Youtube":null,"Blog":null,"Address":"199 St. Catherine Street Natchez, MS 39120","State":"Mississippi","City":"Natchez","Street":"199 St. Catherine Street","Zip":"39120","Longitude":"-91.38562144779976","Latitude":"31.556193578045782","Dates":null,"Products":""},{"Type":"farmers market","ModifyDate":"Mar 27th, 2023","Image":"default-farmersmarket-4-3.jpg","ListingID":"311360","Name":"Biscuits & Jam Farmers' Market","Description":null,"ContactName":null,"ContactEmail":"maryj@sugarees.com","ContactPhone":"662-534-1916","Website":null,"Facebook":"https:\/\/www.facebook.com\/pages\/Biscuits-Jam-Farmers-Market\/337608246308344","Twitter":null,"Instagram":null,"Pinterest":null,"Youtube":null,"Blog":null,"Address":"112 Fairgrounds Cir., New Albany, MS, 38652","State":"Mississippi","City":"New Albany","Street":"112 Fairgrounds Cir.","Zip":"38652","Longitude":"-89.0329479752956","Latitude":"34.51261728861937","Dates":null,"Products":""},{"Type":"farmers market","ModifyDate":"Mar 27th, 2023","Image":"default-farmersmarket-4-3.jpg","ListingID":"311361","Name":"Canton Farmers Market","Description":null,"ContactName":null,"ContactEmail":null,"ContactPhone":"601-859-5816","Website":"https:\/\/www.canton-mississippi.com\/farmersmarket","Facebook":"https:\/\/www.facebook.com\/pages\/Canton-Farmers-Market\/313252158752786?ref=hl","Twitter":null,"Instagram":null,"Pinterest":null,"Youtube":null,"Blog":null,"Address":"141 N Union St Canton, MS 39046","State":"Mississippi","City":"Canton","Street":"141 N Union St","Zip":"39046","Longitude":"-90.03635319721681","Latitude":"32.613138934231635","Dates":null,"Products":""},{"Type":"farmers market","ModifyDate":"Mar 27th, 2023","Image":"default-farmersmarket-4-3.jpg","ListingID":"311362","Name":"Choctaw Farmers Market","Description":null,"ContactName":null,"ContactEmail":null,"ContactPhone":"601-656-2070","Website":null,"Facebook":null,"Twitter":null,"Instagram":null,"Pinterest":null,"Youtube":null,"Blog":null,"Address":"556 Blackjack Road Choctaw, MS 39350","State":"Mississippi","City":"Choctaw","Street":"556 Blackjack Road","Zip":"39350","Longitude":"-89.24183996688485","Latitude":"32.80686133660578","Dates":null,"Products":""},{"Type":"farmers market","ModifyDate":"Mar 27th, 2023","Image":"default-farmersmarket-4-3.jpg","ListingID":"311363","Name":"City of Gautier's 2nd Saturday Farmer's Market","Description":null,"ContactName":null,"ContactEmail":null,"ContactPhone":null,"Website":"http:\/\/www.gautier-ms.gov","Facebook":null,"Twitter":null,"Instagram":null,"Pinterest":null,"Youtube":null,"Blog":null,"Address":"902 DE LA POINTE DR Gautier, MS 39553","State":"Mississippi","City":"GAUTIER","Street":"902 DE LA POINTE DR","Zip":"39553","Longitude":"-88.62367030012257","Latitude":"30.38814532414977","Dates":null,"Products":""},{"Type":"farmers market","ModifyDate":"Mar 27th, 2023","Image":"default-farmersmarket-4-3.jpg","ListingID":"311364","Name":"Clarksdale Farmers Market","Description":null,"ContactName":null,"ContactEmail":"clarksdale.market@gmail.com","ContactPhone":"901-334-8518","Website":"https:\/\/clarksdale.locallygrown.net\/","Facebook":null,"Twitter":null,"Instagram":null,"Pinterest":null,"Youtube":null,"Blog":null,"Address":"231 Delta Avenue Clarksdale, MS 38614","State":"Mississippi","City":"Clarksdale","Street":"231 Delta Avenue","Zip":"38614","Longitude":"-90.57480174469322","Latitude":"34.20201992392008","Dates":null,"Products":""},{"Type":"farmers market","ModifyDate":"Mar 27th, 2023","Image":"default-farmersmarket-4-3.jpg","ListingID":"311365","Name":"Clinton's Fresh at Five Farmers Market","Description":null,"ContactName":null,"ContactEmail":null,"ContactPhone":"601-924-5472","Website":"http:\/\/www.mainstreetclinton.com","Facebook":"http:\/\/www.facebook.com\/MainStreetClinton","Twitter":null,"Instagram":null,"Pinterest":null,"Youtube":null,"Blog":null,"Address":"300 Jefferson Street Clinton, MS 39056","State":"Mississippi","City":"CLINTON","Street":"300 JEFFERSON ST","Zip":"39056","Longitude":"-90.33057763402573","Latitude":"32.33927165556365","Dates":null,"Products":""},{"Type":"farmers market","ModifyDate":"Mar 27th, 2023","Image":"default-farmersmarket-4-3.jpg","ListingID":"311366","Name":"Corinth Farmers Market","Description":null,"ContactName":null,"ContactEmail":null,"ContactPhone":"662-286-7755","Website":null,"Facebook":null,"Twitter":null,"Instagram":null,"Pinterest":null,"Youtube":null,"Blog":null,"Address":"919 Shiloh Road Corinth, MS 38834","State":"Mississippi","City":"Corinth","Street":"919 Shiloh Road","Zip":"38834","Longitude":"-88.51413182496027","Latitude":"34.94538499075341","Dates":null,"Products":""},{"Type":"farmers market","ModifyDate":"Mar 27th, 2023","Image":"default-farmersmarket-4-3.jpg","ListingID":"311367","Name":"Crossroads Farmers' Market","Description":null,"ContactName":null,"ContactEmail":"info@crossroadsfarmersmarket.org","ContactPhone":"662-627-1121","Website":"http:\/\/crossroadsfarmersmarket.org\/","Facebook":"https:\/\/www.facebook.com\/XRoadsFarmersMarket","Twitter":null,"Instagram":null,"Pinterest":null,"Youtube":null,"Blog":null,"Address":"1536 Desoto Ave., Clarksdale, MS, 38614","State":"Mississippi","City":"Clarksdale","Street":"1536 Desoto Ave.","Zip":"38614","Longitude":"-90.56888126217352","Latitude":"34.21098842589083","Dates":null,"Products":""},{"Type":"farmers market","ModifyDate":"Mar 27th, 2023","Image":"default-farmersmarket-4-3.jpg","ListingID":"311368","Name":"Downtown Tupelo Farmers' Market","Description":null,"ContactName":null,"ContactEmail":null,"ContactPhone":"662-841-6598","Website":"http:\/\/www.tupelomainstreet.com","Facebook":"http:\/\/www.facebook.com\/DowntownTupeloFarmersMarket","Twitter":null,"Instagram":null,"Pinterest":null,"Youtube":null,"Blog":null,"Address":"415 South Spring Tupelo, MS 38804","State":"Mississippi","City":"TUPELO","Street":"415 S SPRING ST","Zip":"38804","Longitude":"-88.70440843102094","Latitude":"34.254653785527054","Dates":null,"Products":""},{"Type":"farmers market","ModifyDate":"Mar 27th, 2023","Image":"default-farmersmarket-4-3.jpg","ListingID":"311369","Name":"Earth's Bounty Farmers' Market","Description":null,"ContactName":null,"ContactEmail":null,"ContactPhone":"601-693-7480","Website":"http:\/\/meridianmainstreet.org","Facebook":null,"Twitter":null,"Instagram":null,"Pinterest":null,"Youtube":null,"Blog":null,"Address":"2120 A 5th St., Meridian, MS, 39301","State":"Mississippi","City":"Meridian","Street":"2120 A 5th St.","Zip":"39301","Longitude":"-88.69910880490842","Latitude":"32.36443068218251","Dates":null,"Products":""},{"Type":"farmers market","ModifyDate":"Mar 27th, 2023","Image":"default-farmersmarket-4-3.jpg","ListingID":"311370","Name":"East Jerusalem Farmer's Market","Description":null,"ContactName":null,"ContactEmail":null,"ContactPhone":"601-582-0909","Website":"https:\/\/www.paffpetal.com\/","Facebook":null,"Twitter":null,"Instagram":null,"Pinterest":null,"Youtube":null,"Blog":null,"Address":"115 W. 9th Ave. Petal, MS 39465","State":"Mississippi","City":"Petal","Street":"115 W. 9th Ave.","Zip":"39465","Longitude":"-89.26444659488209","Latitude":"31.334011356090674","Dates":null,"Products":""},{"Type":"farmers market","ModifyDate":"Mar 27th, 2023","Image":"default-farmersmarket-4-3.jpg","ListingID":"311371","Name":"Forrest County Farmers Market","Description":null,"ContactName":null,"ContactEmail":null,"ContactPhone":"601-545-6083","Website":null,"Facebook":null,"Twitter":null,"Instagram":null,"Pinterest":null,"Youtube":null,"Blog":null,"Address":"1200 Corinne Street Hattiesburg, MS 39401","State":"Mississippi","City":"Hattiesburg","Street":"1200 Corinne Street","Zip":"39401","Longitude":"-89.30374694240922","Latitude":"31.316811320318617","Dates":null,"Products":""},{"Type":"farmers market","ModifyDate":"Mar 27th, 2023","Image":"default-farmersmarket-4-3.jpg","ListingID":"311372","Name":"Greater Belhaven Market","Description":null,"ContactName":null,"ContactEmail":"info@greaterbelhaven.com","ContactPhone":"601-352-8850","Website":"https:\/\/www.greaterbelhaven.com\/","Facebook":null,"Twitter":null,"Instagram":null,"Pinterest":null,"Youtube":null,"Blog":null,"Address":"904 East Fortification St Jackson, MS 39202","State":"Mississippi","City":"Jackson","Street":"904 East Fortification St","Zip":"39202","Longitude":"-90.17460669775102","Latitude":"32.31218190146001","Dates":null,"Products":""},{"Type":"farmers market","ModifyDate":"Mar 27th, 2023","Image":"default-farmersmarket-4-3.jpg","ListingID":"311373","Name":"Green Market at the Corinth Depot","Description":null,"ContactName":null,"ContactEmail":"info@corinthgreenmarket.com","ContactPhone":"662-287-3120","Website":"http:\/\/www.corinthgreenmarket.net\/","Facebook":"https:\/\/www.facebook.com\/GreenMarketattheCorinthDepot","Twitter":null,"Instagram":null,"Pinterest":null,"Youtube":null,"Blog":null,"Address":"221 N. Fillmore St., Corinth, MS, 38834","State":"Mississippi","City":"Corinth","Street":"221 N. Fillmore St.","Zip":"38834","Longitude":"-88.52111638925572","Latitude":"34.933136591818396","Dates":null,"Products":""},{"Type":"farmers market","ModifyDate":"Mar 27th, 2023","Image":"default-farmersmarket-4-3.jpg","ListingID":"311374","Name":"Green Market at the Depot","Description":null,"ContactName":null,"ContactEmail":"emily@corinth.net","ContactPhone":"662-287-8300","Website":"https:\/\/www.corinth.net\/","Facebook":null,"Twitter":null,"Instagram":null,"Pinterest":null,"Youtube":null,"Blog":null,"Address":"215 Fillmore Street Corinth, MS 38834","State":"Mississippi","City":"Corinth","Street":"215 Fillmore Street","Zip":"38834","Longitude":"-88.5211250119141","Latitude":"34.933114924625585","Dates":null,"Products":""},{"Type":"farmers market","ModifyDate":"Mar 27th, 2023","Image":"default-farmersmarket-4-3.jpg","ListingID":"311375","Name":"Greenville Farmers Market","Description":null,"ContactName":null,"ContactEmail":null,"ContactPhone":"662-378-3142","Website":null,"Facebook":null,"Twitter":null,"Instagram":null,"Pinterest":null,"Youtube":null,"Blog":null,"Address":"726 Washington Ave. - corner of Washington Ave. & North Street Greenville, MS 38701","State":"Mississippi","City":"Greenville","Street":"726 Washington Ave.","Zip":"38701","Longitude":"-91.05664775533319","Latitude":"33.4090461861025","Dates":null,"Products":""},{"Type":"farmers market","ModifyDate":"Mar 27th, 2023","Image":"default-farmersmarket-4-3.jpg","ListingID":"311376","Name":"Indianola Open Air Market","Description":null,"ContactName":null,"ContactEmail":null,"ContactPhone":"662-877-2170","Website":"https:\/\/indianolamainstreet.org\/","Facebook":null,"Twitter":null,"Instagram":null,"Pinterest":null,"Youtube":null,"Blog":null,"Address":"200 Second Street - BB King Museum Indianola, MS 38751","State":"Mississippi","City":"Indianola","Street":"200 Second Street","Zip":"38751","Longitude":"-90.64740494626244","Latitude":"33.45021831853295","Dates":null,"Products":""},{"Type":"farmers market","ModifyDate":"Mar 27th, 2023","Image":"default-farmersmarket-4-3.jpg","ListingID":"311377","Name":"Jackson County Farmers Market","Description":null,"ContactName":null,"ContactEmail":null,"ContactPhone":"228-762-6043","Website":null,"Facebook":null,"Twitter":null,"Instagram":null,"Pinterest":null,"Youtube":null,"Blog":null,"Address":"2902 Shortcut Road, Jackson County Fair Grounds Pascagoula, MS 39568","State":"Mississippi","City":"Pascagoula","Street":"2902 Shortcut Road","Zip":"39568","Longitude":"-88.53269345299317","Latitude":"30.381031376400152","Dates":null,"Products":""},{"Type":"farmers market","ModifyDate":"Mar 27th, 2023","Image":"default-farmersmarket-4-3.jpg","ListingID":"311378","Name":"Laurel Farmers' Market","Description":null,"ContactName":null,"ContactEmail":"info@laurelmainstreet.com","ContactPhone":"601-433-3255","Website":"http:\/\/laurelmainstreet.com","Facebook":null,"Twitter":null,"Instagram":null,"Pinterest":null,"Youtube":null,"Blog":null,"Address":"550 Central Ave., Laurel, MS, 39440","State":"Mississippi","City":"Laurel","Street":"550 Central Ave.","Zip":"39440","Longitude":"-89.13187239103179","Latitude":"31.69289739240064","Dates":null,"Products":""},{"Type":"farmers market","ModifyDate":"Mar 27th, 2023","Image":"default-farmersmarket-4-3.jpg","ListingID":"311379","Name":"Livingston Farmers' Market","Description":null,"ContactName":null,"ContactEmail":"marketmanager@livingstonms.com","ContactPhone":"601-401-5040","Website":"http:\/\/thetownoflivingston.com\/","Facebook":"https:\/\/www.facebook.com\/LivingstonFarmersMarket","Twitter":null,"Instagram":null,"Pinterest":null,"Youtube":null,"Blog":null,"Address":"129 Mannsdale Rd., Madison, MS, 39110","State":"Mississippi","City":"Madison","Street":"129 Mannsdale Rd.","Zip":"39110","Longitude":"-90.15986822232871","Latitude":"32.480175194967245","Dates":null,"Products":""},{"Type":"farmers market","ModifyDate":"Mar 27th, 2023","Image":"default-farmersmarket-4-3.jpg","ListingID":"311380","Name":"Long Beach Farmers Market","Description":null,"ContactName":null,"ContactEmail":null,"ContactPhone":"228-234-8732","Website":"https:\/\/www.realfoodgulfcoast.org\/","Facebook":"https:\/\/www.facebook.com\/pages\/Real-Food-Gulf-Coast\/123557707656499?ref=ts","Twitter":null,"Instagram":null,"Pinterest":null,"Youtube":null,"Blog":null,"Address":"126 Jeff Davis Avenue Long Beach, MS 39560","State":"Mississippi","City":"Long Beach","Street":"126 Jeff Davis Avenue","Zip":"39560","Longitude":"-89.15109496694396","Latitude":"30.350039826818172","Dates":null,"Products":""},{"Type":"farmers market","ModifyDate":"Mar 27th, 2023","Image":"default-farmersmarket-4-3.jpg","ListingID":"311381","Name":"McComb Farmers Market","Description":null,"ContactName":null,"ContactEmail":null,"ContactPhone":"410-693-7701","Website":null,"Facebook":"https:\/\/www.facebook.com\/McComb%20Farmer's%20Market","Twitter":null,"Instagram":null,"Pinterest":null,"Youtube":null,"Blog":null,"Address":"112 railroad blvd Downtown Parking garage McComb, MS 39648","State":"Mississippi","City":"McComb","Street":"112 railroad blvd","Zip":"39648","Longitude":"-90.45142776871135","Latitude":"31.24424292747224","Dates":null,"Products":""},{"Type":"farmers market","ModifyDate":"Mar 27th, 2023","Image":"default-farmersmarket-4-3.jpg","ListingID":"311382","Name":"Meridian Area Farmers' Market","Description":null,"ContactName":null,"ContactEmail":null,"ContactPhone":"601-484-3988","Website":null,"Facebook":"https:\/\/www.facebook.com\/Meridian-Area-Farmers-Market-123902790978848\/","Twitter":null,"Instagram":null,"Pinterest":null,"Youtube":null,"Blog":null,"Address":"1771 Front St., Meridian, MS, 39301","State":"Mississippi","City":"Meridian","Street":"1771 Front St.","Zip":"39301","Longitude":"-88.69512303065385","Latitude":"32.36517170745614","Dates":null,"Products":""},{"Type":"farmers market","ModifyDate":"Mar 27th, 2023","Image":"default-farmersmarket-4-3.jpg","ListingID":"311383","Name":"Meridian\/\/Lauderdale County Farmers Market","Description":null,"ContactName":null,"ContactEmail":null,"ContactPhone":"601-482-9764","Website":null,"Facebook":null,"Twitter":null,"Instagram":null,"Pinterest":null,"Youtube":null,"Blog":null,"Address":"1901 Front Street - Underpass Meridian, MS 39301","State":"Mississippi","City":"Meridian","Street":"1901 Front Street","Zip":"39301","Longitude":"-88.69816246822037","Latitude":"32.363295449745166","Dates":null,"Products":""},{"Type":"farmers market","ModifyDate":"Mar 27th, 2023","Image":"default-farmersmarket-4-3.jpg","ListingID":"311384","Name":"Mississippi Farmers' Market","Description":null,"ContactName":null,"ContactEmail":null,"ContactPhone":"601-354-6573","Website":"http:\/\/www.msfarmersmarket.com\/","Facebook":"https:\/\/www.facebook.com\/mississippifarmersmarket","Twitter":null,"Instagram":null,"Pinterest":null,"Youtube":null,"Blog":null,"Address":"929 High St., Jackson, MS, 39202","State":"Mississippi","City":"Jackson","Street":"929 High St.","Zip":"39202","Longitude":"-90.1749571230685","Latitude":"32.30397470310675","Dates":null,"Products":""},{"Type":"farmers market","ModifyDate":"Mar 27th, 2023","Image":"default-farmersmarket-4-3.jpg","ListingID":"311385","Name":"Mississippi Market","Description":null,"ContactName":null,"ContactEmail":null,"ContactPhone":"601-359-3420","Website":"https:\/\/mississippimarket.org\/","Facebook":null,"Twitter":null,"Instagram":null,"Pinterest":null,"Youtube":null,"Blog":null,"Address":"849 North West Street Jackson, MS 39201","State":"Mississippi","City":"Jackson","Street":"849 North West Street","Zip":"39201","Longitude":"-90.18221048670262","Latitude":"32.30993179035348","Dates":null,"Products":""},{"Type":"farmers market","ModifyDate":"Mar 27th, 2023","Image":"default-farmersmarket-4-3.jpg","ListingID":"311386","Name":"Natchez Farmers' Market","Description":null,"ContactName":null,"ContactEmail":null,"ContactPhone":"601-442-4648","Website":null,"Facebook":"https:\/\/www.facebook.com\/pages\/Natchez-Farmers-Market\/229804627067839","Twitter":null,"Instagram":null,"Pinterest":null,"Youtube":null,"Blog":null,"Address":"199 Saint Catherine St., Natchez, MS, 39120","State":"Mississippi","City":"Natchez","Street":"199 Saint Catherine St.","Zip":"39120","Longitude":"-91.38562144779976","Latitude":"31.556193578045782","Dates":null,"Products":""},{"Type":"farmers market","ModifyDate":"Mar 27th, 2023","Image":"default-farmersmarket-4-3.jpg","ListingID":"311387","Name":"New Albany Farmers Market","Description":null,"ContactName":null,"ContactEmail":null,"ContactPhone":"662-534-1916","Website":null,"Facebook":null,"Twitter":null,"Instagram":null,"Pinterest":null,"Youtube":null,"Blog":null,"Address":"112 Fairgrounds Circle New Albany, MS 38652","State":"Mississippi","City":"New Albany","Street":"112 Fairgrounds Circle","Zip":"38652","Longitude":"-89.0329479752956","Latitude":"34.51261728861937","Dates":null,"Products":""},{"Type":"farmers market","ModifyDate":"Mar 27th, 2023","Image":"default-farmersmarket-4-3.jpg","ListingID":"311388","Name":"Newton County farmers market","Description":null,"ContactName":null,"ContactEmail":null,"ContactPhone":"601-692-6675","Website":null,"Facebook":"https:\/\/www.facebook.com\/NewtonCountyFarmersMarket","Twitter":null,"Instagram":null,"Pinterest":null,"Youtube":null,"Blog":null,"Address":"812 Church Street Newton, MS 39345","State":"Mississippi","City":"Newton","Street":"812 Church Street","Zip":"39345","Longitude":"-89.17353541841207","Latitude":"32.324005280085416","Dates":null,"Products":""},{"Type":"farmers market","ModifyDate":"Mar 27th, 2023","Image":"default-farmersmarket-4-3.jpg","ListingID":"311389","Name":"Ocean Springs Fresh Market","Description":null,"ContactName":null,"ContactEmail":null,"ContactPhone":"228-257-2496","Website":"https:\/\/www.realfoodgulfcoast.org\/","Facebook":"https:\/\/www.facebook.com\/photo.php?fbid=1675546242797&set=a.1675546122794.2089450.1061679184#!\/pages\/Real-Fo","Twitter":null,"Instagram":null,"Pinterest":null,"Youtube":null,"Blog":null,"Address":"1000 Washington Avenue Ocean Springs, MS 39564","State":"Mississippi","City":"Ocean Springs","Street":"1000 Washington Avenue","Zip":"39564","Longitude":"-88.82776719770132","Latitude":"30.415052980841885","Dates":null,"Products":""},{"Type":"farmers market","ModifyDate":"Mar 27th, 2023","Image":"default-farmersmarket-4-3.jpg","ListingID":"311390","Name":"Old Towne Farmers Market","Description":null,"ContactName":null,"ContactEmail":null,"ContactPhone":"662-893-0888","Website":"http:\/\/olivebrancholdtowne.org\/farmersmarket","Facebook":"http:\/\/www.facebook.com\/OliveBranchOldTowne","Twitter":null,"Instagram":null,"Pinterest":null,"Youtube":null,"Blog":null,"Address":"9200 Pigeon Roost Rd. Olive Branch, MS 38654 Located in the Parking Lot of City Hall at Pigeon Roost Rd. and Goodman Rd.","State":"Mississippi","City":"OLIVE BRANCH","Street":"9200 PIGEON ROOST RD","Zip":"38654","Longitude":"-89.82764376682778","Latitude":"34.961940741395736","Dates":null,"Products":""},{"Type":"farmers market","ModifyDate":"Mar 27th, 2023","Image":"default-farmersmarket-4-3.jpg","ListingID":"311391","Name":"Olde Towne Market","Description":null,"ContactName":null,"ContactEmail":"name@email.com","ContactPhone":"601-924-5472","Website":"https:\/\/www.mainstreetclintonms.com\/","Facebook":null,"Twitter":null,"Instagram":null,"Pinterest":null,"Youtube":null,"Blog":null,"Address":"202A W. Leake Street P. O. Box 156 Clinton, MS 39056","State":"Mississippi","City":"Clinton","Street":"202A W. Leake Street","Zip":"39056","Longitude":"-90.33068027747312","Latitude":"32.34021854021967","Dates":null,"Products":""},{"Type":"farmers market","ModifyDate":"Mar 27th, 2023","Image":"default-farmersmarket-4-3.jpg","ListingID":"311392","Name":"Oxford City Market","Description":null,"ContactName":null,"ContactEmail":null,"ContactPhone":"662-832-7257","Website":"https:\/\/www.oxfordcitymarket.com\/","Facebook":"https:\/\/www.facebook.com\/OxfordCityMarket","Twitter":null,"Instagram":null,"Pinterest":null,"Youtube":null,"Blog":null,"Address":"2650 West Oxford Loop Oxford, MS 38655","State":"Mississippi","City":"Oxford","Street":"2650 West Oxford Loop","Zip":"38655","Longitude":"-89.56993270905153","Latitude":"34.36182012390962","Dates":null,"Products":""},{"Type":"farmers market","ModifyDate":"Mar 27th, 2023","Image":"default-farmersmarket-4-3.jpg","ListingID":"311393","Name":"Oxford Community Market","Description":null,"ContactName":null,"ContactEmail":null,"ContactPhone":"662-816-7413","Website":null,"Facebook":null,"Twitter":null,"Instagram":null,"Pinterest":null,"Youtube":null,"Blog":null,"Address":"1801 University Ave. Oxford, MS 38655","State":"Mississippi","City":"Oxford","Street":"1801 University Ave.","Zip":"38655","Longitude":"-89.51074999593568","Latitude":"34.36285961307257","Dates":null,"Products":""},{"Type":"farmers market","ModifyDate":"Mar 27th, 2023","Image":"default-farmersmarket-4-3.jpg","ListingID":"311394","Name":"Pearl River Market","Description":null,"ContactName":null,"ContactEmail":null,"ContactPhone":"601-736-1170","Website":null,"Facebook":"https:\/\/www.facebook.com\/PearlRiverMarket","Twitter":null,"Instagram":null,"Pinterest":null,"Youtube":null,"Blog":null,"Address":"233 Second Street Columbia, MS 39429","State":"Mississippi","City":"Columbia","Street":"233 Second Street","Zip":"39429","Longitude":"-89.8367283091122","Latitude":"31.25191199450334","Dates":null,"Products":""},{"Type":"farmers market","ModifyDate":"Mar 27th, 2023","Image":"default-farmersmarket-4-3.jpg","ListingID":"311395","Name":"Petal Farmers Market","Description":null,"ContactName":null,"ContactEmail":null,"ContactPhone":"601-325-3774","Website":null,"Facebook":null,"Twitter":null,"Instagram":null,"Pinterest":null,"Youtube":null,"Blog":null,"Address":"334 N. Main Street Petal, MS 39465","State":"Mississippi","City":"Petal","Street":"334 N. Main Street","Zip":"39465","Longitude":"-89.26293820228324","Latitude":"31.353069172100433","Dates":null,"Products":""},{"Type":"farmers market","ModifyDate":"Mar 27th, 2023","Image":"default-farmersmarket-4-3.jpg","ListingID":"311396","Name":"Prentiss County Farmers Market","Description":null,"ContactName":null,"ContactEmail":null,"ContactPhone":"662-728-3946","Website":null,"Facebook":null,"Twitter":null,"Instagram":null,"Pinterest":null,"Youtube":null,"Blog":null,"Address":"2301 North Second Street Booneville, MS 38829","State":"Mississippi","City":"Booneville","Street":"2301 North Second Street","Zip":"38829","Longitude":"-88.5606159983515","Latitude":"34.69631534530084","Dates":null,"Products":""},{"Type":"farmers market","ModifyDate":"Mar 27th, 2023","Image":"default-farmersmarket-4-3.jpg","ListingID":"311397","Name":"Saucier Farmers Market","Description":null,"ContactName":null,"ContactEmail":null,"ContactPhone":"228-697-1178","Website":null,"Facebook":null,"Twitter":null,"Instagram":null,"Pinterest":null,"Youtube":null,"Blog":null,"Address":"25950 Old Hwy 49 Saucier, MS 39574","State":"Mississippi","City":"Saucier","Street":"25950 Old Hwy 49","Zip":"39574","Longitude":"-89.1388039299488","Latitude":"30.66326505923424","Dates":null,"Products":""},{"Type":"farmers market","ModifyDate":"Mar 27th, 2023","Image":"default-farmersmarket-4-3.jpg","ListingID":"311398","Name":"Square Market","Description":null,"ContactName":null,"ContactEmail":"colleenclark@panolacounty.com","ContactPhone":"662-563-0704","Website":"http:\/\/www.batesvillemainstreet.com","Facebook":null,"Twitter":null,"Instagram":null,"Pinterest":null,"Youtube":null,"Blog":null,"Address":"150 Public Square, Batesville, MS, 38606","State":"Mississippi","City":"Batesville","Street":"150 Public Square","Zip":"38606","Longitude":"-89.95254735650747","Latitude":"34.317227100894414","Dates":null,"Products":""},{"Type":"farmers market","ModifyDate":"Mar 27th, 2023","Image":"default-farmersmarket-4-3.jpg","ListingID":"311399","Name":"Stone County Farmers Market","Description":null,"ContactName":null,"ContactEmail":null,"ContactPhone":"601-928-5286","Website":null,"Facebook":null,"Twitter":null,"Instagram":null,"Pinterest":null,"Youtube":null,"Blog":null,"Address":"735 Hall Street Wiggins, MS 39577","State":"Mississippi","City":"Wiggins","Street":"735 Hall Street","Zip":"39577","Longitude":"-89.14232842129587","Latitude":"30.85116865011174","Dates":null,"Products":""},{"Type":"farmers market","ModifyDate":"Mar 27th, 2023","Image":"default-farmersmarket-4-3.jpg","ListingID":"311400","Name":"The Grenada, MS Farmers' Market","Description":null,"ContactName":null,"ContactEmail":null,"ContactPhone":"662-226-7608","Website":"https:\/\/grenadacf.org\/","Facebook":"https:\/\/www.facebook.com\/TheGrenadaFarmersMarket","Twitter":null,"Instagram":null,"Pinterest":null,"Youtube":null,"Blog":null,"Address":"1250 Sunset Drive Grenada, MS 38901","State":"Mississippi","City":"Grenada","Street":"1250 Sunset Drive","Zip":"38901","Longitude":"-89.82058434080793","Latitude":"33.77179076225266","Dates":null,"Products":""},{"Type":"farmers market","ModifyDate":"Mar 27th, 2023","Image":"default-farmersmarket-4-3.jpg","ListingID":"311401","Name":"The Pass Market","Description":null,"ContactName":null,"ContactEmail":null,"ContactPhone":"228-297-3040","Website":null,"Facebook":"https:\/\/www.facebook.com\/pages\/THE-PASS-MARKET-located-in-War-Memorial-Park\/287935875327","Twitter":null,"Instagram":null,"Pinterest":null,"Youtube":null,"Blog":null,"Address":"103 Fleitas Avenue Pass Christian, MS 39571","State":"Mississippi","City":"Pass Christian","Street":"103 Fleitas Avenue","Zip":"39571","Longitude":"-89.23935283516663","Latitude":"30.31711766436004","Dates":null,"Products":""},{"Type":"farmers market","ModifyDate":"Mar 27th, 2023","Image":"default-farmersmarket-4-3.jpg","ListingID":"311402","Name":"Water Valley Main Street Market","Description":null,"ContactName":null,"ContactEmail":null,"ContactPhone":"662-473-3796","Website":"http:\/\/watervalleymainstreet.com","Facebook":null,"Twitter":null,"Instagram":null,"Pinterest":null,"Youtube":null,"Blog":null,"Address":"206 N. Main Street Water Valley, MS 38965","State":"Mississippi","City":"WATER VALLEY","Street":"206 MAIN ST","Zip":"38965","Longitude":"-89.63411414101887","Latitude":"34.146797794969174","Dates":null,"Products":""},{"Type":"farmers market","ModifyDate":"Mar 27th, 2023","Image":"default-farmersmarket-4-3.jpg","ListingID":"311403","Name":"Waveland Farmers Market, Etc.","Description":null,"ContactName":null,"ContactEmail":null,"ContactPhone":"601-273-6403","Website":null,"Facebook":null,"Twitter":null,"Instagram":null,"Pinterest":null,"Youtube":null,"Blog":null,"Address":"301 Coleman Avenue Waveland, MS 39576","State":"Mississippi","City":"Waveland","Street":"301 Coleman Avenue","Zip":"39576","Longitude":"-89.37237842301118","Latitude":"30.285086931041675","Dates":null,"Products":""},{"Type":"farmers market","ModifyDate":"Mar 27th, 2023","Image":"default-farmersmarket-4-3.jpg","ListingID":"311404","Name":"Winston County Farmers' Market","Description":null,"ContactName":null,"ContactEmail":"winstoncshc@mail.com","ContactPhone":"662-312-8004","Website":"http:\/\/www.wcshc.com","Facebook":null,"Twitter":null,"Instagram":null,"Pinterest":null,"Youtube":null,"Blog":null,"Address":"201 Ivy Ave., Louisville Coliseum, Louisville, MS, 39339","State":"Mississippi","City":"Louisville","Street":"201 Ivy Ave.","Zip":"39339","Longitude":"-89.05318192541105","Latitude":"33.13790029481913","Dates":null,"Products":""},{"Type":"farmers market","ModifyDate":"Mar 27th, 2023","Image":"default-farmersmarket-4-3.jpg","ListingID":"311405","Name":"Yazoo Farmers Market","Description":null,"ContactName":null,"ContactEmail":null,"ContactPhone":"662-590-5415","Website":"http:\/\/www.facebook.com\/yazoofarmersmarket","Facebook":null,"Twitter":null,"Instagram":null,"Pinterest":null,"Youtube":null,"Blog":null,"Address":"417 North Main Street Yazoo City, MS 39194","State":"Mississippi","City":"YAZOO CITY","Street":"417 N MAIN ST","Zip":"39194","Longitude":"-90.4115967812487","Latitude":"32.850899878078806","Dates":null,"Products":""},{"Type":"on-farm market","ModifyDate":"Apr 25th, 2018","Image":"default-onfarmmarket-4-3.jpg","ListingID":"701449","Name":"Apple Valley Produce","Description":null,"ContactName":"JamieEdwards","ContactEmail":"Jamieedwards34@gmail.com","ContactPhone":"6012010415","Website":null,"Facebook":null,"Twitter":null,"Instagram":null,"Pinterest":null,"Youtube":null,"Blog":null,"Address":"132 Apple Valley Drive, Mendenhall , Mississippi 39114","State":"Mississippi","City":"Mendenhall","Street":"132 Apple Valley Drive","Zip":"39114","Longitude":"-89.840811","Latitude":"32.035084","Dates":null,"Products":""},{"Type":"on-farm market","ModifyDate":"Aug 21st, 2014","Image":"default-onfarmmarket-4-3.jpg","ListingID":"700871","Name":"Leaf River Honey","Description":null,"ContactName":"CHARLES H. WILSON","ContactEmail":"ARDENFARMS@ATT.NET","ContactPhone":"601-582-7028","Website":null,"Facebook":"https:\/\/www.facebook.com\/#!\/LeafRiverHoney","Twitter":null,"Instagram":null,"Pinterest":null,"Youtube":null,"Blog":null,"Address":"270 MONROE RD., Hattiesburg , Mississippi 39401","State":"Mississippi","City":"Hattiesburg","Street":"270 MONROE RD.","Zip":"39401","Longitude":"-89.291007","Latitude":"31.377864","Dates":null,"Products":""},{"Type":"on-farm market","ModifyDate":"Aug 5th, 2014","Image":"default-onfarmmarket-4-3.jpg","ListingID":"700805","Name":"Swords Pecans LLC","Description":null,"ContactName":"Swords Pecans, LLC","ContactEmail":"Sandradonour@gmail.com","ContactPhone":"(662) 425-2902","Website":null,"Facebook":null,"Twitter":null,"Instagram":null,"Pinterest":null,"Youtube":null,"Blog":null,"Address":"10392 Highway 45 Alt North, West Point , Mississippi 39773","State":"Mississippi","City":"West Point","Street":"10392 Highway 45 Alt North","Zip":"39773","Longitude":"-88.662089","Latitude":"33.5903942","Dates":null,"Products":""},{"Type":"on-farm market","ModifyDate":"Dec 18th, 2019","Image":"default-onfarmmarket-4-3.jpg","ListingID":"701493","Name":"Remington-Lott Farms","Description":null,"ContactName":"Kelsey Eaves","ContactEmail":"Info@remingtonlottfarms.com","ContactPhone":"6019535592","Website":"https:\/\/www.remingtonlottfarms.com","Facebook":"https:\/\/facebook.com\/remingtonlottfarms","Twitter":null,"Instagram":null,"Pinterest":null,"Youtube":null,"Blog":"http:\/\/www.remingtonlottfarms.com\/store","Address":"1300 Sharon Road, Canton, Mississippi 39046","State":"Mississippi","City":"Canton","Street":"1300 Sharon Road","Zip":"39046","Longitude":"-89.919910","Latitude":"32.643040","Dates":null,"Products":""},{"Type":"on-farm market","ModifyDate":"Feb 17th, 2023","Image":"default-onfarmmarket-4-3.jpg","ListingID":"701488","Name":"New Grass Farms","Description":"Visit Shaded Grove Farm Market and see firsthand how the food you are feeding your family is being raised. We offer an on-farm store where you can shop our grass-fed beef, lamb, pasture-raised pork, chicken and eggs as well as pecans, coffee, and more.","ContactName":"CRAIG SCHMIDT","ContactEmail":"craig@shadedgrovefarmmarket.com","ContactPhone":"6628896628","Website":"www.shadedgrovefarmmarket.com","Facebook":"","Twitter":"","Instagram":"","Pinterest":"","Youtube":"","Blog":"","Address":"2817 Douglass Rd, Macon, Mississippi 39341","State":"Mississippi","City":"Macon","Street":"2817 Douglass Rd","Zip":"39341","Longitude":"-88.460969","Latitude":"33.130152","Dates":"Year-round","Products":"Coffee\/tea, Nuts, Red\/other non-poultry meat and products"},{"Type":"on-farm market","ModifyDate":"Feb 19th, 2015","Image":"default-onfarmmarket-4-3.jpg","ListingID":"701213","Name":"Tallahala Creek Farms, LLC","Description":null,"ContactName":"William McCardle","ContactEmail":"tallahalacreek@yahoo.com","ContactPhone":"601-310-9599","Website":null,"Facebook":"https:\/\/www.facebook.com\/TallahalaCreekFarm","Twitter":null,"Instagram":null,"Pinterest":null,"Youtube":null,"Blog":null,"Address":"4952 HWY 29, Petal, Mississippi 39465","State":"Mississippi","City":"Petal","Street":"4952 HWY 29","Zip":"39465","Longitude":"-89.111163","Latitude":"31.363646","Dates":null,"Products":""},{"Type":"on-farm market","ModifyDate":"Jun 18th, 2015","Image":"default-onfarmmarket-4-3.jpg","ListingID":"701275","Name":"Hays Berry Farms","Description":null,"ContactName":"Robert Hays","ContactEmail":"rhays25@netzero.com","ContactPhone":"6625382899","Website":"www.haysberryfarms.com","Facebook":"HAYS Berry FARM","Twitter":null,"Instagram":null,"Pinterest":null,"Youtube":null,"Blog":null,"Address":"1041 C.R. 182 , Dumas, Mississippi 38625","State":"Mississippi","City":"Dumas","Street":"1041 C.R. 182","Zip":"38625","Longitude":"-88.835417","Latitude":"34.5481221","Dates":null,"Products":""},{"Type":"on-farm market","ModifyDate":"Oct 7th, 2020","Image":"default-onfarmmarket-4-3.jpg","ListingID":"701563","Name":"Dowdle Family Farms","Description":null,"ContactName":"Rob Dowdle","ContactEmail":"Rob@dowdlefamilyfarms.com","ContactPhone":"6624350921","Website":"dowdlefamilyfarms.com","Facebook":"https:\/\/www.facebook.com\/dowdlefamilyfarms","Twitter":null,"Instagram":null,"Pinterest":null,"Youtube":null,"Blog":null,"Address":"1412 Seed Tick Rd, Caledonia, Mississippi 39740","State":"Mississippi","City":"Caledonia","Street":"1412 Seed Tick Rd","Zip":"39740","Longitude":"-88.307479","Latitude":"33.657881","Dates":null,"Products":""},{"Type":"on-farm market","ModifyDate":"Sep 16th, 2014","Image":"default-onfarmmarket-4-3.jpg","ListingID":"700052","Name":"Reyer Farms","Description":null,"ContactName":"Jody reyer","ContactEmail":"reyerfarms@gmail.com","ContactPhone":"601-906-1185","Website":"www.reyerfarms.com","Facebook":"https:\/\/www.facebook.com\/ReyerFarms","Twitter":null,"Instagram":null,"Pinterest":null,"Youtube":null,"Blog":null,"Address":"1098 County Line Rd, Lena, Mississippi 39094","State":"Mississippi","City":"Lena","Street":"1098 County Line Rd","Zip":"39094","Longitude":"-89.558339","Latitude":"32.5705997","Dates":null,"Products":""}]