[{"Type":"on-farm market","ModifyDate":"Apr 10th, 2015","Image":"default-onfarmmarket-4-3.jpg","ListingID":"701243","Name":"Broma Fields","Description":null,"ContactName":"Melissa Clark","ContactEmail":"clarkmk@dukes.jmu.edu","ContactPhone":"540 298-2522","Website":null,"Facebook":null,"Twitter":null,"Instagram":null,"Pinterest":null,"Youtube":null,"Blog":null,"Address":"3418 Blose Road, Elkton, Virginia 22827","State":"Virginia","City":"Elkton","Street":"3418 Blose Road","Zip":"22827","Longitude":"-78.599345","Latitude":"38.4463616","Dates":null,"Products":""},{"Type":"on-farm market","ModifyDate":"Apr 12th, 2016","Image":"default-onfarmmarket-4-3.jpg","ListingID":"700257","Name":"Oliver Farms LLC","Description":null,"ContactName":"Jimmy Oliver","ContactEmail":"orders@oliverproduce.com","ContactPhone":"757-255-4563","Website":"www.oliverproduce.com","Facebook":"Oliver Farms Produce - Smithfield, VA","Twitter":null,"Instagram":null,"Pinterest":null,"Youtube":null,"Blog":null,"Address":"18222 Longview Drive, Smithfield, Virginia 23430","State":"Virginia","City":"Smithfield","Street":"18222 Longview Drive","Zip":"23430","Longitude":"-76.606740","Latitude":"36.889185","Dates":null,"Products":""},{"Type":"on-farm market","ModifyDate":"Apr 14th, 2022","Image":"onfarmmarket_700287_13748_20220414144200.png","ListingID":"700287","Name":"Dickie Bros. Orchard","Description":null,"ContactName":"John Bruguiere","ContactEmail":"John@DickieBros.com","ContactPhone":"434-277-5516","Website":"dickiebros.com","Facebook":null,"Twitter":null,"Instagram":null,"Pinterest":null,"Youtube":null,"Blog":null,"Address":"2685 Dickie Road, Roseland, Virginia 22967","State":"Virginia","City":"Roseland","Street":"2685 Dickie Road","Zip":"22967","Longitude":"-79.043735","Latitude":"37.7743573","Dates":null,"Products":""},{"Type":"on-farm market","ModifyDate":"Apr 3rd, 2015","Image":"default-onfarmmarket-4-3.jpg","ListingID":"701237","Name":"Mowery Orchard LLC","Description":null,"ContactName":"Yvette Bullock","ContactEmail":"info@moweryorchard.com","ContactPhone":"5404598645","Website":"www.MoweryOrchard.com","Facebook":"www.facebook.com\/MoweryOrchard","Twitter":null,"Instagram":null,"Pinterest":null,"Youtube":null,"Blog":null,"Address":"24247 Senedo Road, Woodstock, Virginia 22664","State":"Virginia","City":"Woodstock","Street":"24247 Senedo Road","Zip":"22664","Longitude":"-78.536544","Latitude":"38.8736475","Dates":null,"Products":""},{"Type":"on-farm market","ModifyDate":"Apr 4th, 2015","Image":"default-onfarmmarket-4-3.jpg","ListingID":"701238","Name":"Aeyles Farm, LLC","Description":null,"ContactName":"Catherine Tyler","ContactEmail":"aeylesfarm@hotmail.com","ContactPhone":"434-825-4092","Website":null,"Facebook":null,"Twitter":null,"Instagram":null,"Pinterest":null,"Youtube":null,"Blog":null,"Address":"553 Big River Road, Goshen, Virginia 24439","State":"Virginia","City":"Goshen","Street":"553 Big River Road","Zip":"24439","Longitude":"-79.505417","Latitude":"38.019411","Dates":null,"Products":""},{"Type":"on-farm market","ModifyDate":"Apr 5th, 2019","Image":"default-onfarmmarket-4-3.jpg","ListingID":"701475","Name":"Botanical Bites & Provisions, LLC","Description":null,"ContactName":"Anita Roberson","ContactEmail":"BotanicalbitesandProvisions@gmail.com","ContactPhone":"5402870635","Website":"https:\/\/www.botanicalbitesandprovisionsllc.com\/","Facebook":null,"Twitter":null,"Instagram":null,"Pinterest":null,"Youtube":null,"Blog":null,"Address":"4738 Massaponax Church Road, Fredericksburg, Virginia 22408","State":"Virginia","City":"Fredericksburg","Street":"4738 Massaponax Church Road","Zip":"22408","Longitude":"-77.498095","Latitude":"38.193824","Dates":null,"Products":""},{"Type":"on-farm market","ModifyDate":"Aug 11th, 2014","Image":"default-onfarmmarket-4-3.jpg","ListingID":"700828","Name":"Riverstone Organic Farm Shop","Description":null,"ContactName":"Kat Johnson","ContactEmail":"Riverstone@swva.net","ContactPhone":"650-814-6426","Website":"www.riverstoneorganicfarm.com","Facebook":"www.facebook.com\/riverstoneorganicfarm","Twitter":null,"Instagram":null,"Pinterest":null,"Youtube":null,"Blog":null,"Address":"708 Thompson Road SE, Floyd, Virginia 24091","State":"Virginia","City":"Floyd","Street":"708 Thompson Road SE","Zip":"24091","Longitude":"-80.207099","Latitude":"36.9496830","Dates":null,"Products":""},{"Type":"on-farm market","ModifyDate":"Aug 13th, 2014","Image":"default-onfarmmarket-4-3.jpg","ListingID":"700114","Name":"Life Enrichment Sciences","Description":null,"ContactName":"Ben Gorrell","ContactEmail":"admin@lifeenrichmentsciences.com","ContactPhone":"804-824-8235","Website":"http:\/\/www.lifeenrichmentsciences.com","Facebook":"https:\/\/www.facebook.com\/lesciences","Twitter":null,"Instagram":null,"Pinterest":null,"Youtube":null,"Blog":null,"Address":"6155 Hall Town Rd, Gloucester, Virginia 23061","State":"Virginia","City":"Gloucester","Street":"6155 Hall Town Rd","Zip":"23061","Longitude":"-76.543525","Latitude":"37.3731561","Dates":null,"Products":""},{"Type":"on-farm market","ModifyDate":"Aug 13th, 2014","Image":"default-onfarmmarket-4-3.jpg","ListingID":"700282","Name":"Hope of Glory Farm, LLC","Description":null,"ContactName":"Judi Bisson","ContactEmail":"judi@hopeofgloryfarm.com","ContactPhone":"434-286-2121","Website":"http:\/\/www.hopeofgloryfarm.com\/","Facebook":null,"Twitter":null,"Instagram":null,"Pinterest":null,"Youtube":null,"Blog":null,"Address":"86 Old Spring Hill Rd, Scottsville, Virginia 24590","State":"Virginia","City":"Scottsville","Street":"86 Old Spring Hill Rd","Zip":"24590","Longitude":"-78.462800","Latitude":"37.808923","Dates":null,"Products":""},{"Type":"on-farm market","ModifyDate":"Aug 13th, 2014","Image":"default-onfarmmarket-4-3.jpg","ListingID":"700618","Name":"Leaning Oak Farm","Description":null,"ContactName":"Norman Dart","ContactEmail":"normdart@gmail.com","ContactPhone":"804-814-0017","Website":null,"Facebook":null,"Twitter":null,"Instagram":null,"Pinterest":null,"Youtube":null,"Blog":null,"Address":"3800 Newbys Bridge Road , Chesterfield, Virginia 23832","State":"Virginia","City":"Chesterfield","Street":"3800 Newbys Bridge Road","Zip":"23832","Longitude":"-77.535499","Latitude":"37.455605","Dates":null,"Products":""},{"Type":"on-farm market","ModifyDate":"Aug 13th, 2014","Image":"default-onfarmmarket-4-3.jpg","ListingID":"700660","Name":"Burnside Farms","Description":null,"ContactName":"Leslie Dawley","ContactEmail":"mike@burnsidefarms.com","ContactPhone":"703-930-3052","Website":"www.burnsidefarms.com","Facebook":"www.facebook.com\/burnsidefarms","Twitter":"twitter.com\/burnsidefarms","Instagram":null,"Pinterest":null,"Youtube":null,"Blog":null,"Address":"4905 James Madison Hwy, Haymarket, Virginia 20169","State":"Virginia","City":"Haymarket","Street":"4905 James Madison Hwy","Zip":"20169","Longitude":"-77.636983","Latitude":"38.848823","Dates":null,"Products":""},{"Type":"on-farm market","ModifyDate":"Aug 13th, 2014","Image":"default-onfarmmarket-4-3.jpg","ListingID":"700832","Name":"Pampatike Organic Farm","Description":null,"ContactName":"Carroll N. Curtis","ContactEmail":"carrollcurtis@pampatike.com","ContactPhone":null,"Website":"www.pampatike.com","Facebook":null,"Twitter":null,"Instagram":null,"Pinterest":null,"Youtube":null,"Blog":null,"Address":", King William, Virginia","State":"Virginia","City":"King William","Street":null,"Zip":null,"Longitude":"-77.111273","Latitude":"37.699796","Dates":null,"Products":""},{"Type":"on-farm market","ModifyDate":"Aug 14th, 2021","Image":"default-onfarmmarket-4-3.jpg","ListingID":"701608","Name":"Hop-Ayr Farms","Description":null,"ContactName":"Amy Hopping","ContactEmail":"jakobah@alum.mit.edu","ContactPhone":"617-571-3832","Website":null,"Facebook":"https:\/\/www.facebook.com\/HopAyrFarms\/","Twitter":null,"Instagram":null,"Pinterest":null,"Youtube":null,"Blog":null,"Address":"43 Hillcrest Drive, Ruby, Virginia 22556","State":"Virginia","City":"Ruby","Street":"43 Hillcrest Drive","Zip":"22556","Longitude":"-77.538391","Latitude":"38.503077","Dates":null,"Products":""},{"Type":"on-farm market","ModifyDate":"Aug 20th, 2014","Image":"default-onfarmmarket-4-3.jpg","ListingID":"700149","Name":"Dragonfly Farms","Description":null,"ContactName":"Bruce Johnson","ContactEmail":"bruce@dragonflyfarms.com","ContactPhone":"804-512-9944","Website":"www.dragonflyfarms.com","Facebook":"https:\/\/www.facebook.com\/dragonflyfarms","Twitter":null,"Instagram":null,"Pinterest":null,"Youtube":null,"Blog":null,"Address":"16259 Trainham Road, Beaverdam, Virginia 23015","State":"Virginia","City":"Beaverdam","Street":"16259 Trainham Road","Zip":"23015","Longitude":"-77.660639","Latitude":"37.942159","Dates":null,"Products":""},{"Type":"on-farm market","ModifyDate":"Aug 25th, 2014","Image":"default-onfarmmarket-4-3.jpg","ListingID":"700745","Name":"The Farm at Boulevard Flower Gardens","Description":null,"ContactName":"Jennifer Pennison","ContactEmail":"info@boulevardflowergardens.com","ContactPhone":"804-526-4000","Website":"www.boulevardflowergardens.com","Facebook":"www.facebook.com\/blvd.flower.gardens","Twitter":null,"Instagram":null,"Pinterest":null,"Youtube":null,"Blog":null,"Address":"2100 Ruffin Mill Road, Colonial Heights , Virginia 23834","State":"Virginia","City":"Colonial Heights","Street":"2100 Ruffin Mill Road","Zip":"23834","Longitude":"-77.390184","Latitude":"37.309449","Dates":null,"Products":""},{"Type":"on-farm market","ModifyDate":"Aug 26th, 2014","Image":"default-onfarmmarket-4-3.jpg","ListingID":"700930","Name":"The Berrypatch","Description":null,"ContactName":"Kent Davis","ContactEmail":"kentdavis@embarqmail.com","ContactPhone":"963-0659","Website":null,"Facebook":null,"Twitter":null,"Instagram":null,"Pinterest":null,"Youtube":null,"Blog":null,"Address":"3035 Peavine Hollow Rd, Crozet, Virginia 22932","State":"Virginia","City":"Crozet","Street":"3035 Peavine Hollow Rd","Zip":"22932","Longitude":"-78.605054","Latitude":"38.180684","Dates":null,"Products":""},{"Type":"on-farm market","ModifyDate":"Aug 28th, 2014","Image":"default-onfarmmarket-4-3.jpg","ListingID":"700969","Name":"Digging Dog Farm","Description":null,"ContactName":"Geri Hess","ContactEmail":"diggingdogfarm@vabb.com","ContactPhone":"540-207-0401","Website":"www.thediggingdogfarm.com","Facebook":null,"Twitter":null,"Instagram":null,"Pinterest":null,"Youtube":null,"Blog":null,"Address":", Richardsville, Virginia 22736","State":"Virginia","City":"Richardsville","Street":null,"Zip":"22736","Longitude":"-77.740219","Latitude":"38.392769","Dates":null,"Products":""},{"Type":"on-farm market","ModifyDate":"Aug 29th, 2014","Image":"default-onfarmmarket-4-3.jpg","ListingID":"700986","Name":"The Home Farm Store sells Ayrshire Farm products and products from neighboring Virginia farms","Description":null,"ContactName":"Emily Miller","ContactEmail":"shop@homefarmstore.com","ContactPhone":"540-687-8882","Website":"www.AyrshireFarm.com","Facebook":"www.facebook.com\/ayrshirefarmshires","Twitter":null,"Instagram":null,"Pinterest":null,"Youtube":null,"Blog":null,"Address":"1 East Washington ST, Middleburg , Virginia 20117","State":"Virginia","City":"Middleburg","Street":"1 East Washington ST","Zip":"20117","Longitude":"-77.735422","Latitude":"38.9690132","Dates":null,"Products":""},{"Type":"on-farm market","ModifyDate":"Aug 4th, 2014","Image":"default-onfarmmarket-4-3.jpg","ListingID":"700801","Name":"Hudson Heritage Farms, LLC","Description":null,"ContactName":"Denise S. Hudson","ContactEmail":"hudsonheritage@aol.com","ContactPhone":"4347539327","Website":"https:\/\/sites.google.com\/site\/hudsonheritagefarms\/","Facebook":"https:\/\/www.facebook.com\/pages\/Hudson-Heritage-Farms-LLC\/172016466152452","Twitter":null,"Instagram":null,"Pinterest":null,"Youtube":null,"Blog":null,"Address":"14242 River Road, South Boston, Virginia 24592","State":"Virginia","City":"South Boston","Street":"14242 River Road","Zip":"24592","Longitude":"-79.124869","Latitude":"36.6753273","Dates":null,"Products":""},{"Type":"on-farm market","ModifyDate":"Aug 7th, 2014","Image":"default-onfarmmarket-4-3.jpg","ListingID":"700058","Name":"Puffenbargers Sugar Orchard","Description":null,"ContactName":"Ivan Puffenbarger","ContactEmail":"puffenbargersmaple@gmail.com","ContactPhone":"540-474-2771","Website":"www.puffenbargersugarorchard.com","Facebook":"https:\/\/www.facebook.com\/puffenbargersugarorchard","Twitter":null,"Instagram":null,"Pinterest":null,"Youtube":null,"Blog":null,"Address":"17 Maple Syrup Lane, Blue Grass, Virginia 24413","State":"Virginia","City":"Blue Grass","Street":"17 Maple Syrup Lane","Zip":"24413","Longitude":"-79.557554","Latitude":"38.459176","Dates":null,"Products":""},{"Type":"on-farm market","ModifyDate":"Feb 11th, 2016","Image":"default-onfarmmarket-4-3.jpg","ListingID":"700279","Name":"Keenbell Farm","Description":null,"ContactName":"CJ Isbell","ContactEmail":"keenbellfarm@gmail.com","ContactPhone":"804-767-0530","Website":"www.keenbellfarm.com","Facebook":"www.facebook.com\/keenbellfarm","Twitter":"https:\/\/www.twitter.com\/keenbellfarm","Instagram":null,"Pinterest":null,"Youtube":null,"Blog":null,"Address":"18437 Vontay Rd., Rockville, Virginia 23146","State":"Virginia","City":"Rockville","Street":"18437 Vontay Rd.","Zip":"23146","Longitude":"-77.741988","Latitude":"37.754330","Dates":null,"Products":""},{"Type":"on-farm market","ModifyDate":"Feb 11th, 2016","Image":"default-onfarmmarket-4-3.jpg","ListingID":"701315","Name":"Skipper Farms","Description":null,"ContactName":"Skipper Farms","ContactEmail":"skipperfarms@gmail.com","ContactPhone":"757-368-0355","Website":"Skipperfarms.com","Facebook":"Skipper Farms","Twitter":null,"Instagram":null,"Pinterest":null,"Youtube":null,"Blog":null,"Address":"1305 Kempsville Rd., Chesapeake, Virginia 23320","State":"Virginia","City":"Chesapeake","Street":"1305 Kempsville Rd.","Zip":"23320","Longitude":"-76.205714","Latitude":"36.7616620","Dates":null,"Products":""},{"Type":"on-farm market","ModifyDate":"Feb 18th, 2021","Image":"default-onfarmmarket-4-3.jpg","ListingID":"701587","Name":"Hayes Valley Farms","Description":null,"ContactName":"Christina Hayes","ContactEmail":"Hayesfarmlife@gmail.com","ContactPhone":"276-299-3747","Website":"Https:\/\/www.hayesvalleyfarms.com","Facebook":"Https:\/\/www.facebook.com\/hayesvalleyfarms","Twitter":"Https:\/\/www.twitter.com\/hayesvalleyfarms","Instagram":null,"Pinterest":null,"Youtube":null,"Blog":null,"Address":"1341 Matson Drive, Marion , Virginia 24354","State":"Virginia","City":"Marion","Street":"1341 Matson Drive","Zip":"24354","Longitude":"-81.513384","Latitude":"36.810976","Dates":null,"Products":""},{"Type":"on-farm market","ModifyDate":"Feb 21st, 2015","Image":"default-onfarmmarket-4-3.jpg","ListingID":"701216","Name":"Miller Farms Market","Description":null,"ContactName":"Ben Miller","ContactEmail":"info@millerfarmsmarket.com","ContactPhone":"540 850 5009","Website":"millerfarmsmarket.com","Facebook":"miller farms market","Twitter":null,"Instagram":null,"Pinterest":null,"Youtube":null,"Blog":null,"Address":"12101 Orange Plank Rd, Locust Grove, Virginia 22508","State":"Virginia","City":"Locust Grove","Street":"12101 Orange Plank Rd","Zip":"22508","Longitude":"-77.753991","Latitude":"38.276201","Dates":null,"Products":""},{"Type":"on-farm market","ModifyDate":"Jan 12th, 2021","Image":"default-onfarmmarket-4-3.jpg","ListingID":"701573","Name":"Fields Edge Farm Store","Description":null,"ContactName":"Steven Houde","ContactEmail":"info@fieldsedgefarms.com","ContactPhone":"540-789-2347","Website":"www.fieldsedgefarms.com","Facebook":"https:\/\/www.facebook.com\/fieldsedgefarms","Twitter":"https:\/\/twitter.com\/fieldsedgefarm","Instagram":null,"Pinterest":null,"Youtube":null,"Blog":"www.fieldsedgefarms.com","Address":"1834 Rush Fork Rd SW, Floyd, Virginia 24091","State":"Virginia","City":"Floyd","Street":"1834 Rush Fork Rd SW","Zip":"24091","Longitude":"-80.411973","Latitude":"36.834950","Dates":null,"Products":""},{"Type":"on-farm market","ModifyDate":"Jul 15th, 2015","Image":"default-onfarmmarket-4-3.jpg","ListingID":"701286","Name":"Old Quarter Farm","Description":null,"ContactName":"Julia Bredder","ContactEmail":"oldqtrfarm@gmail.com","ContactPhone":"804-529-9873","Website":null,"Facebook":null,"Twitter":null,"Instagram":null,"Pinterest":null,"Youtube":null,"Blog":null,"Address":"3572 Lewisetta Road, Lottsburg, Virginia 22511","State":"Virginia","City":"Lottsburg","Street":"3572 Lewisetta Road","Zip":"22511","Longitude":"-76.501531","Latitude":"38.003264","Dates":null,"Products":""},{"Type":"on-farm market","ModifyDate":"Jul 23rd, 2014","Image":"default-onfarmmarket-4-3.jpg","ListingID":"700408","Name":"Avery's Branch Farms","Description":null,"ContactName":"Tim Alexander","ContactEmail":"averysbranchfarms@yahoo.com","ContactPhone":"757-651-6731","Website":"www.averysbranchfarms.com","Facebook":"https:\/\/www.facebook.com\/averysbranch","Twitter":null,"Instagram":null,"Pinterest":null,"Youtube":null,"Blog":"Avery\\'s Branch Farms Blog","Address":"16923 Genito Rd., Amelia, Virginia 23002","State":"Virginia","City":"Amelia","Street":"16923 Genito Rd.","Zip":"23002","Longitude":"-77.991743","Latitude":"37.4460021","Dates":null,"Products":""},{"Type":"on-farm market","ModifyDate":"Jul 26th, 2014","Image":"default-onfarmmarket-4-3.jpg","ListingID":"700148","Name":"Dreamland Alpacas","Description":null,"ContactName":"Debbie McLeish","ContactEmail":"dreamlandalpacas@aol.com","ContactPhone":"276-494-6798","Website":"dreamlandalpacas@aol.com","Facebook":"https:\/\/www.facebook.com\/DreamlandAlpacasLLC","Twitter":null,"Instagram":null,"Pinterest":null,"Youtube":null,"Blog":null,"Address":"13050 Bell Lane, Meadowview, Virginia 24361","State":"Virginia","City":"Meadowview","Street":"13050 Bell Lane","Zip":"24361","Longitude":"-81.861529","Latitude":"36.767740","Dates":null,"Products":""},{"Type":"on-farm market","ModifyDate":"Jul 26th, 2014","Image":"default-onfarmmarket-4-3.jpg","ListingID":"700203","Name":"White Oak Lavender Farm","Description":null,"ContactName":"Julie Haushalter","ContactEmail":"whiteoaklavender@gmail.com","ContactPhone":"540-421-6345","Website":null,"Facebook":null,"Twitter":null,"Instagram":null,"Pinterest":null,"Youtube":null,"Blog":null,"Address":"5060 Newcomer Lane, Harrisonburg, Virginia 22801","State":"Virginia","City":"Harrisonburg","Street":"5060 Newcomer Lane","Zip":"22801","Longitude":"-78.840598","Latitude":"38.364321","Dates":null,"Products":""},{"Type":"on-farm market","ModifyDate":"Jul 26th, 2014","Image":"default-onfarmmarket-4-3.jpg","ListingID":"700409","Name":"Autumn Grove Farm","Description":null,"ContactName":"Bill RIGGAN","ContactEmail":"autumngrovefarm@verizon.net","ContactPhone":"804-543-3263","Website":null,"Facebook":null,"Twitter":null,"Instagram":null,"Pinterest":null,"Youtube":null,"Blog":null,"Address":"221 Ligontown Road, Farmville, Virginia 23901","State":"Virginia","City":"Farmville","Street":"221 Ligontown Road","Zip":"23901","Longitude":"-78.262985","Latitude":"37.384715","Dates":null,"Products":""},{"Type":"on-farm market","ModifyDate":"Jul 26th, 2014","Image":"default-onfarmmarket-4-3.jpg","ListingID":"700420","Name":"Practically Country at Bay Haven Farm, LLC","Description":null,"ContactName":"Anna Cohen","ContactEmail":"acohen@bayhavenfarm.com","ContactPhone":"703-401-4054","Website":"www.practicallycountry.com","Facebook":null,"Twitter":null,"Instagram":null,"Pinterest":null,"Youtube":null,"Blog":"http:\/\/www.bayhavenfarm.com\/Bay_Haven_Farm,_LLC\/The_Farm_Hands_Almanac\/The_Farm_Hands_Almanac.html","Address":"19028 Sullystone Ln, Round HIll, Virginia 20141","State":"Virginia","City":"Round HIll","Street":"19028 Sullystone Ln","Zip":"20141","Longitude":"-77.790767","Latitude":"39.0912750","Dates":null,"Products":""},{"Type":"on-farm market","ModifyDate":"Jul 26th, 2014","Image":"default-onfarmmarket-4-3.jpg","ListingID":"700729","Name":"A Dozen Eggs","Description":null,"ContactName":"Belinda Moh","ContactEmail":"info@PastureRaisedEggs.com","ContactPhone":"703-829-2317","Website":"www.pastureraisedeggs.com","Facebook":null,"Twitter":null,"Instagram":null,"Pinterest":null,"Youtube":null,"Blog":null,"Address":"37938 Charles Town Pike, Purcellville, Virginia 20132","State":"Virginia","City":"Purcellville","Street":"37938 Charles Town Pike","Zip":"20132","Longitude":"-77.690603","Latitude":"39.188266","Dates":null,"Products":""},{"Type":"on-farm market","ModifyDate":"Jul 27th, 2014","Image":"default-onfarmmarket-4-3.jpg","ListingID":"700050","Name":"River Oak Farm","Description":null,"ContactName":"Adam Aucoin Cassy Kelly","ContactEmail":"info@riveroakfarm.com","ContactPhone":"434-996-9112","Website":null,"Facebook":"https:\/\/www.facebook.com\/riveroakfarm","Twitter":null,"Instagram":null,"Pinterest":null,"Youtube":null,"Blog":null,"Address":"173 Woodson Rd., Lowesville, Virginia 22967","State":"Virginia","City":"Lowesville","Street":"173 Woodson Rd.","Zip":"22967","Longitude":"-79.066900","Latitude":"37.723022","Dates":null,"Products":""},{"Type":"on-farm market","ModifyDate":"Jul 27th, 2014","Image":"default-onfarmmarket-4-3.jpg","ListingID":"700189","Name":"3 Birds Berry Farm","Description":null,"ContactName":"Bill Sembello & Irene Lamb, MR","ContactEmail":"3birdsberryfarm@gmail.com","ContactPhone":"540-552-4195","Website":"3birdsberryfarm.com","Facebook":"https:\/\/www.facebook.com\/3BirdsBerryFarm","Twitter":null,"Instagram":null,"Pinterest":null,"Youtube":null,"Blog":null,"Address":"1876 Brooksfield Rd, Blacksburg, Virginia 24060","State":"Virginia","City":"Blacksburg","Street":"1876 Brooksfield Rd","Zip":"24060","Longitude":"-80.491034","Latitude":"37.216789","Dates":null,"Products":""},{"Type":"on-farm market","ModifyDate":"Jul 27th, 2014","Image":"default-onfarmmarket-4-3.jpg","ListingID":"700530","Name":"Buckland Farm Market","Description":null,"ContactName":null,"ContactEmail":"bucklandfarmmarket@gmail.com","ContactPhone":"540-341-4739","Website":null,"Facebook":null,"Twitter":null,"Instagram":null,"Pinterest":null,"Youtube":null,"Blog":null,"Address":"4484 Lee Hwy, New Baltimore, Virginia 22824","State":"Virginia","City":"New Baltimore","Street":"4484 Lee Hwy","Zip":"22824","Longitude":"-77.700951","Latitude":"38.770307","Dates":null,"Products":""},{"Type":"on-farm market","ModifyDate":"Jul 27th, 2014","Image":"default-onfarmmarket-4-3.jpg","ListingID":"700637","Name":"Appleseed Country Johnsons Orchards and Peaks of Otter Winery","Description":null,"ContactName":"Danny Johnson","ContactEmail":"appleseed@earthlink.net","ContactPhone":"540-586-3707","Website":"www.JohnsonsOrchards.com","Facebook":null,"Twitter":null,"Instagram":null,"Pinterest":null,"Youtube":null,"Blog":null,"Address":"2122 Sheep Creek Road, Bedford, Virginia 24523","State":"Virginia","City":"Bedford","Street":"2122 Sheep Creek Road","Zip":"24523","Longitude":"-79.625107","Latitude":"37.397604","Dates":null,"Products":""},{"Type":"on-farm market","ModifyDate":"Jul 27th, 2014","Image":"default-onfarmmarket-4-3.jpg","ListingID":"700708","Name":"Golden Eagle Alpaca Farm","Description":null,"ContactName":"John Gasser","ContactEmail":"john@goldeneaglealpacafarm.com","ContactPhone":"757\/438-2997","Website":"www.goldeneaglealpacafarm.com","Facebook":null,"Twitter":null,"Instagram":null,"Pinterest":null,"Youtube":null,"Blog":null,"Address":"2505 Pittmantown Rod, Suffolk, Virginia 23438","State":"Virginia","City":"Suffolk","Street":"2505 Pittmantown Rod","Zip":"23438","Longitude":"-76.785636","Latitude":"36.5605110","Dates":null,"Products":""},{"Type":"on-farm market","ModifyDate":"Jul 27th, 2014","Image":"default-onfarmmarket-4-3.jpg","ListingID":"700731","Name":"Owen Farm Tours, LLC","Description":null,"ContactName":"Pattie Owen","ContactEmail":"info@owenfarmtours.com","ContactPhone":"434-685-4123","Website":"www.owenfarmtours.com","Facebook":"https:\/\/www.facebook.com\/pages\/Owen-Farm-Tours\/259048657461865","Twitter":null,"Instagram":null,"Pinterest":null,"Youtube":null,"Blog":null,"Address":"1668 Silver Creek Road, Danville, Virginia 24540","State":"Virginia","City":"Danville","Street":"1668 Silver Creek Road","Zip":"24540","Longitude":"-79.536983","Latitude":"36.6433000","Dates":null,"Products":""},{"Type":"on-farm market","ModifyDate":"Jul 28th, 2014","Image":"default-onfarmmarket-4-3.jpg","ListingID":"700043","Name":"Saddle Ridge Farm","Description":null,"ContactName":"Keith Farrish","ContactEmail":"saddleridgefood@gmail.com","ContactPhone":"703-887-8041","Website":"http:\/\/www.saddleridgefarm.net\/","Facebook":"https:\/\/www.facebook.com\/saddleridgefarm","Twitter":"https:\/\/twitter.com\/Saddleridgefarm","Instagram":null,"Pinterest":null,"Youtube":null,"Blog":null,"Address":"10208 Jamesons Mill Road, Culpeper, Virginia 22701","State":"Virginia","City":"Culpeper","Street":"10208 Jamesons Mill Road","Zip":"22701","Longitude":"-77.965583","Latitude":"38.563358","Dates":null,"Products":""},{"Type":"on-farm market","ModifyDate":"Jul 28th, 2014","Image":"default-onfarmmarket-4-3.jpg","ListingID":"700192","Name":"Ticonderoga Farms, Inc.","Description":null,"ContactName":"Molly Mc Grady","ContactEmail":"marketing@ticonderoga.com","ContactPhone":"703-327-4424","Website":"www.ticonderoga.com","Facebook":"https:\/\/www.facebook.com\/ticonderogafarms","Twitter":null,"Instagram":null,"Pinterest":null,"Youtube":null,"Blog":null,"Address":"26469 Ticonderoga Road, Chantilly, Virginia 20152","State":"Virginia","City":"Chantilly","Street":"26469 Ticonderoga Road","Zip":"20152","Longitude":"-77.539724","Latitude":"38.885636","Dates":null,"Products":""},{"Type":"on-farm market","ModifyDate":"Jul 28th, 2014","Image":"default-onfarmmarket-4-3.jpg","ListingID":"700235","Name":"Lovers Retreat Farm & Dairy","Description":null,"ContactName":"Cynthia Wilson","ContactEmail":"sales@loversretreatfarm.com","ContactPhone":"804-758-5094","Website":null,"Facebook":null,"Twitter":null,"Instagram":null,"Pinterest":null,"Youtube":null,"Blog":null,"Address":"1495 Lovers Retreat Lane, Saluda, Virginia 23149","State":"Virginia","City":"Saluda","Street":"1495 Lovers Retreat Lane","Zip":"23149","Longitude":"-76.636272","Latitude":"37.607129","Dates":null,"Products":""},{"Type":"on-farm market","ModifyDate":"Jul 29th, 2014","Image":"default-onfarmmarket-4-3.jpg","ListingID":"700019","Name":"Patowmack Farm","Description":null,"ContactName":"Beverly Morton","ContactEmail":"info@patowmackfarm.com","ContactPhone":"540-822-9017","Website":"www.patowmackfarm.com","Facebook":"https:\/\/www.facebook.com\/TheRestaurantatPatowmackFarm","Twitter":"https:\/\/www.twitter.com\/patowmackfarm","Instagram":null,"Pinterest":null,"Youtube":null,"Blog":null,"Address":"42461 Lovettsville Rd., Lovettsville, Virginia 20180","State":"Virginia","City":"Lovettsville","Street":"42461 Lovettsville Rd.","Zip":"20180","Longitude":"-77.555873","Latitude":"39.278467","Dates":null,"Products":""},{"Type":"on-farm market","ModifyDate":"Jul 29th, 2014","Image":"default-onfarmmarket-4-3.jpg","ListingID":"700355","Name":"Vintage Virginia Apples LLC","Description":null,"ContactName":"Charlotte Shelton","ContactEmail":"fruit@albemarleciderworks.com","ContactPhone":"434-297-2326","Website":"https:\/\/www.albemarleciderworks.com\/","Facebook":"https:\/\/www.facebook.com\/pages\/Albemarle-CiderWorks\/132600710110733","Twitter":"https:\/\/twitter.com\/AlbCiderWorks","Instagram":null,"Pinterest":null,"Youtube":null,"Blog":"https:\/\/www.albemarleciderworks.com\/blog","Address":"2545 Rural Ridge Lane, North Garden, Virginia 22959","State":"Virginia","City":"North Garden","Street":"2545 Rural Ridge Lane","Zip":"22959","Longitude":"-78.650136","Latitude":"37.9665310","Dates":null,"Products":""},{"Type":"on-farm market","ModifyDate":"Jul 29th, 2014","Image":"default-onfarmmarket-4-3.jpg","ListingID":"700444","Name":"Vaughan Farms Produce","Description":null,"ContactName":"Robert H. Vaughan","ContactEmail":"vaughanfarmsproduce@yahoo.com","ContactPhone":"757-615-4888","Website":"www.vaughanfarmsproduce.com\/Home_Page.php","Facebook":null,"Twitter":null,"Instagram":null,"Pinterest":null,"Youtube":null,"Blog":null,"Address":"1258 Princess Anne Road, Virginia Beach, Virginia 23457","State":"Virginia","City":"Virginia Beach","Street":"1258 Princess Anne Road","Zip":"23457","Longitude":"-76.026145","Latitude":"36.67243","Dates":null,"Products":""},{"Type":"on-farm market","ModifyDate":"Jul 2nd, 2015","Image":"default-onfarmmarket-4-3.jpg","ListingID":"701274","Name":"Westmoreland Berry Farm and Market","Description":null,"ContactName":"Kane Lloyd","ContactEmail":"kanelloyd@westmorelandberryfarm.com","ContactPhone":"804-224-9171","Website":"www.westmorelandberryfarm.com","Facebook":"Westmoreland Berry Farm","Twitter":"@westmorelandberryfarm","Instagram":null,"Pinterest":null,"Youtube":null,"Blog":null,"Address":"1235 Berry Farm Lane, Colonial Beach, Virginia 22443","State":"Virginia","City":"Colonial Beach","Street":"1235 Berry Farm Lane","Zip":"22443","Longitude":"-77.047207","Latitude":"38.1364403","Dates":null,"Products":""},{"Type":"on-farm market","ModifyDate":"Jul 30th, 2014","Image":"default-onfarmmarket-4-3.jpg","ListingID":"700130","Name":"Harmony Harvest Farm LLC","Description":null,"ContactName":"Jessica Hall","ContactEmail":"info@harmonyharvestfarm.com","ContactPhone":"540-230-0100","Website":"www.harmonyharvestfarm.com","Facebook":"https:\/\/www.facebook.com\/harmonyharvestfarm","Twitter":"https:\/\/www.twitter.com\/harmonyhrvst","Instagram":null,"Pinterest":null,"Youtube":null,"Blog":null,"Address":"201 Little Run Road, Weyers Cave, Virginia 24486","State":"Virginia","City":"Weyers Cave","Street":"201 Little Run Road","Zip":"24486","Longitude":"-78.889606","Latitude":"38.2538520","Dates":null,"Products":""},{"Type":"on-farm market","ModifyDate":"Jul 30th, 2014","Image":"default-onfarmmarket-4-3.jpg","ListingID":"700242","Name":"Empress Farm","Description":null,"ContactName":"Michael Taylor","ContactEmail":"rabbits.for.you@gmail.com","ContactPhone":"804-994-2221","Website":"www.empressfarmfoods.com","Facebook":null,"Twitter":null,"Instagram":null,"Pinterest":null,"Youtube":null,"Blog":null,"Address":"2336 King William Rd., Hanover, Virginia 23069","State":"Virginia","City":"Hanover","Street":"2336 King William Rd.","Zip":"23069","Longitude":"-77.298099","Latitude":"37.810634","Dates":null,"Products":""},{"Type":"on-farm market","ModifyDate":"Jul 30th, 2014","Image":"default-onfarmmarket-4-3.jpg","ListingID":"700405","Name":"Beagle Ridge Herb Farm","Description":null,"ContactName":"Ellen Reynolds","ContactEmail":"beagleridge@gmail.com","ContactPhone":"276-621-4511","Website":"www.beagleridgeherbfarm.com","Facebook":"https:\/\/www.facebook.com\/beagleridge","Twitter":null,"Instagram":null,"Pinterest":null,"Youtube":null,"Blog":null,"Address":"1934 Matney Flats Rd, Wytheville, Virginia 24382","State":"Virginia","City":"Wytheville","Street":"1934 Matney Flats Rd","Zip":"24382","Longitude":"-81.078390","Latitude":"36.8754143","Dates":null,"Products":""},{"Type":"on-farm market","ModifyDate":"Jun 17th, 2015","Image":"default-onfarmmarket-4-3.jpg","ListingID":"701273","Name":"Loudounberry Farm & Garden","Description":null,"ContactName":"Jeff Ertman","ContactEmail":"jeff@loudounberryfarm.com","ContactPhone":"(703) 772-8104","Website":"www.loudounberryfarm.com","Facebook":"https:\/\/www.facebook.com\/Loudounberry","Twitter":null,"Instagram":null,"Pinterest":null,"Youtube":null,"Blog":null,"Address":"14917 James Monroe Hwy, Leesburg, Virginia 20176","State":"Virginia","City":"Leesburg","Street":"14917 James Monroe Hwy","Zip":"20176","Longitude":"-77.537558","Latitude":"39.203664","Dates":null,"Products":""},{"Type":"on-farm market","ModifyDate":"Jun 18th, 2015","Image":"default-onfarmmarket-4-3.jpg","ListingID":"700138","Name":"Gallmeyer Farms Veggie Stand","Description":null,"ContactName":"Steve Gallmeyer","ContactEmail":"Steve@gallmeyerfarms.com","ContactPhone":"804-222-2285","Website":"http:\/\/gallmeyerfarms.com","Facebook":"https:\/\/www.facebook.com\/gallmeyerfarms","Twitter":null,"Instagram":null,"Pinterest":null,"Youtube":null,"Blog":null,"Address":"4506 Millers Lane, Richmond, Virginia 23231","State":"Virginia","City":"Richmond","Street":"4506 Millers Lane","Zip":"23231","Longitude":"-77.365067","Latitude":"37.525187","Dates":null,"Products":""},{"Type":"on-farm market","ModifyDate":"Mar 17th, 2022","Image":"default-onfarmmarket-4-3.jpg","ListingID":"701650","Name":"Floyd Ecovillage Farmstore","Description":null,"ContactName":"Christine Mann","ContactEmail":"rivenwoodgardens@gmail.com","ContactPhone":"314-456-9219","Website":"https:\/\/rivenwoodgardens.com\/","Facebook":"https:\/\/www.facebook.com\/RivenwoodGardens","Twitter":null,"Instagram":null,"Pinterest":null,"Youtube":null,"Blog":null,"Address":"Garden Lane, Floyd, Virginia 24091","State":"Virginia","City":"Floyd","Street":"Garden Lane","Zip":"24091","Longitude":"-80.283322","Latitude":"36.910407","Dates":null,"Products":""},{"Type":"on-farm market","ModifyDate":"Mar 23rd, 2015","Image":"default-onfarmmarket-4-3.jpg","ListingID":"700807","Name":"Indian Valley Farms LLC","Description":null,"ContactName":"Randy Cohen","ContactEmail":"indianvalleyfarms@gmail.com","ContactPhone":"540-922-3892","Website":null,"Facebook":"https:\/\/www.facebook.com\/pages\/Indian-Valley-Farms\/127404783941073","Twitter":null,"Instagram":null,"Pinterest":null,"Youtube":null,"Blog":null,"Address":"824 Indian Valley Post  Office Rd, Indian Valley, Virginia 24105","State":"Virginia","City":"Indian Valley","Street":"824 Indian Valley Post  Office Rd","Zip":"24105","Longitude":"-80.562880","Latitude":"36.900940","Dates":null,"Products":""},{"Type":"on-farm market","ModifyDate":"Mar 23rd, 2015","Image":"default-onfarmmarket-4-3.jpg","ListingID":"701228","Name":"Deer Haven Blueberry Patch","Description":null,"ContactName":"Richard Slakman","ContactEmail":"info@deerhavenblueberrypatch.com","ContactPhone":"276-730-4047","Website":"www.deerhavenblueberrypatch.comn","Facebook":"Deer Haven Blueberry Patch","Twitter":null,"Instagram":null,"Pinterest":null,"Youtube":null,"Blog":null,"Address":"118 Raven Ridge, Allisonia , Virginia 24347","State":"Virginia","City":"Allisonia","Street":"118 Raven Ridge","Zip":"24347","Longitude":"-80.699440","Latitude":"36.872617","Dates":null,"Products":""},{"Type":"on-farm market","ModifyDate":"Mar 24th, 2017","Image":"default-onfarmmarket-4-3.jpg","ListingID":"701399","Name":"Mount Pleasant Farms","Description":null,"ContactName":"Jen Vaughan","ContactEmail":"info@mountpleasantfarms.com","ContactPhone":"7574820739","Website":"www.mountpleasantfarms.com","Facebook":"https:\/\/www.facebook.com\/mountpleasantfarms\/?ref=aymt_homepage_panel","Twitter":null,"Instagram":null,"Pinterest":null,"Youtube":null,"Blog":null,"Address":"2201 Mount Pleasant Road, Chesapeake, Virginia 23322","State":"Virginia","City":"Chesapeake","Street":"2201 Mount Pleasant Road","Zip":"23322","Longitude":"-76.141122","Latitude":"36.713688","Dates":null,"Products":""},{"Type":"on-farm market","ModifyDate":"Mar 29th, 2015","Image":"default-onfarmmarket-4-3.jpg","ListingID":"700307","Name":"Over The Grass Farm","Description":null,"ContactName":"James Baggett \/ Deborah Gardener","ContactEmail":"info@overthegrassfarm.net","ContactPhone":"540-253-5228","Website":"overthegrassfarm.com","Facebook":null,"Twitter":null,"Instagram":null,"Pinterest":null,"Youtube":null,"Blog":null,"Address":"6485 Rock Hill Mill Rd, The Plains, Virginia 20198","State":"Virginia","City":"The Plains","Street":"6485 Rock Hill Mill Rd","Zip":"20198","Longitude":"-77.776489","Latitude":"38.900506","Dates":null,"Products":""},{"Type":"on-farm market","ModifyDate":"Mar 31st, 2015","Image":"default-onfarmmarket-4-3.jpg","ListingID":"700201","Name":"Wildwood Alpacas","Description":null,"ContactName":"Sue Hammer & Judy Howe","ContactEmail":"wildwoodpacas@yahoo.com","ContactPhone":"804-633-3310","Website":"wildwoodalpacas@aol.com","Facebook":"https:\/\/www.facebook.com\/wildwood.alpacas?fref=ts","Twitter":null,"Instagram":null,"Pinterest":null,"Youtube":null,"Blog":null,"Address":"8046 Fredericksburg Tpke, Woodford, Virginia 22580","State":"Virginia","City":"Woodford","Street":"8046 Fredericksburg Tpke","Zip":"22580","Longitude":"-77.393818","Latitude":"38.1521390","Dates":null,"Products":""},{"Type":"on-farm market","ModifyDate":"Mar 31st, 2015","Image":"default-onfarmmarket-4-3.jpg","ListingID":"701235","Name":"Ikenberry Orchards","Description":null,"ContactName":"Ava Gwen Ikenberry","ContactEmail":"Ikenberryorchard@Gmail.com","ContactPhone":"540-992-6166","Website":"Ikenberryorchards.com","Facebook":"Ikenberry Orchards","Twitter":"n\/a","Instagram":null,"Pinterest":null,"Youtube":null,"Blog":"n\/a","Address":"2557 Roanoke Road, Daleville, Virginia 24083","State":"Virginia","City":"Daleville","Street":"2557 Roanoke Road","Zip":"24083","Longitude":"-79.909947","Latitude":"37.4210502","Dates":null,"Products":""},{"Type":"on-farm market","ModifyDate":"May 13th, 2015","Image":"default-onfarmmarket-4-3.jpg","ListingID":"700711","Name":"Jeter Farm Fall Festival and Country Store","Description":null,"ContactName":"Rose Jeter","ContactEmail":"jeterfarm@gmail.com","ContactPhone":"540-977-5314","Website":"www.jeterfarm.com","Facebook":"https:\/\/www.facebook.com\/pages\/Jeter-Farm\/138337886208034","Twitter":"https:\/\/twitter.com\/JeterFarm","Instagram":null,"Pinterest":null,"Youtube":null,"Blog":null,"Address":"181 Blue Ridge Boulevard, Roanoke, Virginia 24012","State":"Virginia","City":"Roanoke","Street":"181 Blue Ridge Boulevard","Zip":"24012","Longitude":"-79.864281","Latitude":"37.331027","Dates":null,"Products":""},{"Type":"on-farm market","ModifyDate":"May 4th, 2016","Image":"default-onfarmmarket-4-3.jpg","ListingID":"701336","Name":"Mackintosh Fruit Farm","Description":null,"ContactName":"Lori and Bill Mackintosh","ContactEmail":"lori@mackintoshfruitfarm.com","ContactPhone":"5409556225","Website":"http:\/\/www.mackintoshfruitfarm.com\/","Facebook":"https:\/\/www.facebook.com\/Mackintosh-Fruit-Farm-111618915548297\/","Twitter":null,"Instagram":null,"Pinterest":null,"Youtube":null,"Blog":"http:\/\/www.mackintoshfruitfarm.com\/category\/blog\/","Address":"1608 Russell Rd, Berryville, Virginia 22611","State":"Virginia","City":"Berryville","Street":"1608 Russell Rd","Zip":"22611","Longitude":"-78.043481","Latitude":"39.1940937","Dates":null,"Products":""},{"Type":"on-farm market","ModifyDate":"Oct 1st, 2015","Image":"default-onfarmmarket-4-3.jpg","ListingID":"701299","Name":"Sinclair Farm","Description":null,"ContactName":"Debbie Sinclair","ContactEmail":"csa@sinclairfarm.com","ContactPhone":"540-477-9268","Website":"http:\/\/www.sinclairfarm.com","Facebook":"http:\/\/www.facebook.com\/sinclair","Twitter":null,"Instagram":null,"Pinterest":null,"Youtube":null,"Blog":null,"Address":"1167 Crooked Run Rd., Mount Jackson , Virginia 22842","State":"Virginia","City":"Mount Jackson","Street":"1167 Crooked Run Rd.","Zip":"22842","Longitude":"-78.689532","Latitude":"38.764631","Dates":null,"Products":""},{"Type":"on-farm market","ModifyDate":"Oct 22nd, 2014","Image":"default-onfarmmarket-4-3.jpg","ListingID":"700256","Name":"Our Father's Farm LLC","Description":null,"ContactName":"Kim Fuhrmann","ContactEmail":"orders@ourfathersfarmva.com","ContactPhone":"434-656-1188","Website":"www.ourfathersfarmva.com","Facebook":null,"Twitter":null,"Instagram":null,"Pinterest":null,"Youtube":null,"Blog":null,"Address":"2664 Deer View Rd, Gretna, Virginia 24557","State":"Virginia","City":"Gretna","Street":"2664 Deer View Rd","Zip":"24557","Longitude":"-79.298937","Latitude":"36.9766800","Dates":null,"Products":""},{"Type":"on-farm market","ModifyDate":"Oct 23rd, 2019","Image":"default-onfarmmarket-4-3.jpg","ListingID":"700509","Name":"Messicks Farm Market","Description":null,"ContactName":"Caitlin Taylor","ContactEmail":"manager@messicksfarmmarket.com","ContactPhone":"(540)-439-8900","Website":"Messicksfarmmarket.com","Facebook":"https:\/\/www.facebook.com\/MessicksFarmMarket","Twitter":null,"Instagram":null,"Pinterest":null,"Youtube":null,"Blog":null,"Address":"6025 Catlett Road, Bealeton, Virginia 22712","State":"Virginia","City":"Bealeton","Street":"6025 Catlett Road","Zip":"22712","Longitude":"-77.750604","Latitude":"38.594749","Dates":null,"Products":""},{"Type":"on-farm market","ModifyDate":"Oct 3rd, 2014","Image":"default-onfarmmarket-4-3.jpg","ListingID":"701120","Name":"Goat Hill on Farm Market","Description":null,"ContactName":"Goat Hill, John O\\'Malley BURNS","ContactEmail":"travelling.goat@gmail.com","ContactPhone":"5405227878","Website":"goathill.farm","Facebook":"https:\/\/www.facebook.com\/thefarmatlittlewashington?ref=hl","Twitter":null,"Instagram":null,"Pinterest":null,"Youtube":null,"Blog":null,"Address":"365 Tiger Valley Rd., Washington, Virginia 22747","State":"Virginia","City":"Washington","Street":"365 Tiger Valley Rd.","Zip":"22747","Longitude":"-78.147868","Latitude":"38.702165","Dates":null,"Products":""},{"Type":"on-farm market","ModifyDate":"Sep 12th, 2014","Image":"default-onfarmmarket-4-3.jpg","ListingID":"701063","Name":"Misty Meadows, LLC","Description":null,"ContactName":"Tracey Chaney","ContactEmail":"mistymeadowsfarm@live.com","ContactPhone":"434-446-3739","Website":null,"Facebook":"misty.meadows.llc","Twitter":null,"Instagram":null,"Pinterest":null,"Youtube":null,"Blog":null,"Address":"13185 River Rd, South Boston, Virginia 24592","State":"Virginia","City":"South Boston","Street":"13185 River Rd","Zip":"24592","Longitude":"-79.104673","Latitude":"36.6755206","Dates":null,"Products":""},{"Type":"on-farm market","ModifyDate":"Sep 12th, 2019","Image":"default-onfarmmarket-4-3.jpg","ListingID":"701491","Name":"Sapphire Farms","Description":null,"ContactName":"Heather White","ContactEmail":"sapphirefarmsva@gmail.com","ContactPhone":"4347707945","Website":"https:\/\/www.sapphirefarmsva.com\/","Facebook":"https:\/\/www.facebook.com\/pastureanimals\/?ref=bookmarks","Twitter":null,"Instagram":null,"Pinterest":null,"Youtube":null,"Blog":null,"Address":"3174 Thompson Store Road, Vernon Hill, Virginia 24597","State":"Virginia","City":"Vernon Hill","Street":"3174 Thompson Store Road","Zip":"24597","Longitude":"-79.078874","Latitude":"36.785534","Dates":null,"Products":""},{"Type":"on-farm market","ModifyDate":"Sep 13th, 2014","Image":"default-onfarmmarket-4-3.jpg","ListingID":"701066","Name":"Dansby's Berry and Asparagus Farm","Description":null,"ContactName":"John and Elaine Dansby","ContactEmail":"Dansbyelaine@ymail.com","ContactPhone":"540-576-3658","Website":"Dansbyelaine@ymail.com","Facebook":null,"Twitter":null,"Instagram":null,"Pinterest":null,"Youtube":null,"Blog":null,"Address":"4481 Colonial Turnpike, Rocky Mount, Virginia 24151","State":"Virginia","City":"Rocky Mount","Street":"4481 Colonial Turnpike","Zip":"24151","Longitude":"-79.761102","Latitude":"36.954019","Dates":null,"Products":""},{"Type":"on-farm market","ModifyDate":"Sep 16th, 2014","Image":"default-onfarmmarket-4-3.jpg","ListingID":"700185","Name":"Alpaca Pastures of Virginia, Inc","Description":null,"ContactName":"Patrick and Sherry McEvoy","ContactEmail":"AlpacaPasturesVa@aol.com","ContactPhone":"804-449-1423","Website":"www.AlpacaPasturesVA.com","Facebook":"https:\/\/www.facebook.com\/AlpacaPasturesVA","Twitter":null,"Instagram":null,"Pinterest":null,"Youtube":null,"Blog":null,"Address":"18388 Beaver Dam Road, Beaverdam, Virginia 23015","State":"Virginia","City":"Beaverdam","Street":"18388 Beaver Dam Road","Zip":"23015","Longitude":"-77.659154","Latitude":"37.912894","Dates":null,"Products":""},{"Type":"on-farm market","ModifyDate":"Sep 17th, 2014","Image":"default-onfarmmarket-4-3.jpg","ListingID":"700246","Name":"Pleasant Fields Farm","Description":null,"ContactName":"Mildred Rudolph","ContactEmail":"pleasantfields@aol.com","ContactPhone":"804-304-5984","Website":null,"Facebook":"Pleasant Fields Farm","Twitter":null,"Instagram":null,"Pinterest":null,"Youtube":null,"Blog":null,"Address":"1765 Nelsons Bridge Road, Hanover, Virginia 23069","State":"Virginia","City":"Hanover","Street":"1765 Nelsons Bridge Road","Zip":"23069","Longitude":"-77.373362","Latitude":"37.827413","Dates":null,"Products":""},{"Type":"on-farm market","ModifyDate":"Sep 17th, 2014","Image":"default-onfarmmarket-4-3.jpg","ListingID":"700356","Name":"Born Free Farm","Description":null,"ContactName":"Born Free","ContactEmail":"free.born39@yahoo.com","ContactPhone":"276-346-3851","Website":"http:\/\/bornfreefarm.webs.com\/apps\/webstore\/","Facebook":null,"Twitter":null,"Instagram":null,"Pinterest":null,"Youtube":null,"Blog":null,"Address":"P.O. BOX 31, JONESVILLE, Virginia 24263","State":"Virginia","City":"JONESVILLE","Street":"P.O. BOX 31","Zip":"24263","Longitude":"-83.248354","Latitude":"36.614715","Dates":null,"Products":""},{"Type":"on-farm market","ModifyDate":"Sep 23rd, 2014","Image":"default-onfarmmarket-4-3.jpg","ListingID":"700844","Name":"Bee Berry Farm","Description":null,"ContactName":null,"ContactEmail":"busybees@beeberry.farm","ContactPhone":null,"Website":"http:\/\/beeberryfarm.net\/","Facebook":null,"Twitter":null,"Instagram":null,"Pinterest":null,"Youtube":null,"Blog":null,"Address":"1588 Blue Grass Trail, newport, Virginia","State":"Virginia","City":"newport","Street":"1588 Blue Grass Trail","Zip":null,"Longitude":"-80.446136","Latitude":"37.3150920","Dates":null,"Products":""},{"Type":"on-farm market","ModifyDate":"Sep 30th, 2014","Image":"default-onfarmmarket-4-3.jpg","ListingID":"700271","Name":"Mt Olympus Berry Farm","Description":null,"ContactName":"Mary West","ContactEmail":"mary@mtolympusfarm.com","ContactPhone":"804-387-1450","Website":"http:\/\/www.mtolympusfarm.com\/mtolympusfarm\/home.html","Facebook":"https:\/\/www.facebook.com\/pages\/Mt-Olympus-Berry-Farm\/46671088391?ref=bookmarks","Twitter":null,"Instagram":null,"Pinterest":null,"Youtube":null,"Blog":null,"Address":"23298 Jefferson Davis Hwy, Ruther Glen, Virginia 22546","State":"Virginia","City":"Ruther Glen","Street":"23298 Jefferson Davis Hwy","Zip":"22546","Longitude":"-77.482772","Latitude":"37.9422895","Dates":null,"Products":""},{"Type":"on-farm market","ModifyDate":"Sep 3rd, 2014","Image":"default-onfarmmarket-4-3.jpg","ListingID":"700040","Name":"Seven Oaks Lavender Farm","Description":null,"ContactName":"Deborah Williamson","ContactEmail":"deborah@sevenoakslavenderfarm.com","ContactPhone":"540-272-7839","Website":"www.sevenoakslavenderfarm.com","Facebook":"https:\/\/www.facebook.com\/sevenoakslavender","Twitter":null,"Instagram":null,"Pinterest":null,"Youtube":null,"Blog":null,"Address":"8769 Old Dumfries Rd., Catlett, Virginia 20119","State":"Virginia","City":"Catlett","Street":"8769 Old Dumfries Rd.","Zip":"20119","Longitude":"-77.662374","Latitude":"38.6778300","Dates":null,"Products":""},{"Type":"on-farm market","ModifyDate":"Sep 4th, 2014","Image":"default-onfarmmarket-4-3.jpg","ListingID":"701020","Name":"Drewry Farm","Description":null,"ContactName":"Michael Drewry","ContactEmail":"michael_drewry@yahoo.com","ContactPhone":"7578993636","Website":"www.drewryfarms.com","Facebook":"www.facebook.com-Drewry.Farm.Blueberries","Twitter":null,"Instagram":null,"Pinterest":null,"Youtube":null,"Blog":null,"Address":"541 Strawberry Lane, Wakefield, Virginia 23888","State":"Virginia","City":"Wakefield","Street":"541 Strawberry Lane","Zip":"23888","Longitude":"-76.965472","Latitude":"37.002663","Dates":null,"Products":""},{"Type":"on-farm market","ModifyDate":"Sep 5th, 2014","Image":"default-onfarmmarket-4-3.jpg","ListingID":"701024","Name":"Puffenbargers Farm Beef","Description":null,"ContactName":"Doug Puffenbarger","ContactEmail":"dpandtp@htcnet.org","ContactPhone":"540-474-5712","Website":null,"Facebook":"Puffenbarger\\'s Farm","Twitter":null,"Instagram":null,"Pinterest":null,"Youtube":null,"Blog":null,"Address":"2476 Maple Sugar Road, Blue Grass, Virginia 24413","State":"Virginia","City":"Blue Grass","Street":"2476 Maple Sugar Road","Zip":"24413","Longitude":"-79.613586","Latitude":"38.4360611","Dates":null,"Products":""},{"Type":"on-farm market","ModifyDate":"Sep 7th, 2020","Image":"default-onfarmmarket-4-3.jpg","ListingID":"701556","Name":"GrazeUp Farm LLC","Description":null,"ContactName":"Chelsie Rice","ContactEmail":"Grazeupfarm@gmail.com","ContactPhone":"7575854284","Website":"www.grazeupfarm.com","Facebook":"https:\/\/www.facebook.com\/grazeupfarm","Twitter":null,"Instagram":null,"Pinterest":null,"Youtube":null,"Blog":"https:\/\/www.grazeupfarm.com\/recipes","Address":"188 Seatons Ln, West Point, Virginia 23181","State":"Virginia","City":"West Point","Street":"188 Seatons Ln","Zip":"23181","Longitude":"-76.890206","Latitude":"37.591739","Dates":null,"Products":""}]