[{"Type":"farmers market","ModifyDate":"Dec 15th, 2021","Image":"default-farmersmarket-4-3.jpg","ListingID":"301622","Name":"Palmas Farmers Market","Description":null,"ContactName":"Jennifer Morrow","ContactEmail":"Jennifer@GrowingPR.com","ContactPhone":"787-465-8805","Website":"https:\/\/palmasfarmersmarket.com\/","Facebook":"https:\/\/www.facebook.com\/PalmasFarmersMarket","Twitter":"https:\/\/twitter.com\/wegrowpr","Instagram":null,"Pinterest":null,"Youtube":null,"Blog":null,"Address":"170 Canderlero Dr, Humacao, Puerto Rico 00791","State":"Puerto Rico","City":"Humacao","Street":"170 Canderlero Dr","Zip":"00791","Longitude":"-65.797119","Latitude":"18.088831","Dates":"Year-round","Products":"Fresh fruits, Fresh vegetables, Baked goods, Bedding plants, Canned or preserved fruits\/vegetables, Coffee\/tea, Crafts\/woodworking items, Cut flowers, Dairy products., Eggs, Fish\/seafood, Fresh\/dried herbs, Honey, Juices\/non-alcoholic ciders, Mushrooms, Pet food, Poultry\/fowl meat and products, Prepared foods, Red\/other non-poultry meat and products, Soap\/body care products, Tofu\/non-animal protein, Wild harvested forest products, Wine, spirits, beer, hard cider"},{"Type":"farmers market","ModifyDate":"Dec 24th, 2020","Image":"default-farmersmarket-4-3.jpg","ListingID":"301360","Name":"L. A Mercado Agricola","Description":null,"ContactName":"Rowin","ContactEmail":"lamercadoagricola@gmail.com","ContactPhone":"7812676312","Website":null,"Facebook":null,"Twitter":null,"Instagram":null,"Pinterest":null,"Youtube":null,"Blog":null,"Address":"Carolina, Puerto Rico 00979","State":"Puerto Rico","City":"Carolina","Street":null,"Zip":"00979","Longitude":"-66.011273","Latitude":"18.431395","Dates":"Year-round","Products":"Fresh vegetables, Baked goods, Coffee\/tea, Cut flowers, Eggs, Honey, Juices\/non-alcoholic ciders, Nursery stock"},{"Type":"on-farm market","ModifyDate":"May 25th, 2016","Image":"default-onfarmmarket-4-3.jpg","ListingID":"701340","Name":"SweetWater Vertical Farm","Description":null,"ContactName":"Jose Torres","ContactEmail":"jtorresortiz1@gmail.com","ContactPhone":"954-554-1429","Website":null,"Facebook":"SweetWater Vertical Farm","Twitter":null,"Instagram":null,"Pinterest":null,"Youtube":null,"Blog":null,"Address":"Carretera 779 KM 8.9, Barranquitas , Puerto Rico 00794","State":"Puerto Rico","City":"Barranquitas","Street":"Carretera 779 KM 8.9","Zip":"00794","Longitude":"-66.269690","Latitude":"18.243352","Dates":null,"Products":""}]