[{"type":"farm","street":"911-108th St.","city":"Avoca","state":"NE","zip":"68307","longitude":"-96.083143","latitude":"40.823423","name":"Bloom Where You're Planted Farm and Pumpkin Patch","website":"www.BloomPumpkinPatch.com","facebook":"https://www.facebook.com/BloomWhereYourePlantedFarm","twitter":"","tags":"baked-goods crafts woodworking fresh-vegetables prepared-foods"},{"type":"farm","street":"1875 D Road","city":"Unadilla","state":"NE","zip":"68454","longitude":"-96.2863203","latitude":"40.7406126","name":"Chisholm Family Farm's Orchard Hill Creamery","website":"www.chisholmfamilyfarm.com","facebook":"https://www.facebook.com/chisholmfamilyfarm","twitter":"","tags":"canned preserved coffee tea crafts woodworking dairy products eggs herbs fresh-vegetables grains flour honey poultry fowl red-meat non-poultry-meat soap body-care"},{"type":"farm","street":"5132 E. 8th Street","city":"Columbus","state":"NE","zip":"68601","longitude":"-97.262156","latitude":"41.423775","name":"Country Lane Gardens","website":"countrylanegardens.org","facebook":"Country Lane Gardens","twitter":"","tags":"bedding plants canned preserved cut-flowers eggs fresh-vegetables honey poultry fowl"},{"type":"farm","street":"414 County Rd 15","city":"Ceresco","state":"NE","zip":"68017","longitude":"-96.582894","latitude":"41.060047","name":"Darby Springs Farm","website":"http://darbysprings.wordpress.com/","facebook":"https://www.facebook.com/darbyspringsfarm","twitter":"https://www.twitter.com/DarbySpringFarm","tags":"dairy products eggs herbs fresh-fruits fresh-vegetables poultry fowl wild-harvested forest-products"},{"type":"farm","street":"3010 Vane Street","city":"Omaha","state":"NE","zip":"68111","longitude":"-95.9573130","latitude":"41.3230760","name":"Sun Natural Open Air Market","website":"http://www.sunnatural.org","facebook":"https://www.facebook.com/hiddenrootsfarm/?ref=hl","twitter":"https://twitter.com/SunOmaha","tags":"baked-goods bedding plants canned preserved crafts woodworking cut-flowers dry beans herbs fresh-vegetables honey"},{"type":"market","name":"18th Street Farmer's Market","website":"","facebook":"https://www.facebook.com/ScottsbluffFarmersMarket","twitter":"","street":"18th and Broadway","city":"Scottsbluff","state":"NE","zip":"69361","longitude":"-103.662538","latitude":"41.864268","tags":"organic baked goods cheese crafts flowers eggs herbs vegetables honey jams meat plants poultry prepared-foods coffee beans fruits"},{"type":"market","name":"Bassett Farmers Market","website":"","facebook":"","twitter":"","street":"200 Clark St.","city":"Bassett","state":"NE","zip":"68714","longitude":"-99.536625","latitude":"42.582541","tags":"vegetables"},{"type":"market","name":"Beatrice Farmers Market Indian Creek Mall","website":"","facebook":"","twitter":"","street":"Indian Creek Mall 2205 N 6th St","city":"Beatrice","state":"NE","zip":"68310","longitude":"-96.747301","latitude":"40.273594","tags":"vegetables fruits"},{"type":"market","name":"Beaver City Farmers Market","website":"","facebook":"","twitter":"","street":"","city":"Beaver City","state":"NE","zip":"","longitude":"-99.827615","latitude":"40.138332","tags":"vegetables fruits"},{"type":"market","name":"Bennet Farmers' Market","website":"http://www.bennetfarmersmarket.com/","facebook":"","twitter":"","street":"Elm and Harrison","city":"Bennet","state":"NE","zip":"68317","longitude":"-96.503262","latitude":"40.680612","tags":"organic baked goods crafts flowers eggs herbs vegetables jams meat nuts plants poultry soap trees fruits"},{"type":"market","name":"Chatter Box Farmers Market in Tekamah","website":"","facebook":"","twitter":"","street":"","city":"Tekamah ","state":"NE","zip":"","longitude":"-96.222387","latitude":"41.775832","tags":"vegetables fruits"},{"type":"market","name":"Columbus Farmers Market","website":"","facebook":"Columbus Farmers Market","twitter":"","street":"14 st and 26 Ave","city":"Columbus","state":"NE","zip":"68601","longitude":"-97.360360","latitude":"41.430012","tags":"baked goods crafts flowers eggs herbs vegetables honey jams meat plants poultry prepared-foods soap coffee beans fruits juices pet food"},{"type":"market","name":"Cozad Grand Generation Center","website":"","facebook":"https://www.facebook.com/pages/Cozad-Haymaker-Grand-Generation-Center/581875038530338","twitter":"","street":"410 W 9th St.","city":"Cozad ","state":"NE","zip":"69130","longitude":"-99.9901154","latitude":"40.8606228","tags":"organic baked goods vegetables honey jams prepared-foods coffee fruits"},{"type":"market","name":"David City Farmers Market","website":"","facebook":"","twitter":"","street":"","city":"David City ","state":"NE","zip":"68632","longitude":"-97.129955","latitude":"41.264759","tags":"baked goods eggs vegetables honey jams fruits"},{"type":"market","name":"Eagle Farmers Market","website":"","facebook":"","twitter":"","street":"5th St. and Hwy 34","city":"eagle","state":"NE","zip":"68347","longitude":"-96.432729","latitude":"40.816121","tags":"vegetables fruits"},{"type":"market","name":"Fallbrook Farmers' Market","website":"http://www.fallbrookfarmersmarket.com/","facebook":"https://www.facebook.com/fallbrookfarmersmarket/","twitter":"","street":"600 Fallbrook Blvd","city":"Lincoln","state":"NE","zip":"68522","longitude":"-96.728376","latitude":"40.877605","tags":"organic baked goods crafts flowers eggs herbs vegetables honey jams maple meat nuts poultry prepared-foods coffee fruits juices mushrooms wild"},{"type":"market","name":"Henderson Farmers Market","website":"","facebook":"","twitter":"","street":"","city":"Henderson","state":"NE","zip":"","longitude":"-97.811491","latitude":"40.778922","tags":"vegetables fruits"},{"type":"market","name":"Heritage Acres Drive-thru Market","website":"http://heritageacres.net","facebook":"@heritageacresfarm","twitter":"","street":"507 W B St,","city":"McCook","state":"NE","zip":"69001","longitude":"-100.631876","latitude":"40.199476","tags":"organic baked goods eggs vegetables honey meat poultry coffee beans fruits grains mushrooms"},{"type":"market","name":"Market 23","website":"","facebook":"Market 23","twitter":"","street":"2620 23 ST","city":"Columbus","state":"NE","zip":"68601","longitude":"-97.361665","latitude":"41.440025","tags":"baked goods cheese crafts flowers eggs herbs vegetables honey jams meat plants poultry prepared-foods soap wine beans fruits pet food"},{"type":"market","name":"Market on the Square (BrokenkBow)","website":"","facebook":"","twitter":"","street":"","city":"Broken Bow ","state":"NE","zip":"","longitude":"-99.63987","latitude":"41.40541","tags":"vegetables fruits"},{"type":"market","name":"New Grand Island Farmers Market","website":"","facebook":"","twitter":"","street":"","city":"Grand Island","state":"NE","zip":"","longitude":"-98.357951","latitude":"40.922193","tags":"vegetables fruits"},{"type":"market","name":"Norfolk Farmers Market","website":"","facebook":"","twitter":"","street":"","city":"Stanton ","state":"NE","zip":"","longitude":"-97.212686","latitude":"41.948007","tags":"vegetables fruits"},{"type":"market","name":"Omaha Farmers Market - Aksarben Village","website":"http://omahafarmersmarket.com","facebook":"www.facebook.com/omahafarmersmarket","twitter":"@omahafarmersmkt","street":"67th & Center Street","city":"Omaha","state":"NE","zip":"68106","longitude":"-96.0138738","latitude":"41.2377371","tags":"organic baked goods cheese crafts flowers eggs herbs vegetables honey jams meat nuts plants poultry prepared-foods soap wine coffee fruits mushrooms pet food"},{"type":"market","name":"Omaha Farmers Market - Old Market","website":"http://omahafarmersmarket.com","facebook":"https://www.facebook.com/omahafarmersmarket/","twitter":"@OmahaFarmersMkt","street":"11th & Jackson Street","city":"Omaha","state":"NE","zip":"68102","longitude":"-96.041927","latitude":"41.264675","tags":"organic baked goods cheese crafts flowers eggs herbs vegetables honey jams meat plants poultry prepared-foods soap wine coffee fruits mushrooms pet food"},{"type":"market","name":"Plainview Farmers Market","website":"","facebook":"","twitter":"","street":"","city":"Plainview ","state":"NE","zip":"","longitude":"-97.787145","latitude":"42.353346","tags":"vegetables fruits"},{"type":"market","name":"Plattsmouth Downtown Farmers Market","website":"","facebook":"","twitter":"","street":"","city":"Plattsmouth ","state":"NE","zip":"","longitude":"-95.894144","latitude":"41.005653","tags":"vegetables fruits"},{"type":"market","name":"Wahoo Farmers Market","website":"","facebook":"","twitter":"","street":"Corner of 7th and Beech","city":"Wahoo","state":"NE","zip":"68066","longitude":"-96.617391","latitude":"41.212079","tags":"baked goods crafts eggs herbs vegetables jams plants fruits pet food"},{"type":"market","name":"West Point Farmers Market","website":"","facebook":"","twitter":"","street":"","city":"West Point ","state":"NE","zip":"","longitude":"-96.705918","latitude":"41.837741","tags":"vegetables fruits"},{"type":"market","name":"Wilber Farmers Market","website":"","facebook":"","twitter":"","street":"","city":"Dorchester","state":"NE","zip":"","longitude":"-97.114886","latitude":"40.64738","tags":"vegetables fruits"}]
